time,roll,pitch,yaw,rp_rpm,ry_rpm,err_p,err_y,mp_rpm,my_rpm
0.042,-0.0409,0.07,-0.0022,-0.43,0.0,-28.75,0.13,-307.0,85.0
0.113,-0.0453,0.0761,-0.0022,-0.42,0.0,-28.65,0.12,-663.8,12.9
0.184,-0.044,0.0756,-0.0022,-0.42,0.0,-28.18,0.13,-1019.0,16.3
0.255,-0.0527,0.0816,-0.0022,-0.41,0.0,-28.09,0.12,-1372.0,14.3
0.324,-0.0526,0.0706,-0.0022,-0.4,0.0,-27.02,0.12,-1448.4,15.6
0.395,-0.0533,0.0702,-0.0022,-0.39,0.0,-26.57,0.13,-1661.1,15.5
0.464,-0.0482,0.0729,-0.0022,-0.39,0.0,-26.3,0.13,-1730.9,16.3
0.535,-0.0512,0.0736,-0.0022,-0.38,0.0,-25.92,0.13,-1705.6,15.6
0.605,-0.0458,0.0781,-0.0022,-0.37,0.0,-25.76,0.13,-1787.2,16.4
0.675,-0.0443,0.0764,-0.0022,-0.36,0.0,-25.26,0.13,-1686.7,16.3
0.746,-0.0451,0.071,-0.0022,-0.36,0.0,-24.55,0.13,-1618.2,15.6
0.815,-0.0477,0.0603,-0.0022,-0.35,0.0,-23.56,0.13,-1508.2,16.6
0.886,-0.051,0.0608,-0.0022,-0.34,0.0,-23.2,0.13,-1726.5,15.1
0.957,-0.0518,0.0594,-0.0022,-0.34,0.0,-22.75,0.12,-1699.5,15.7
1.027,-0.0523,0.0632,-0.0022,-0.33,0.0,-22.61,0.12,-1804.0,16.3
1.097,-0.0574,0.0596,-0.0022,-0.33,0.0,-22.05,0.13,-1680.4,16.5
1.167,-0.0574,0.0558,-0.0022,-0.32,0.0,-21.5,0.13,-1680.6,16.8
1.237,-0.0567,0.0546,-0.0022,-0.31,0.0,-21.12,0.13,-1736.1,16.2
1.307,-0.0602,0.0471,-0.0022,-0.31,0.0,-20.38,0.13,-1619.1,16.8
1.376,-0.0461,0.0492,-0.0022,-0.3,0.0,-20.21,0.13,-1801.7,17.4
1.447,-0.0461,0.0508,-0.0022,-0.3,0.0,-20.02,0.13,-1807.2,16.0
1.517,-0.0403,0.0422,-0.0022,-0.29,0.0,-19.27,0.12,-1624.9,15.8
1.587,-0.0346,0.0359,-0.0022,-0.29,0.0,-18.66,0.13,-1666.3,17.4
1.658,-0.0383,0.0297,-0.0022,-0.29,0.0,-18.07,0.12,-1671.8,15.6
1.728,-0.0316,0.0213,-0.0022,-0.28,0.0,-17.38,0.13,-1626.7,18.0
1.797,-0.0437,0.0041,-0.0022,-0.28,0.0,-16.19,0.13,-1429.7,17.3
1.867,-0.0529,-0.0079,-0.0022,-0.28,0.0,-15.33,0.12,-1525.8,15.4
1.937,-0.0541,-0.0122,-0.0022,-0.27,0.0,-14.92,0.13,-1676.1,17.2
2.008,-0.0597,-0.026,-0.0022,-0.27,0.0,-13.98,0.13,-1481.4,16.9
2.078,-0.0638,-0.0416,-0.0022,-0.27,0.0,-12.97,0.12,-1425.2,15.8
2.148,-0.0597,-0.0641,-0.0021,-0.27,0.0,-11.57,0.12,-1232.2,15.7
2.218,-0.0545,-0.0873,-0.0022,-0.26,0.0,-10.16,0.12,-1170.7,17.3
2.288,-0.0503,-0.1065,-0.0021,-0.26,0.0,-8.99,0.12,-1228.4,16.0
2.358,-0.053,-0.1252,-0.0021,-0.26,0.0,-7.87,0.12,-1216.6,15.9
2.429,-0.057,-0.1487,-0.0021,-0.26,0.0,-6.49,0.12,-1039.4,17.0
2.499,-0.0521,-0.1704,-0.0021,-0.26,0.0,-5.24,0.12,-1031.9,14.8
2.569,-0.0497,-0.1905,-0.0021,-0.26,0.0,-4.1,0.12,-1042.0,16.4
2.639,-0.0471,-0.2132,-0.0021,-0.26,0.0,-2.82,0.12,-896.6,16.0
2.712,-0.0466,-0.2373,-0.0021,-0.26,0.0,-1.49,0.12,-812.8,16.1
2.783,-0.0495,-0.2584,-0.0021,-0.26,0.0,-0.35,0.12,-830.7,15.8
2.854,-0.052,-0.2802,-0.0021,-0.27,0.0,0.81,0.12,-734.6,15.4
2.925,-0.0569,-0.2992,-0.002,-0.27,0.0,1.79,0.12,-788.5,14.5
2.995,-0.0552,-0.3124,-0.002,-0.27,0.0,2.42,0.12,-941.4,15.4
3.066,-0.0524,-0.3238,-0.002,-0.27,0.0,2.92,0.12,-984.9,15.4
3.138,-0.0511,-0.3346,-0.002,-0.28,0.0,3.38,0.12,-984.5,14.3
3.207,-0.0539,-0.3455,-0.0021,-0.28,0.0,3.83,0.12,-942.9,16.9
3.275,-0.0578,-0.3494,-0.002,-0.28,0.0,3.86,0.12,-1150.0,13.9
3.346,-0.062,-0.3584,-0.002,-0.29,0.0,4.16,0.12,-1000.5,14.9
3.416,-0.0619,-0.3654,-0.002,-0.29,0.0,4.33,0.12,-1050.8,15.4
3.485,-0.0555,-0.3693,-0.002,-0.29,0.0,4.3,0.12,-1140.4,15.4
3.557,-0.0557,-0.3602,-0.0021,-0.3,0.0,3.51,0.12,-1468.2,15.2
3.63,-0.0611,-0.357,-0.002,-0.3,0.0,3.04,0.12,-1366.7,12.9
3.7,-0.0494,-0.3484,-0.002,-0.31,0.0,2.25,0.12,-1514.4,13.9
3.771,-0.0472,-0.3384,-0.002,-0.31,0.0,1.37,0.12,-1576.1,14.4
3.84,-0.0439,-0.3276,-0.0021,-0.32,0.0,0.43,0.12,-1629.3,15.0
3.906,-0.0416,-0.3118,-0.0021,-0.33,0.0,-0.79,0.12,-1775.9,14.2
3.973,-0.0443,-0.3094,-0.002,-0.33,0.0,-1.26,0.12,-1536.9,14.1
4.039,-0.0397,-0.2963,-0.002,-0.34,0.0,-2.35,0.11,-1783.7,12.9
4.106,-0.0396,-0.2845,-0.0021,-0.34,0.0,-3.38,0.12,-1795.3,17.3
4.173,-0.0542,-0.2734,-0.0021,-0.35,0.0,-4.37,0.12,-1819.3,15.2
4.239,-0.0684,-0.2652,-0.002,-0.36,0.0,-5.2,0.12,-1801.1,13.3
4.305,-0.0723,-0.2542,-0.0021,-0.36,0.0,-6.21,0.12,-1884.5,15.9
4.371,-0.0628,-0.24,-0.0021,-0.37,0.0,-7.4,0.12,-1977.4,14.9
4.437,-0.0429,-0.2313,-0.0021,-0.38,0.0,-8.28,0.12,-1918.3,16.7
4.503,-0.0433,-0.2268,-0.0021,-0.38,0.0,-8.93,0.12,-1875.0,16.0
4.57,-0.0296,-0.2106,-0.0021,-0.39,0.0,-10.26,0.12,-2000.0,14.8
4.636,-0.0427,-0.2031,-0.0021,-0.4,0.0,-11.09,0.12,-2000.0,16.4
4.702,-0.0269,-0.1958,-0.0021,-0.4,0.0,-11.92,0.12,-2000.0,14.5
4.768,-0.0613,-0.2042,-0.0022,-0.41,0.0,-11.85,0.12,-1770.2,19.8
4.837,-0.029,-0.2101,-0.0021,-0.42,0.0,-11.93,0.12,-1827.1,15.2
4.903,-0.0315,-0.2253,-0.0021,-0.43,0.0,-11.48,0.12,-1650.0,16.7
4.969,-0.0237,-0.2252,-0.0021,-0.43,0.0,-11.91,0.12,-1941.5,16.0
5.035,-0.0162,-0.2419,-0.0021,-0.44,0.0,-11.36,0.12,-1630.9,16.6
5.101,-0.019,-0.2449,-0.0021,-0.45,0.0,-11.6,0.12,-1894.4,15.0
5.167,-0.0374,-0.2536,-0.0021,-0.45,0.0,-11.52,0.12,-1799.6,15.7
5.234,-0.0228,-0.2557,-0.0021,-0.46,0.0,-11.81,0.12,-1927.7,14.9
5.3,-0.0438,-0.2734,-0.002,-0.47,0.0,-11.21,0.11,-1639.3,14.4
5.366,-0.0337,-0.2824,-0.002,-0.48,0.0,-11.1,0.12,-1801.4,15.8
5.432,-0.0546,-0.3006,-0.002,-0.48,0.0,-10.46,0.12,-1616.6,16.9
5.498,-0.0666,-0.3318,-0.002,-0.49,0.0,-9.07,0.12,-1286.9,15.5
5.565,-0.071,-0.335,-0.0021,-0.5,0.0,-9.28,0.12,-1621.8,17.0
5.631,-0.0704,-0.3674,-0.002,-0.5,0.0,-7.81,0.12,-1292.1,15.2
5.697,-0.0586,-0.3859,-0.002,-0.51,0.0,-7.13,0.12,-1508.9,14.6
5.764,-0.05,-0.408,-0.002,-0.52,0.0,-6.24,0.12,-1406.1,16.4
5.831,-0.0576,-0.4386,-0.002,-0.52,0.0,-4.85,0.12,-1133.2,14.8
5.897,-0.0544,-0.4578,-0.002,-0.53,0.0,-4.11,0.11,-1383.7,14.0
5.963,-0.053,-0.4784,-0.002,-0.54,0.0,-3.28,0.11,-1316.2,14.6
6.03,-0.0632,-0.4953,-0.002,-0.54,0.0,-2.65,0.12,-1376.8,15.7
6.097,-0.0631,-0.5102,-0.002,-0.55,0.0,-2.13,0.11,-1401.4,13.7
6.164,-0.0688,-0.521,-0.002,-0.55,0.0,-1.83,0.11,-1472.8,12.2
6.23,-0.0692,-0.5385,-0.002,-0.56,0.0,-1.13,0.11,-1287.5,14.5
6.297,-0.0763,-0.5468,-0.002,-0.56,0.0,-0.95,0.11,-1487.7,12.5
6.363,-0.0616,-0.5457,-0.002,-0.57,0.0,-1.29,0.11,-1680.8,13.1
6.43,-0.0667,-0.5551,-0.002,-0.57,0.0,-1.02,0.11,-1458.2,14.2
6.497,-0.0703,-0.5537,-0.002,-0.58,0.0,-1.35,0.11,-1681.8,10.7
6.564,-0.0676,-0.5527,-0.002,-0.58,0.0,-1.65,0.11,-1680.2,13.9
6.63,-0.0748,-0.5568,-0.002,-0.59,0.0,-1.64,0.11,-1577.4,14.0
6.698,-0.0851,-0.5545,-0.002,-0.59,0.0,-1.99,0.11,-1708.0,12.1
6.765,-0.0696,-0.5484,-0.0019,-0.59,0.0,-2.53,0.11,-1789.2,9.1
6.832,-0.0645,-0.5396,-0.002,-0.6,0.0,-3.22,0.11,-1856.2,13.2
6.899,-0.0585,-0.531,-0.002,-0.6,0.0,-3.87,0.11,-1865.8,13.2
6.966,-0.0376,-0.5214,-0.002,-0.6,0.0,-4.57,0.12,-1903.6,13.0
7.032,-0.0632,-0.5217,-0.002,-0.6,0.0,-4.68,0.12,-1732.9,13.5
7.101,-0.0485,-0.5176,-0.002,-0.61,0.0,-5.03,0.11,-1817.7,10.9
7.167,-0.0393,-0.4921,-0.002,-0.61,0.0,-6.59,0.11,-2000.0,11.6
7.234,-0.0553,-0.4933,-0.002,-0.61,0.0,-6.6,0.11,-1817.2,12.9
7.3,-0.0332,-0.4685,-0.002,-0.61,0.0,-8.08,0.11,-2000.0,11.9
7.367,-0.0499,-0.4851,-0.002,-0.61,0.0,-7.17,0.12,-1816.6,16.7
7.434,-0.0426,-0.4649,-0.002,-0.61,0.0,-8.36,0.11,-2000.0,10.3
7.501,-0.0374,-0.4334,-0.0019,-0.61,0.0,-10.17,0.11,-2000.0,10.3
7.568,-0.0405,-0.4336,-0.002,-0.61,0.0,-10.14,0.11,-2000.0,14.7
7.634,-0.0386,-0.4029,-0.002,-0.61,0.0,-11.88,0.11,-2000.0,13.2
7.703,-0.0577,-0.4142,-0.002,-0.61,0.0,-11.19,0.11,-2000.0,15.1
7.77,-0.0865,-0.4082,-0.002,-0.61,0.0,-11.47,0.12,-2000.0,16.2
7.837,-0.045,-0.4088,-0.002,-0.61,0.0,-11.36,0.11,-1935.5,12.2
7.905,-0.0696,-0.4057,-0.002,-0.61,0.0,-11.43,0.11,-1998.0,15.1
7.972,-0.0598,-0.4022,-0.0021,-0.6,0.0,-11.52,0.12,-2000.0,17.8
8.039,-0.0763,-0.4152,-0.0021,-0.6,0.0,-10.64,0.12,-1706.3,17.6
8.107,-0.0322,-0.4159,-0.002,-0.6,0.0,-10.45,0.12,-1918.4,12.3
8.174,-0.0156,-0.4323,-0.002,-0.6,0.0,-9.35,0.11,-1602.6,15.7
8.24,-0.0166,-0.4192,-0.002,-0.59,0.0,-9.92,0.11,-1933.3,12.8
8.306,-0.0502,-0.4337,-0.002,-0.59,0.0,-8.9,0.11,-1628.3,16.4
8.373,-0.0529,-0.4241,-0.002,-0.59,0.0,-9.23,0.11,-1961.1,13.5
8.439,-0.0667,-0.4461,-0.002,-0.58,0.0,-7.75,0.11,-1630.3,18.6
8.505,-0.0732,-0.4482,-0.002,-0.58,0.0,-7.39,0.12,-1811.3,16.3
8.571,-0.0795,-0.4605,-0.002,-0.57,0.0,-6.44,0.12,-1593.0,15.9
8.637,-0.0649,-0.4664,-0.002,-0.57,0.0,-5.83,0.11,-1693.6,14.2
8.705,-0.0898,-0.4862,-0.002,-0.56,0.0,-4.41,0.12,-1367.1,19.4
8.772,-0.0839,-0.4989,-0.002,-0.56,0.0,-3.39,0.12,-1476.4,15.2
8.839,-0.0791,-0.5025,-0.002,-0.55,0.0,-2.87,0.11,-1639.0,13.4
8.911,-0.0615,-0.5104,-0.002,-0.55,0.0,-2.08,0.12,-1533.5,18.0
8.984,-0.0484,-0.5084,-0.002,-0.54,0.0,-1.83,0.11,-1702.3,14.5
9.054,-0.0488,-0.5021,-0.002,-0.53,0.0,-1.83,0.11,-1775.3,13.6
9.126,-0.0364,-0.4998,-0.002,-0.53,0.0,-1.58,0.11,-1696.3,14.9
9.196,-0.0363,-0.4991,-0.002,-0.52,0.0,-1.25,0.11,-1657.6,15.4
9.266,-0.0304,-0.5076,-0.002,-0.51,0.0,-0.37,0.12,-1441.6,19.2
9.335,-0.0431,-0.5042,-0.002,-0.51,0.0,-0.17,0.12,-1666.5,15.9
9.405,-0.0487,-0.51,-0.002,-0.5,0.0,0.57,0.11,-1459.9,16.0
9.476,-0.0546,-0.5148,-0.002,-0.49,0.0,1.27,0.12,-1452.6,17.4
9.547,-0.0597,-0.5163,-0.002,-0.49,0.0,1.77,0.12,-1496.0,16.0
9.617,-0.0631,-0.5108,-0.002,-0.48,0.0,1.88,0.12,-1624.1,17.2
9.687,-0.0594,-0.5031,-0.002,-0.47,0.0,1.87,0.12,-1661.8,15.1
9.759,-0.0601,-0.4945,-0.002,-0.46,0.0,1.82,0.12,-1674.2,17.5
9.828,-0.0633,-0.4896,-0.002,-0.46,0.0,1.97,0.12,-1605.0,17.2
9.898,-0.0651,-0.4862,-0.002,-0.45,0.0,2.22,0.12,-1563.8,16.3
9.969,-0.0548,-0.483,-0.002,-0.44,0.0,2.48,0.12,-1547.6,18.1
10.042,-0.0622,-0.471,-0.002,-0.43,0.0,2.25,0.12,-1710.0,16.2
10.112,-0.0647,-0.4597,-0.002,-0.42,0.0,2.04,0.11,-1708.5,15.3
10.182,-0.0684,-0.4513,-0.002,-0.42,0.0,2.0,0.11,-1660.0,17.2
10.253,-0.0753,-0.4431,-0.002,-0.41,0.0,1.97,0.12,-1656.6,19.5
10.324,-0.0556,-0.4233,-0.002,-0.4,0.0,1.28,0.12,-1868.9,17.5
10.394,-0.0407,-0.4122,-0.0021,-0.39,0.0,1.07,0.12,-1737.9,19.3
10.464,-0.0351,-0.3946,-0.002,-0.39,0.0,0.48,0.12,-1866.9,17.0
10.535,-0.0359,-0.3796,-0.002,-0.38,0.0,0.05,0.12,-1837.8,18.4
10.604,-0.0598,-0.3722,-0.002,-0.37,0.0,0.03,0.12,-1714.6,18.6
10.675,-0.0611,-0.3755,-0.002,-0.36,0.0,0.63,0.12,-1495.8,19.6
10.745,-0.0693,-0.3677,-0.002,-0.36,0.0,0.58,0.12,-1707.9,20.4
10.817,-0.0806,-0.3624,-0.0021,-0.35,0.0,0.67,0.12,-1660.5,20.4
10.888,-0.078,-0.3609,-0.0021,-0.34,0.0,0.97,0.12,-1585.7,20.0
10.957,-0.0751,-0.3547,-0.0021,-0.34,0.0,0.98,0.12,-1675.3,19.9
11.027,-0.0725,-0.345,-0.002,-0.33,0.0,0.79,0.12,-1743.2,18.9
11.097,-0.0821,-0.3444,-0.002,-0.33,0.0,1.1,0.12,-1573.4,19.9
11.167,-0.0722,-0.3265,-0.002,-0.32,0.0,0.4,0.11,-1901.8,19.0
11.238,-0.0724,-0.3265,-0.002,-0.31,0.0,0.72,0.11,-1582.2,20.8
11.309,-0.0807,-0.3144,-0.002,-0.31,0.0,0.34,0.12,-1812.5,21.0
11.379,-0.0784,-0.3188,-0.002,-0.3,0.0,0.88,0.12,-1501.5,21.2
11.449,-0.0876,-0.3253,-0.002,-0.3,0.0,1.54,0.12,-1437.8,21.8
11.519,-0.081,-0.3317,-0.002,-0.29,0.0,2.17,0.11,-1419.2,19.7
11.589,-0.0653,-0.3246,-0.002,-0.29,0.0,2.0,0.12,-1691.1,22.6
11.659,-0.0482,-0.3282,-0.0021,-0.29,0.0,2.44,0.12,-1476.5,23.8
11.73,-0.0446,-0.333,-0.0021,-0.28,0.0,2.93,0.12,-1437.3,22.3
11.8,-0.0465,-0.3284,-0.0021,-0.28,0.0,2.86,0.12,-1627.4,20.7
11.87,-0.0506,-0.3332,-0.002,-0.28,0.0,3.32,0.12,-1427.8,20.5
11.94,-0.0477,-0.3219,-0.002,-0.27,0.0,2.83,0.12,-1754.0,20.6
12.01,-0.0479,-0.3276,-0.0021,-0.27,0.0,3.3,0.12,-1421.4,23.5
12.08,-0.056,-0.3333,-0.0021,-0.27,0.0,3.75,0.12,-1405.3,22.5
12.15,-0.06,-0.3374,-0.002,-0.27,0.0,4.09,0.12,-1428.2,19.9
12.221,-0.0643,-0.3393,-0.002,-0.26,0.0,4.29,0.11,-1470.9,21.3
12.291,-0.059,-0.3335,-0.002,-0.26,0.0,4.02,0.12,-1631.9,23.3
12.363,-0.0684,-0.3312,-0.0021,-0.26,0.0,3.94,0.12,-1571.4,22.7
12.433,-0.0665,-0.3328,-0.0021,-0.26,0.0,4.06,0.12,-1496.3,22.6
12.504,-0.0582,-0.3279,-0.0021,-0.26,0.0,3.79,0.12,-1631.4,22.0
12.575,-0.0456,-0.3342,-0.002,-0.26,0.0,4.14,0.12,-1403.5,21.8
12.645,-0.043,-0.3367,-0.0021,-0.26,0.0,4.25,0.12,-1481.5,23.5
12.716,-0.0424,-0.3383,-0.0021,-0.26,0.0,4.29,0.12,-1499.3,22.3
12.786,-0.051,-0.3347,-0.0021,-0.26,0.0,4.02,0.12,-1613.2,22.1
12.858,-0.0604,-0.3331,-0.002,-0.27,0.0,3.83,0.12,-1584.2,21.3
12.929,-0.0501,-0.3443,-0.002,-0.27,0.0,4.37,0.12,-1302.8,22.2
13.0,-0.0414,-0.3448,-0.002,-0.27,0.0,4.26,0.12,-1535.7,22.8
13.073,-0.0417,-0.3448,-0.0021,-0.27,0.0,4.12,0.12,-1551.1,24.0
13.144,-0.0494,-0.3513,-0.0021,-0.28,0.0,4.32,0.12,-1418.7,23.7
13.211,-0.0576,-0.3452,-0.0021,-0.28,0.0,3.8,0.12,-1685.2,20.9
13.277,-0.0524,-0.3384,-0.0021,-0.28,0.0,3.22,0.12,-1722.3,22.0
13.344,-0.0528,-0.3359,-0.0021,-0.29,0.0,2.87,0.12,-1654.9,22.2
13.41,-0.0534,-0.3371,-0.0021,-0.29,0.0,2.72,0.12,-1590.1,22.7
13.476,-0.0562,-0.3342,-0.0021,-0.29,0.0,2.32,0.12,-1685.6,23.4
13.543,-0.0566,-0.3319,-0.002,-0.3,0.0,1.95,0.12,-1689.5,21.7
13.609,-0.0603,-0.3292,-0.0021,-0.3,0.0,1.53,0.12,-1714.4,23.3
13.675,-0.0467,-0.3389,-0.0021,-0.31,0.0,1.81,0.12,-1458.9,24.4
13.741,-0.0397,-0.3372,-0.0021,-0.31,0.0,1.43,0.12,-1703.5,23.2
13.807,-0.0521,-0.339,-0.0021,-0.32,0.0,1.23,0.12,-1648.6,21.9
13.874,-0.0648,-0.3446,-0.0021,-0.32,0.0,1.25,0.12,-1573.8,23.3
13.941,-0.0715,-0.353,-0.0021,-0.33,0.0,1.4,0.12,-1515.5,22.6
14.007,-0.0666,-0.3485,-0.002,-0.33,0.0,0.81,0.12,-1785.5,21.7
14.073,-0.0535,-0.3463,-0.002,-0.34,0.0,0.34,0.12,-1760.8,21.4
14.14,-0.0604,-0.3481,-0.0021,-0.35,0.0,0.09,0.12,-1698.3,25.2
14.208,-0.0604,-0.3476,-0.002,-0.35,0.0,-0.31,0.12,-1755.3,21.0
14.274,-0.0629,-0.3582,-0.002,-0.36,0.0,-0.07,0.11,-1534.0,22.1
14.34,-0.0479,-0.3595,-0.002,-0.37,0.0,-0.37,0.12,-1729.4,23.3
14.407,-0.0434,-0.358,-0.002,-0.37,0.0,-0.85,0.12,-1796.2,22.8
14.473,-0.0483,-0.353,-0.0021,-0.38,0.0,-1.53,0.12,-1881.6,23.2
14.54,-0.0442,-0.3637,-0.002,-0.39,0.0,-1.31,0.12,-1588.0,22.6
14.607,-0.0343,-0.3555,-0.002,-0.39,0.0,-2.18,0.12,-1921.9,20.8
14.673,-0.0435,-0.3742,-0.002,-0.4,0.0,-1.52,0.11,-1590.7,22.9
14.739,-0.0248,-0.3663,-0.002,-0.41,0.0,-2.38,0.11,-1919.8,21.4
14.805,-0.0303,-0.3674,-0.002,-0.41,0.0,-2.73,0.12,-1821.9,24.5
14.871,-0.0355,-0.3873,-0.002,-0.42,0.0,-2.0,0.12,-1490.4,22.7
14.938,-0.0293,-0.3771,-0.0021,-0.43,0.0,-3.0,0.12,-1822.1,23.2
15.004,-0.0459,-0.4082,-0.002,-0.44,0.0,-1.64,0.12,-1490.3,22.6
15.07,-0.0424,-0.4176,-0.002,-0.44,0.0,-1.51,0.12,-1634.5,23.0
15.136,-0.0343,-0.4106,-0.002,-0.45,0.0,-2.33,0.12,-1952.7,20.6
15.202,-0.0473,-0.4308,-0.0021,-0.46,0.0,-1.58,0.12,-1621.9,27.1
15.268,-0.0548,-0.4391,-0.0021,-0.47,0.0,-1.52,0.12,-1657.9,21.7
15.336,-0.0458,-0.4342,-0.0021,-0.47,0.0,-2.22,0.12,-1912.9,21.2
15.402,-0.0587,-0.448,-0.002,-0.48,0.0,-1.83,0.11,-1583.1,18.8
15.469,-0.0767,-0.4575,-0.002,-0.49,0.0,-1.69,0.11,-1639.5,21.8
15.535,-0.0588,-0.4651,-0.002,-0.49,0.0,-1.65,0.11,-1675.8,21.0
15.601,-0.0422,-0.4714,-0.002,-0.5,0.0,-1.68,0.11,-1697.8,21.2
15.668,-0.0312,-0.4722,-0.002,-0.51,0.0,-2.02,0.12,-1807.7,22.5
15.734,-0.0477,-0.49,-0.002,-0.51,0.0,-1.37,0.12,-1477.5,22.0
15.799,-0.0487,-0.4956,-0.002,-0.52,0.0,-1.42,0.12,-1697.9,22.4
15.866,-0.0642,-0.5007,-0.002,-0.53,0.0,-1.49,0.12,-1708.7,20.4
15.931,-0.0777,-0.5033,-0.002,-0.53,0.0,-1.68,0.12,-1757.4,20.2
15.998,-0.0755,-0.5063,-0.002,-0.54,0.0,-1.86,0.12,-1755.5,21.1
16.065,-0.0585,-0.5108,-0.002,-0.54,0.0,-1.94,0.12,-1728.4,20.5
16.131,-0.0645,-0.5058,-0.002,-0.55,0.0,-2.54,0.11,-1908.6,17.4
16.197,-0.0523,-0.5081,-0.002,-0.56,0.0,-2.72,0.11,-1788.7,21.4
16.264,-0.0391,-0.5001,-0.002,-0.56,0.0,-3.48,0.12,-1979.2,21.1
16.33,-0.047,-0.4921,-0.0019,-0.57,0.0,-4.22,0.11,-2000.0,16.8
16.396,-0.0359,-0.4851,-0.002,-0.57,0.0,-4.89,0.11,-2000.0,21.1
16.463,-0.0309,-0.4671,-0.002,-0.58,0.0,-6.19,0.11,-2000.0,20.2
16.529,-0.0683,-0.5061,-0.002,-0.58,0.0,-4.2,0.11,-1869.9,23.2
16.595,-0.0945,-0.4891,-0.002,-0.58,0.0,-5.41,0.11,-2000.0,19.5
16.661,-0.0733,-0.5014,-0.002,-0.59,0.0,-4.91,0.11,-1835.6,21.5
16.727,-0.0739,-0.5079,-0.002,-0.59,0.0,-4.75,0.11,-1765.3,20.5
16.793,-0.048,-0.503,-0.002,-0.59,0.0,-5.21,0.11,-1971.7,19.9
16.86,-0.0618,-0.498,-0.002,-0.6,0.0,-5.67,0.11,-1984.4,21.1
16.926,-0.0518,-0.4779,-0.002,-0.6,0.0,-6.97,0.11,-2000.0,18.8
16.992,-0.0814,-0.4961,-0.002,-0.6,0.0,-6.07,0.11,-1911.8,21.5
17.059,-0.0931,-0.4888,-0.002,-0.6,0.0,-6.61,0.11,-2000.0,20.2
17.126,-0.0765,-0.5074,-0.0019,-0.61,0.0,-5.65,0.11,-1711.8,21.7
17.192,-0.065,-0.5017,-0.002,-0.61,0.0,-6.07,0.11,-2000.0,20.6
17.258,-0.0328,-0.5058,-0.0019,-0.61,0.0,-5.9,0.11,-1833.5,19.0
17.325,-0.0808,-0.5181,-0.002,-0.61,0.0,-5.26,0.11,-1666.7,24.6
17.391,-0.0837,-0.5085,-0.002,-0.61,0.0,-5.84,0.12,-1997.3,23.4
17.458,-0.0863,-0.5296,-0.002,-0.61,0.0,-4.65,0.11,-1664.6,20.3
17.524,-0.0639,-0.5327,-0.002,-0.61,0.0,-4.47,0.11,-1800.7,20.8
17.591,-0.0682,-0.5581,-0.002,-0.61,0.0,-3.0,0.12,-1467.9,24.9
17.658,-0.0495,-0.5473,-0.002,-0.61,0.0,-3.59,0.12,-1803.2,18.9
17.724,-0.0433,-0.5402,-0.002,-0.61,0.0,-3.95,0.11,-1950.3,18.5
17.79,-0.0438,-0.5447,-0.002,-0.61,0.0,-3.62,0.11,-1737.5,20.7
17.857,-0.0374,-0.5282,-0.002,-0.61,0.0,-4.49,0.11,-2000.0,19.4
17.924,-0.0595,-0.5469,-0.002,-0.6,0.0,-3.31,0.11,-1736.1,22.6
17.99,-0.0339,-0.5332,-0.002,-0.6,0.0,-3.98,0.11,-2000.0,19.3
18.06,-0.0505,-0.5415,-0.002,-0.6,0.0,-3.36,0.11,-1697.4,21.8
18.127,-0.0766,-0.5766,-0.0019,-0.6,0.0,-1.2,0.11,-1360.6,24.0
18.195,-0.058,-0.5556,-0.0019,-0.59,0.0,-2.23,0.11,-1697.4,18.6
18.265,-0.0766,-0.5756,-0.002,-0.59,0.0,-0.89,0.11,-1343.3,24.5
18.335,-0.0778,-0.5868,-0.002,-0.59,0.0,-0.03,0.11,-1461.2,22.4
18.407,-0.0835,-0.5741,-0.002,-0.58,0.0,-0.52,0.11,-1820.9,19.4
18.477,-0.0859,-0.5588,-0.0019,-0.58,0.0,-1.16,0.11,-1958.2,18.3
18.546,-0.0677,-0.5547,-0.0019,-0.57,0.0,-1.13,0.11,-1771.2,21.2
18.618,-0.0555,-0.5462,-0.002,-0.57,0.0,-1.34,0.11,-1846.0,22.9
18.688,-0.0447,-0.538,-0.002,-0.56,0.0,-1.51,0.11,-1843.6,22.4
18.758,-0.0533,-0.5428,-0.002,-0.56,0.0,-0.94,0.11,-1595.4,21.5
18.829,-0.0822,-0.5579,-0.002,-0.55,0.0,0.25,0.11,-1346.8,24.9
18.9,-0.0816,-0.545,-0.002,-0.55,0.0,-0.15,0.11,-1700.3,21.8
18.971,-0.097,-0.5437,-0.002,-0.54,0.0,0.13,0.11,-1660.0,22.3
19.041,-0.1029,-0.5409,-0.002,-0.54,0.0,0.32,0.12,-1679.3,24.1
19.111,-0.1034,-0.525,-0.002,-0.53,0.0,-0.22,0.12,-1911.3,22.5
19.183,-0.1034,-0.503,-0.0021,-0.52,0.0,-1.09,0.12,-2000.0,23.4
19.254,-0.0969,-0.4969,-0.002,-0.52,0.0,-1.05,0.12,-1774.8,21.8
19.325,-0.0765,-0.4939,-0.0021,-0.51,0.0,-0.81,0.12,-1708.5,25.0
19.396,-0.0558,-0.4741,-0.002,-0.5,0.0,-1.54,0.12,-2000.0,22.0
19.468,-0.0422,-0.4549,-0.002,-0.49,0.0,-2.22,0.12,-2000.0,23.0
19.539,-0.0599,-0.4587,-0.002,-0.49,0.0,-1.57,0.12,-1650.3,25.0
19.609,-0.0357,-0.4461,-0.002,-0.48,0.0,-1.87,0.11,-1901.8,23.5
19.679,-0.0357,-0.4275,-0.002,-0.47,0.0,-2.51,0.11,-2000.0,23.2
19.75,-0.0524,-0.4284,-0.002,-0.46,0.0,-2.02,0.11,-1681.6,27.2
19.821,-0.0641,-0.4338,-0.002,-0.46,0.0,-1.27,0.12,-1576.5,27.2
19.891,-0.0542,-0.4313,-0.002,-0.45,0.0,-0.97,0.12,-1708.4,25.9
19.962,-0.067,-0.4322,-0.002,-0.44,0.0,-0.48,0.12,-1633.7,26.5
20.033,-0.0773,-0.4431,-0.002,-0.43,0.0,0.6,0.12,-1399.8,26.5
20.104,-0.0685,-0.432,-0.002,-0.42,0.0,0.4,0.12,-1752.9,26.4
20.174,-0.066,-0.4136,-0.0021,-0.42,0.0,-0.21,0.12,-1949.3,26.8
20.245,-0.0655,-0.3935,-0.0021,-0.41,0.0,-0.92,0.12,-1990.6,25.8
20.315,-0.0639,-0.3915,-0.0021,-0.4,0.0,-0.6,0.12,-1693.0,27.9
20.386,-0.0514,-0.3784,-0.0021,-0.39,0.0,-0.92,0.12,-1892.3,26.8
20.456,-0.0701,-0.3836,-0.0021,-0.39,0.0,-0.2,0.12,-1550.6,27.5
20.525,-0.0806,-0.3841,-0.0021,-0.38,0.0,0.25,0.12,-1628.1,28.9
20.594,-0.0651,-0.3757,-0.0021,-0.37,0.0,0.18,0.12,-1789.9,27.7
20.666,-0.0507,-0.3675,-0.0021,-0.37,0.0,0.12,0.12,-1785.4,27.7
20.737,-0.0373,-0.3634,-0.0021,-0.36,0.0,0.29,0.12,-1715.6,28.3
20.806,-0.0459,-0.3706,-0.0021,-0.35,0.0,1.08,0.12,-1477.3,29.8
20.877,-0.0468,-0.3638,-0.0021,-0.34,0.0,1.08,0.12,-1741.3,29.1
20.947,-0.0507,-0.3626,-0.0021,-0.34,0.0,1.38,0.12,-1636.0,28.6
21.018,-0.0492,-0.3633,0.0079,-0.33,0.0,1.78,-0.45,-1590.5,-327.6
21.088,-0.0516,-0.3601,0.0116,-0.33,0.0,1.95,-0.67,-1657.6,-170.1
21.158,-0.04,-0.3635,0.0131,-0.32,0.0,2.48,-0.75,-1518.2,-101.0
21.228,-0.0548,-0.36,0.0136,-0.31,0.0,2.6,-0.78,-1646.8,-68.9
21.298,-0.0571,-0.3669,0.0138,-0.31,0.0,3.3,-0.79,-1420.9,-63.5
21.368,-0.0613,-0.3741,0.0138,-0.3,0.0,4.01,-0.79,-1387.9,-58.8
21.438,-0.0688,-0.3741,0.0138,-0.3,0.0,4.29,-0.79,-1528.2,-55.4
21.508,-0.0618,-0.3719,0.0139,-0.29,0.0,4.43,-0.79,-1567.6,-56.0
21.578,-0.0509,-0.3623,0.0139,-0.29,0.0,4.13,-0.79,-1714.3,-51.8
21.648,-0.0565,-0.3672,0.0138,-0.29,0.0,4.64,-0.79,-1420.2,-56.9
21.717,-0.0655,-0.3744,0.0138,-0.28,0.0,5.27,-0.79,-1346.3,-59.2
21.789,-0.0729,-0.3778,0.0138,-0.28,0.0,5.66,-0.79,-1419.6,-60.1
21.86,-0.0734,-0.3677,0.0137,-0.28,0.0,5.27,-0.79,-1688.9,-51.6
21.929,-0.0705,-0.3626,0.0137,-0.27,0.0,5.14,-0.78,-1608.7,-54.8
21.999,-0.0737,-0.3703,0.0136,-0.27,0.0,5.73,-0.78,-1326.9,-60.2
22.071,-0.0763,-0.3749,0.0137,-0.27,0.0,6.12,-0.78,-1383.2,-62.0
22.141,-0.0671,-0.3639,0.0137,-0.27,0.0,5.6,-0.78,-1703.1,-54.5
22.211,-0.0551,-0.3651,0.0136,-0.26,0.0,5.75,-0.78,-1470.9,-58.0
22.281,-0.0483,-0.3677,0.0136,-0.26,0.0,5.98,-0.78,-1433.1,-61.3
22.352,-0.0598,-0.3723,0.0136,-0.26,0.0,6.29,-0.78,-1383.6,-61.8
22.422,-0.053,-0.359,0.0136,-0.26,0.0,5.56,-0.78,-1731.5,-56.1
22.492,-0.0613,-0.3595,0.0135,-0.26,0.0,5.6,-0.77,-1498.1,-58.2
22.562,-0.0655,-0.3544,0.0136,-0.26,0.0,5.3,-0.78,-1616.2,-61.1
22.632,-0.0638,-0.3483,0.0136,-0.26,0.0,4.92,-0.78,-1652.5,-59.6
22.702,-0.0584,-0.3346,0.0136,-0.26,0.0,4.09,-0.78,-1810.6,-57.6
22.772,-0.0509,-0.3282,0.0135,-0.26,0.0,3.66,-0.78,-1703.1,-60.5
22.842,-0.0602,-0.3347,0.0135,-0.27,0.0,3.95,-0.78,-1451.1,-65.8
22.912,-0.0631,-0.3328,0.0135,-0.27,0.0,3.74,-0.77,-1625.4,-62.5
22.983,-0.0696,-0.3321,0.0135,-0.27,0.0,3.57,-0.77,-1612.5,-62.0
23.054,-0.067,-0.3288,0.0135,-0.27,0.0,3.24,-0.77,-1672.4,-63.2
23.126,-0.0637,-0.3206,0.0134,-0.28,0.0,2.6,-0.77,-1781.3,-60.9
23.193,-0.0612,-0.3176,0.0135,-0.28,0.0,2.27,-0.77,-1708.7,-65.2
23.259,-0.0623,-0.308,0.0134,-0.28,0.0,1.53,-0.77,-1854.3,-60.3
23.326,-0.0593,-0.3109,0.0135,-0.28,0.0,1.5,-0.77,-1632.3,-67.7
23.392,-0.0344,-0.3112,0.0135,-0.29,0.0,1.3,-0.77,-1691.4,-66.4
23.458,-0.032,-0.3056,0.0134,-0.29,0.0,0.76,-0.77,-1818.7,-63.3
23.524,-0.0414,-0.2938,0.0134,-0.3,0.0,-0.17,-0.77,-1954.8,-62.3
23.59,-0.0395,-0.2997,0.0134,-0.3,0.0,-0.08,-0.77,-1642.7,-68.0
23.656,-0.0343,-0.3031,0.0134,-0.31,0.0,-0.16,-0.77,-1697.4,-68.8
23.723,-0.0496,-0.3093,0.0134,-0.31,0.0,-0.09,-0.77,-1648.3,-68.4
23.789,-0.0594,-0.315,0.0134,-0.32,0.0,-0.06,-0.77,-1657.8,-67.6
23.855,-0.0591,-0.3126,0.0134,-0.32,0.0,-0.5,-0.77,-1822.4,-66.9
23.922,-0.0695,-0.3196,0.0135,-0.33,0.0,-0.42,-0.77,-1653.4,-70.3
23.988,-0.067,-0.3274,0.0135,-0.33,0.0,-0.3,-0.77,-1639.6,-69.2
24.055,-0.0526,-0.3261,0.0135,-0.34,0.0,-0.72,-0.77,-1820.5,-65.5
24.121,-0.0393,-0.3338,0.0134,-0.34,0.0,-0.63,-0.77,-1656.5,-68.9
24.188,-0.0329,-0.3406,0.0134,-0.35,0.0,-0.6,-0.77,-1678.0,-66.8
24.254,-0.0413,-0.3489,0.0134,-0.36,0.0,-0.49,-0.77,-1648.3,-68.6
24.32,-0.055,-0.3511,0.0134,-0.36,0.0,-0.74,-0.77,-1771.3,-67.3
24.388,-0.0637,-0.3591,0.0135,-0.37,0.0,-0.67,-0.77,-1666.6,-69.3
24.453,-0.0471,-0.3526,0.0135,-0.38,0.0,-1.43,-0.77,-1944.2,-61.6
24.52,-0.0442,-0.3691,0.0135,-0.38,0.0,-0.88,-0.77,-1611.9,-72.5
24.586,-0.0666,-0.3784,0.0135,-0.39,0.0,-0.75,-0.77,-1647.5,-69.6
24.652,-0.0655,-0.3789,0.0134,-0.4,0.0,-1.13,-0.77,-1824.4,-61.5
24.719,-0.0611,-0.3795,0.0134,-0.41,0.0,-1.5,-0.77,-1833.4,-63.8
24.786,-0.0698,-0.3777,0.0134,-0.41,0.0,-2.02,-0.77,-1892.1,-62.3
24.852,-0.0673,-0.39,0.0134,-0.42,0.0,-1.73,-0.77,-1630.7,-68.7
24.919,-0.074,-0.4021,0.0134,-0.43,0.0,-1.45,-0.77,-1627.7,-69.2
24.985,-0.0763,-0.3955,0.0134,-0.43,0.0,-2.25,-0.77,-1959.3,-57.6
25.051,-0.0806,-0.394,0.0134,-0.44,0.0,-2.75,-0.77,-1914.5,-62.3
25.118,-0.0576,-0.3979,0.0135,-0.45,0.0,-2.94,-0.77,-1829.1,-66.0
25.185,-0.0464,-0.3983,0.0135,-0.46,0.0,-3.34,-0.77,-1901.9,-62.2
25.251,-0.0616,-0.4095,0.0135,-0.46,0.0,-3.11,-0.77,-1704.8,-67.6
25.318,-0.0452,-0.3917,0.0135,-0.47,0.0,-4.54,-0.77,-2000.0,-53.1
25.384,-0.0614,-0.4104,0.0135,-0.48,0.0,-3.88,-0.77,-1707.9,-72.4
25.451,-0.0733,-0.4358,0.0135,-0.49,0.0,-2.83,-0.77,-1409.2,-73.4
25.517,-0.0864,-0.4282,0.0134,-0.49,0.0,-3.66,-0.77,-1740.4,-55.9
25.583,-0.0866,-0.4509,0.0135,-0.5,0.0,-2.75,-0.77,-1466.8,-73.4
25.649,-0.0706,-0.4501,0.0135,-0.51,0.0,-3.18,-0.77,-1798.5,-60.0
25.715,-0.0758,-0.4528,0.0135,-0.51,0.0,-3.4,-0.77,-1867.9,-59.2
25.782,-0.0801,-0.4634,0.0134,-0.52,0.0,-3.16,-0.77,-1719.9,-63.2
25.849,-0.0608,-0.4551,0.0135,-0.53,0.0,-4.01,-0.77,-2000.0,-56.7
25.915,-0.0479,-0.4602,0.0135,-0.53,0.0,-4.07,-0.77,-1845.9,-60.9
25.981,-0.0532,-0.4664,0.0135,-0.54,0.0,-4.06,-0.77,-1827.2,-61.4
26.048,-0.0348,-0.4556,0.0135,-0.54,0.0,-5.02,-0.77,-2000.0,-52.9
26.114,-0.0448,-0.4565,0.0135,-0.55,0.0,-5.29,-0.77,-1950.6,-59.9
26.18,-0.0388,-0.4602,0.0135,-0.55,0.0,-5.39,-0.77,-1907.2,-61.6
26.247,-0.0561,-0.4508,0.0135,-0.56,0.0,-6.23,-0.78,-2000.0,-55.3
26.313,-0.0663,-0.4828,0.0135,-0.56,0.0,-4.69,-0.77,-1802.8,-76.1
26.379,-0.0832,-0.4701,0.0135,-0.57,0.0,-5.69,-0.77,-2000.0,-48.9
26.446,-0.0679,-0.4991,0.0135,-0.57,0.0,-4.29,-0.77,-1803.4,-75.2
26.512,-0.086,-0.504,0.0135,-0.58,0.0,-4.25,-0.77,-1850.2,-59.4
26.578,-0.0469,-0.5149,0.0135,-0.58,0.0,-3.87,-0.77,-1731.0,-64.0
26.644,-0.0396,-0.5012,0.0135,-0.59,0.0,-4.87,-0.77,-2000.0,-49.0
26.71,-0.0323,-0.4981,0.0135,-0.59,0.0,-5.25,-0.77,-2000.0,-53.2
26.777,-0.0266,-0.4877,0.0135,-0.59,0.0,-6.05,-0.77,-2000.0,-52.3
26.844,-0.0156,-0.5022,0.0135,-0.6,0.0,-5.39,-0.77,-1806.2,-67.6
26.91,-0.0153,-0.4938,0.0134,-0.6,0.0,-6.03,-0.77,-2000.0,-50.6
26.976,-0.0513,-0.5314,0.0135,-0.6,0.0,-4.01,-0.77,-1775.6,-84.2
27.043,-0.0735,-0.5153,0.0135,-0.6,0.0,-5.07,-0.77,-2000.0,-48.1
27.109,-0.0781,-0.5367,0.0135,-0.61,0.0,-3.95,-0.77,-1779.3,-71.0
27.175,-0.0947,-0.5356,0.0135,-0.61,0.0,-4.1,-0.77,-1929.6,-57.0
27.242,-0.0745,-0.5494,0.0135,-0.61,0.0,-3.39,-0.77,-1644.1,-66.2
27.309,-0.0674,-0.5292,0.0135,-0.61,0.0,-4.6,-0.78,-1976.9,-46.3
27.375,-0.0494,-0.535,0.0135,-0.61,0.0,-4.32,-0.78,-1813.3,-62.4
27.441,-0.0645,-0.536,0.0135,-0.61,0.0,-4.28,-0.77,-1889.7,-57.7
27.507,-0.0754,-0.5501,0.0135,-0.61,0.0,-3.48,-0.77,-1627.8,-68.5
27.573,-0.0836,-0.5349,0.0135,-0.61,0.0,-4.34,-0.77,-1958.5,-49.8
27.64,-0.0875,-0.5549,0.0135,-0.61,0.0,-3.17,-0.77,-1626.7,-73.5
27.706,-0.0867,-0.5443,0.0135,-0.61,0.0,-3.73,-0.77,-1957.9,-52.5
27.772,-0.1044,-0.5654,0.0135,-0.61,0.0,-2.46,-0.77,-1627.1,-73.6
27.838,-0.0816,-0.561,0.0135,-0.61,0.0,-2.63,-0.77,-1916.5,-56.1
27.905,-0.0918,-0.5768,0.0134,-0.61,0.0,-1.63,-0.77,-1584.5,-69.0
27.971,-0.0694,-0.5781,0.0135,-0.6,0.0,-1.44,-0.77,-1774.1,-64.4
28.038,-0.082,-0.5935,0.0135,-0.6,0.0,-0.43,-0.77,-1463.1,-72.6
28.109,-0.0745,-0.6008,0.0135,-0.6,0.0,0.15,-0.77,-1610.2,-66.7
28.181,-0.0593,-0.5709,0.0135,-0.6,0.0,-1.39,-0.77,-1969.8,-43.5
28.253,-0.0484,-0.5536,0.0135,-0.59,0.0,-2.18,-0.77,-2000.0,-55.0
28.321,-0.0469,-0.559,0.0135,-0.59,0.0,-1.67,-0.77,-1724.6,-69.4
28.389,-0.0501,-0.5416,0.0135,-0.58,0.0,-2.45,-0.77,-2000.0,-55.2
28.456,-0.0423,-0.5398,0.0135,-0.58,0.0,-2.32,-0.77,-1827.4,-68.2
28.525,-0.0308,-0.5349,0.0135,-0.58,0.0,-2.35,-0.77,-1878.1,-64.4
28.594,-0.0317,-0.5242,0.0135,-0.57,0.0,-2.7,-0.77,-1977.5,-63.8
28.662,-0.0267,-0.5266,0.0135,-0.57,0.0,-2.28,-0.77,-1746.8,-72.2
28.73,-0.0264,-0.4993,0.0135,-0.56,0.0,-3.55,-0.77,-2000.0,-56.9
28.799,-0.0527,-0.5193,0.0135,-0.56,0.0,-2.1,-0.77,-1745.7,-86.3
28.867,-0.0434,-0.5278,0.0134,-0.55,0.0,-1.3,-0.77,-1596.1,-76.7
28.934,-0.057,-0.5286,0.0134,-0.54,0.0,-0.92,-0.77,-1722.9,-74.4
29.002,-0.0448,-0.5253,0.0135,-0.54,0.0,-0.77,-0.77,-1789.1,-74.4
29.073,-0.0281,-0.503,0.0135,-0.53,0.0,-1.68,-0.77,-2000.0,-63.8
29.143,-0.0345,-0.4919,0.0135,-0.53,0.0,-1.94,-0.77,-1943.1,-73.9
29.213,-0.0183,-0.4764,0.0135,-0.52,0.0,-2.45,-0.77,-2000.0,-70.3
29.283,-0.0236,-0.4522,0.0135,-0.51,0.0,-3.45,-0.77,-2000.0,-69.6
29.351,-0.0539,-0.4896,0.0134,-0.51,0.0,-0.91,-0.77,-1833.7,-101.8
29.42,-0.024,-0.4879,0.0135,-0.5,0.0,-0.61,-0.77,-1749.1,-84.5
29.491,-0.0527,-0.4812,0.0135,-0.49,0.0,-0.57,-0.77,-1829.2,-79.3
29.561,-0.0445,-0.4715,0.0134,-0.48,0.0,-0.71,-0.77,-1883.3,-77.3
29.63,-0.0742,-0.479,0.0134,-0.48,0.0,0.14,-0.77,-1551.7,-89.2
29.699,-0.0708,-0.4907,0.0134,-0.47,0.0,1.23,-0.77,-1422.8,-93.2
29.766,-0.0452,-0.478,0.0134,-0.46,0.0,0.92,-0.77,-1762.2,-79.9
29.836,-0.0546,-0.4981,0.0135,-0.45,0.0,2.51,-0.77,-1414.9,-100.2
29.906,-0.0505,-0.4905,0.0135,-0.45,0.0,2.51,-0.77,-1742.3,-84.6
29.975,-0.0314,-0.4724,0.0135,-0.44,0.0,1.91,-0.77,-1935.3,-80.0
30.044,-0.0282,-0.4698,0.0135,-0.43,0.0,2.19,-0.77,-1661.4,-90.2
30.113,-0.0489,-0.4883,0.0135,-0.42,0.0,3.69,-0.77,-1314.4,-101.5
30.182,-0.0406,-0.4923,0.0135,-0.42,0.0,4.35,-0.77,-1452.7,-93.9
30.251,-0.0385,-0.4835,0.0135,-0.41,0.0,4.27,-0.77,-1701.4,-88.6
30.319,-0.0323,-0.4921,0.0134,-0.4,0.0,5.19,-0.77,-1357.1,-97.3
30.388,-0.0532,-0.4849,0.0134,-0.39,0.0,5.2,-0.77,-1636.1,-90.2
30.457,-0.068,-0.4875,0.0135,-0.39,0.0,5.77,-0.77,-1415.9,-98.8
30.526,-0.0778,-0.4926,0.0135,-0.38,0.0,6.47,-0.77,-1330.2,-99.4
30.596,-0.0875,-0.4932,0.0135,-0.37,0.0,6.91,-0.77,-1410.5,-98.3
30.665,-0.0809,-0.4853,0.0135,-0.37,0.0,6.86,-0.77,-1580.3,-96.0
30.733,-0.0804,-0.4819,0.0135,-0.36,0.0,7.06,-0.77,-1483.3,-95.5
30.803,-0.0806,-0.4686,0.0134,-0.35,0.0,6.68,-0.77,-1683.1,-92.1
30.873,-0.0764,-0.4655,0.0134,-0.35,0.0,6.89,-0.77,-1476.4,-100.2
30.942,-0.0708,-0.4555,0.0134,-0.34,0.0,6.68,-0.77,-1620.6,-97.1
31.011,-0.0806,-0.453,0.0134,-0.33,0.0,6.89,-0.77,-1461.5,-102.3
31.081,-0.0859,-0.4467,0.0134,-0.33,0.0,6.88,-0.77,-1535.7,-101.1
31.152,-0.0756,-0.4296,0.0135,-0.32,0.0,6.24,-0.77,-1753.4,-98.8
31.222,-0.0613,-0.4114,0.0134,-0.32,0.0,5.52,-0.77,-1793.9,-97.8
31.291,-0.0523,-0.3939,0.0134,-0.31,0.0,4.82,-0.77,-1807.6,-99.8
31.361,-0.0644,-0.387,0.0134,-0.3,0.0,4.72,-0.77,-1625.6,-107.7
31.432,-0.0681,-0.3782,0.0134,-0.3,0.0,4.5,-0.77,-1666.1,-106.8
31.501,-0.0654,-0.368,0.0134,-0.3,0.0,4.18,-0.77,-1706.6,-106.6
31.569,-0.0605,-0.3596,0.0134,-0.29,0.0,3.94,-0.77,-1686.3,-108.6
31.638,-0.0481,-0.352,0.0134,-0.29,0.0,3.74,-0.77,-1680.8,-111.0
31.707,-0.0547,-0.3434,0.0134,-0.28,0.0,3.46,-0.77,-1707.5,-112.3
31.776,-0.069,-0.3356,0.0134,-0.28,0.0,3.21,-0.77,-1706.4,-113.0
31.845,-0.0751,-0.3251,0.0134,-0.28,0.0,2.79,-0.77,-1768.9,-111.8
31.914,-0.0782,-0.3188,0.0134,-0.27,0.0,2.6,-0.77,-1706.8,-115.0
31.983,-0.0743,-0.3122,0.0134,-0.27,0.0,2.37,-0.77,-1721.6,-115.4
32.052,-0.0667,-0.3022,0.0134,-0.27,0.0,1.92,-0.77,-1800.1,-116.0
32.121,-0.0758,-0.2979,0.0134,-0.27,0.0,1.79,-0.77,-1708.7,-117.0
32.189,-0.0783,-0.2888,0.0134,-0.27,0.0,1.36,-0.77,-1812.2,-118.5
32.257,-0.0787,-0.2726,0.0134,-0.26,0.0,0.5,-0.77,-1957.2,-118.0
32.326,-0.0782,-0.2685,0.0134,-0.26,0.0,0.32,-0.77,-1766.9,-120.8
32.395,-0.0791,-0.2768,0.0134,-0.26,0.0,0.84,-0.77,-1525.5,-125.6
32.464,-0.062,-0.2663,0.0134,-0.26,0.0,0.25,-0.77,-1869.9,-119.1
32.534,-0.0642,-0.2552,0.0134,-0.26,0.0,-0.38,-0.77,-1916.4,-121.2
32.603,-0.0717,-0.2593,0.0134,-0.26,0.0,-0.16,-0.77,-1661.3,-126.1
32.673,-0.0659,-0.2853,0.0134,-0.26,0.0,1.29,-0.77,-1314.2,-132.4
32.743,-0.0528,-0.2927,0.0134,-0.26,0.0,1.65,-0.77,-1549.2,-126.0
32.812,-0.068,-0.3048,0.0134,-0.27,0.0,2.27,-0.77,-1430.4,-127.2
32.881,-0.0665,-0.3183,0.0134,-0.27,0.0,2.95,-0.77,-1374.8,-127.4
32.95,-0.0712,-0.3222,0.0134,-0.27,0.0,3.07,-0.77,-1575.4,-123.6
33.019,-0.0763,-0.3208,0.0134,-0.27,0.0,2.85,-0.77,-1686.0,-123.1
33.089,-0.0849,-0.3155,0.0134,-0.27,0.0,2.4,-0.77,-1770.6,-121.6
33.158,-0.068,-0.3284,0.0134,-0.28,0.0,2.97,-0.77,-1422.3,-128.7
33.227,-0.0517,-0.329,0.0134,-0.28,0.0,2.83,-0.77,-1659.7,-121.2
33.296,-0.0387,-0.3392,0.0134,-0.28,0.0,3.21,-0.77,-1463.0,-126.0
33.368,-0.0312,-0.3454,0.0134,-0.29,0.0,3.34,-0.77,-1546.0,-125.8
33.437,-0.0266,-0.3517,0.0134,-0.29,0.0,3.47,-0.77,-1536.2,-124.5
33.507,-0.0329,-0.346,0.0134,-0.3,0.0,2.89,-0.77,-1778.2,-121.6
33.576,-0.0391,-0.3515,0.0134,-0.3,0.0,2.94,-0.77,-1578.4,-124.9
33.646,-0.0501,-0.349,0.0134,-0.31,0.0,2.51,-0.77,-1739.4,-120.6
33.715,-0.0514,-0.3575,0.0134,-0.31,0.0,2.71,-0.77,-1530.4,-125.8
33.784,-0.0707,-0.3633,0.0134,-0.32,0.0,2.73,-0.77,-1583.8,-125.0
33.853,-0.0744,-0.3703,0.0134,-0.32,0.0,2.81,-0.77,-1561.9,-124.7
33.921,-0.0744,-0.3848,0.0134,-0.33,0.0,3.32,-0.77,-1378.8,-127.8
33.987,-0.0862,-0.3855,0.0134,-0.33,0.0,3.03,-0.77,-1673.8,-120.7
34.054,-0.0711,-0.3919,0.0134,-0.34,0.0,3.05,-0.77,-1562.0,-123.3
34.121,-0.0654,-0.3982,0.0134,-0.34,0.0,3.06,-0.77,-1564.6,-124.1
34.188,-0.0597,-0.3917,0.0134,-0.35,0.0,2.33,-0.77,-1825.0,-115.5
34.254,-0.0529,-0.3788,0.0134,-0.36,0.0,1.22,-0.77,-1968.2,-116.5
34.32,-0.0495,-0.3762,0.0135,-0.36,0.0,0.69,-0.77,-1812.8,-121.8
34.387,-0.0617,-0.3822,0.0134,-0.37,0.0,0.66,-0.77,-1657.2,-122.0
34.453,-0.0699,-0.396,0.0134,-0.38,0.0,1.06,-0.77,-1487.8,-126.3
34.519,-0.0651,-0.397,0.0134,-0.38,0.0,0.72,-0.77,-1750.1,-121.4
34.587,-0.054,-0.3875,0.0134,-0.39,0.0,-0.24,-0.77,-1955.6,-117.5
34.655,-0.0519,-0.3785,0.0134,-0.4,0.0,-1.16,-0.77,-1974.5,-115.8
34.723,-0.0622,-0.385,0.0134,-0.41,0.0,-1.21,-0.77,-1718.2,-125.3
34.789,-0.0487,-0.3748,0.0134,-0.41,0.0,-2.2,-0.77,-2000.0,-116.0
34.856,-0.0367,-0.3732,0.0134,-0.42,0.0,-2.71,-0.77,-1906.9,-120.6
34.922,-0.046,-0.3851,0.0134,-0.43,0.0,-2.45,-0.77,-1662.4,-127.6
34.989,-0.0299,-0.3804,0.0134,-0.44,0.0,-3.14,-0.77,-1971.6,-118.2
35.056,-0.0236,-0.3687,0.0134,-0.44,0.0,-4.23,-0.77,-2000.0,-116.5
35.122,-0.0327,-0.381,0.0135,-0.45,0.0,-3.93,-0.77,-1782.8,-128.7
35.189,-0.0252,-0.3639,0.0134,-0.46,0.0,-5.33,-0.77,-2000.0,-111.6
35.255,-0.0494,-0.372,0.0134,-0.46,0.0,-5.28,-0.77,-1832.4,-125.0
35.323,-0.0314,-0.3602,0.0134,-0.47,0.0,-6.38,-0.77,-2000.0,-118.4
35.39,-0.0527,-0.3695,0.0134,-0.48,0.0,-6.26,-0.77,-1845.8,-125.5
35.456,-0.0652,-0.3989,0.0134,-0.49,0.0,-4.97,-0.77,-1515.1,-133.9
35.523,-0.0765,-0.4179,0.0135,-0.49,0.0,-4.28,-0.77,-1607.0,-129.9
35.588,-0.0868,-0.4284,0.0135,-0.5,0.0,-4.07,-0.77,-1759.1,-123.0
35.654,-0.0819,-0.4119,0.0135,-0.51,0.0,-5.39,-0.77,-2000.0,-109.2
35.72,-0.078,-0.4289,0.0135,-0.51,0.0,-4.79,-0.77,-1760.1,-126.8
35.786,-0.0786,-0.4484,0.0135,-0.52,0.0,-4.05,-0.77,-1593.0,-126.3
35.853,-0.0754,-0.4354,0.0134,-0.53,0.0,-5.16,-0.77,-1923.8,-107.4
35.919,-0.0753,-0.4362,0.0135,-0.53,0.0,-5.47,-0.77,-1969.9,-117.2
35.986,-0.0575,-0.4284,0.0135,-0.54,0.0,-6.26,-0.77,-2000.0,-111.9
36.052,-0.0435,-0.4094,0.0134,-0.54,0.0,-7.68,-0.77,-2000.0,-106.3
36.118,-0.0648,-0.4126,0.0135,-0.55,0.0,-7.82,-0.77,-1999.8,-121.4
36.185,-0.0475,-0.3964,0.0135,-0.55,0.0,-9.06,-0.77,-2000.0,-111.1
36.251,-0.0704,-0.4195,0.0135,-0.56,0.0,-8.04,-0.77,-1984.0,-130.7
36.318,-0.0909,-0.427,0.0135,-0.56,0.0,-7.9,-0.77,-1937.3,-119.6
36.384,-0.0704,-0.452,0.0135,-0.57,0.0,-6.74,-0.77,-1606.4,-129.5
36.451,-0.0674,-0.4512,0.0135,-0.57,0.0,-7.05,-0.77,-1941.0,-114.4
36.517,-0.0528,-0.4727,0.0134,-0.58,0.0,-6.07,-0.77,-1633.9,-124.9
36.584,-0.0443,-0.4493,0.0134,-0.58,0.0,-7.65,-0.77,-1966.8,-101.3
36.651,-0.0625,-0.4796,0.0134,-0.59,0.0,-6.13,-0.77,-1633.0,-131.1
36.717,-0.0734,-0.4802,0.0135,-0.59,0.0,-6.3,-0.77,-1964.1,-113.8
36.784,-0.084,-0.5047,0.0135,-0.59,0.0,-5.09,-0.77,-1631.4,-127.7
36.85,-0.0887,-0.5099,0.0134,-0.6,0.0,-4.96,-0.77,-1887.9,-111.2
36.917,-0.078,-0.5297,0.0134,-0.6,0.0,-3.99,-0.77,-1592.4,-122.3
36.983,-0.0514,-0.5168,0.0135,-0.6,0.0,-4.86,-0.77,-1922.7,-102.3
37.049,-0.0544,-0.5375,0.0134,-0.6,0.0,-3.81,-0.77,-1591.4,-121.8
37.115,-0.038,-0.5357,0.0135,-0.61,0.0,-4.01,-0.77,-1921.2,-109.3
37.181,-0.0549,-0.5291,0.0135,-0.61,0.0,-4.49,-0.77,-2000.0,-106.5
37.249,-0.0313,-0.5237,0.0135,-0.61,0.0,-4.87,-0.78,-2000.0,-109.1
37.315,-0.0635,-0.5288,0.0135,-0.61,0.0,-4.64,-0.77,-1865.4,-113.5
37.382,-0.0497,-0.5239,0.0135,-0.61,0.0,-4.96,-0.78,-2000.0,-109.5
37.448,-0.0807,-0.5433,0.0135,-0.61,0.0,-3.87,-0.77,-1701.0,-123.0
37.515,-0.0288,-0.5429,0.0135,-0.61,0.0,-3.89,-0.77,-1927.7,-108.0
37.582,-0.0487,-0.5692,0.0134,-0.61,0.0,-2.37,-0.77,-1592.6,-127.5
37.648,-0.059,-0.5707,0.0135,-0.61,0.0,-2.26,-0.77,-1840.7,-112.4
37.714,-0.0718,-0.5656,0.0134,-0.61,0.0,-2.5,-0.77,-1956.8,-105.3
37.78,-0.0836,-0.5724,0.0135,-0.61,0.0,-2.05,-0.77,-1732.7,-116.7
37.846,-0.1024,-0.5813,0.0135,-0.61,0.0,-1.46,-0.78,-1672.3,-120.2
37.913,-0.0856,-0.5967,0.0135,-0.61,0.0,-0.48,-0.77,-1503.7,-118.7
37.979,-0.0829,-0.5956,0.0135,-0.6,0.0,-0.43,-0.77,-1811.6,-110.9
38.046,-0.0888,-0.58,0.0135,-0.6,0.0,-1.18,-0.77,-2000.0,-101.0
38.114,-0.0726,-0.5904,0.0135,-0.6,0.0,-0.44,-0.77,-1722.9,-118.0
38.18,-0.0413,-0.5773,0.0135,-0.6,0.0,-1.02,-0.77,-2000.0,-104.5
38.247,-0.0339,-0.557,0.0134,-0.59,0.0,-2.0,-0.77,-2000.0,-101.7
38.317,-0.0469,-0.5498,0.0135,-0.59,0.0,-2.21,-0.77,-1942.4,-113.6
38.386,-0.0317,-0.5309,0.0135,-0.58,0.0,-3.07,-0.77,-2000.0,-108.6
38.458,-0.0286,-0.5116,0.0135,-0.58,0.0,-3.93,-0.77,-2000.0,-112.6
38.527,-0.0532,-0.519,0.0135,-0.58,0.0,-3.25,-0.77,-1809.4,-128.1
38.598,-0.023,-0.5121,0.0135,-0.57,0.0,-3.37,-0.77,-1960.4,-119.6
38.669,-0.0624,-0.4998,0.0135,-0.57,0.0,-3.79,-0.77,-2000.0,-118.7
38.739,-0.0683,-0.4816,0.0135,-0.56,0.0,-4.52,-0.77,-2000.0,-116.9
38.812,-0.0838,-0.5027,0.0135,-0.55,0.0,-2.99,-0.77,-1791.1,-140.2
38.882,-0.0404,-0.481,0.0135,-0.55,0.0,-3.9,-0.77,-2000.0,-117.4
38.952,-0.079,-0.4906,0.0134,-0.54,0.0,-3.01,-0.77,-1794.9,-134.6
39.023,-0.0507,-0.4985,0.0134,-0.54,0.0,-2.2,-0.77,-1676.7,-135.3
39.094,-0.0703,-0.4835,0.0135,-0.53,0.0,-2.69,-0.77,-2000.0,-124.4
39.166,-0.0782,-0.5023,0.0134,-0.52,0.0,-1.22,-0.77,-1670.4,-142.0
39.235,-0.0841,-0.4997,0.0135,-0.52,0.0,-0.99,-0.77,-1813.5,-133.3
39.305,-0.0771,-0.511,0.0135,-0.51,0.0,0.05,-0.77,-1528.4,-139.3
39.375,-0.0654,-0.4949,0.0135,-0.5,0.0,-0.47,-0.77,-1877.1,-125.6
39.445,-0.062,-0.4769,0.0135,-0.5,0.0,-1.09,-0.77,-2000.0,-127.4
39.515,-0.0611,-0.4893,0.0135,-0.49,0.0,0.04,-0.77,-1701.2,-143.8
39.585,-0.036,-0.4648,0.0134,-0.48,0.0,-0.95,-0.77,-2000.0,-124.1
39.655,-0.0573,-0.4767,0.0134,-0.47,0.0,0.16,-0.77,-1701.7,-147.8
39.725,-0.0732,-0.5114,0.0134,-0.47,0.0,2.58,-0.77,-1352.3,-159.8
39.794,-0.0493,-0.5088,0.0134,-0.46,0.0,2.86,-0.77,-1679.8,-137.8
39.865,-0.0372,-0.4901,0.0134,-0.45,0.0,2.23,-0.77,-1960.2,-129.7
39.935,-0.0432,-0.4847,0.0134,-0.44,0.0,2.36,-0.77,-1739.9,-140.0
40.005,-0.0335,-0.474,0.0134,-0.44,0.0,2.19,-0.77,-1832.5,-138.6
40.075,-0.0224,-0.4579,0.0134,-0.43,0.0,1.71,-0.77,-1932.9,-138.2
40.145,-0.0163,-0.469,0.0135,-0.42,0.0,2.78,-0.77,-1584.5,-155.4
40.215,-0.0375,-0.4835,0.0135,-0.41,0.0,4.05,-0.77,-1277.1,-154.9
40.285,-0.0471,-0.5024,0.0135,-0.41,0.0,5.57,-0.77,-1090.1,-157.6
40.356,-0.0559,-0.4887,0.0135,-0.4,0.0,5.22,-0.77,-1444.8,-139.8
40.426,-0.0693,-0.4989,0.0135,-0.39,0.0,6.23,-0.77,-1274.6,-155.4
40.496,-0.0687,-0.4998,0.0135,-0.38,0.0,6.7,-0.77,-1454.5,-150.3
40.566,-0.0707,-0.483,0.0135,-0.38,0.0,6.15,-0.77,-1798.0,-141.5
40.636,-0.076,-0.4964,0.0135,-0.37,0.0,7.33,-0.77,-1449.6,-158.4
40.706,-0.0656,-0.4967,0.0135,-0.36,0.0,7.75,-0.77,-1416.2,-152.9
40.776,-0.0686,-0.5022,0.0134,-0.35,0.0,8.46,-0.77,-1269.4,-153.7
40.846,-0.061,-0.4909,0.0135,-0.35,0.0,8.2,-0.77,-1621.5,-148.9
40.917,-0.0513,-0.4718,0.0134,-0.34,0.0,7.48,-0.77,-1781.6,-144.0
40.988,-0.0621,-0.4653,0.0134,-0.33,0.0,7.48,-0.77,-1551.4,-154.2
41.058,-0.0527,-0.4514,0.0134,-0.33,0.0,7.03,-0.77,-1706.0,-152.6
41.128,-0.0644,-0.4328,0.0134,-0.32,0.0,6.31,-0.77,-1802.2,-150.9
41.198,-0.0603,-0.4317,0.0134,-0.32,0.0,6.57,-0.77,-1477.7,-161.4
41.266,-0.0486,-0.4312,0.0134,-0.31,0.0,6.85,-0.77,-1451.5,-163.4
41.337,-0.0411,-0.4184,0.0134,-0.31,0.0,6.42,-0.77,-1699.8,-157.7
41.407,-0.0478,-0.4015,0.0134,-0.3,0.0,5.73,-0.77,-1795.7,-156.2
41.476,-0.055,-0.3814,0.0134,-0.3,0.0,4.85,-0.77,-1877.0,-158.7
41.546,-0.0571,-0.3679,0.0134,-0.29,0.0,4.33,-0.77,-1782.9,-164.4
41.616,-0.069,-0.3474,0.0134,-0.29,0.0,3.4,-0.77,-1926.4,-163.5
41.686,-0.0811,-0.3404,0.0135,-0.28,0.0,3.22,-0.77,-1711.8,-172.5
41.756,-0.0758,-0.337,0.0134,-0.28,0.0,3.23,-0.77,-1648.5,-171.2
41.825,-0.0818,-0.3295,0.0134,-0.28,0.0,2.99,-0.77,-1734.1,-172.3
41.895,-0.0901,-0.3244,0.0134,-0.27,0.0,2.88,-0.77,-1697.0,-172.8
41.965,-0.0851,-0.3151,0.0134,-0.27,0.0,2.5,-0.77,-1786.5,-173.1
42.036,-0.0646,-0.2964,0.0134,-0.27,0.0,1.56,-0.77,-1965.1,-171.6
42.107,-0.0521,-0.2864,0.0134,-0.27,0.0,1.11,-0.77,-1848.4,-176.8
42.176,-0.0357,-0.2731,0.0134,-0.27,0.0,0.44,-0.77,-1926.2,-176.3
42.247,-0.0359,-0.2816,0.0134,-0.26,0.0,1.01,-0.77,-1575.7,-184.0
42.317,-0.03,-0.2744,0.0134,-0.26,0.0,0.66,-0.77,-1831.9,-179.6
42.387,-0.057,-0.2613,0.0134,-0.26,0.0,-0.05,-0.77,-1952.2,-178.2
42.457,-0.0695,-0.2649,0.0134,-0.26,0.0,0.17,-0.77,-1674.0,-184.6
42.527,-0.0617,-0.2927,0.0134,-0.26,0.0,1.77,-0.77,-1322.0,-191.2
42.597,-0.0601,-0.2773,0.0134,-0.26,0.0,0.87,-0.77,-1669.5,-177.9
42.667,-0.0582,-0.29,0.0134,-0.26,0.0,1.56,-0.77,-1468.0,-186.8
42.737,-0.0411,-0.2891,0.0134,-0.26,0.0,1.45,-0.77,-1730.4,-182.0
42.807,-0.0287,-0.2986,0.0134,-0.27,0.0,1.93,-0.77,-1525.5,-186.9
42.877,-0.0163,-0.3085,0.0134,-0.27,0.0,2.4,-0.77,-1507.3,-184.4
42.946,-0.0189,-0.3019,0.0134,-0.27,0.0,1.91,-0.77,-1825.1,-179.6
43.017,-0.0397,-0.3202,0.0134,-0.27,0.0,2.83,-0.77,-1473.1,-187.8
43.088,-0.057,-0.3261,0.0133,-0.27,0.0,3.01,-0.76,-1578.0,-182.1
43.16,-0.0694,-0.3286,0.0134,-0.28,0.0,2.98,-0.77,-1644.7,-183.5
43.229,-0.0726,-0.3397,0.0134,-0.28,0.0,3.43,-0.77,-1460.8,-185.2
43.298,-0.0787,-0.3592,0.0134,-0.28,0.0,4.35,-0.77,-1232.8,-188.9
43.369,-0.0801,-0.3402,0.0134,-0.29,0.0,3.04,-0.77,-1587.7,-172.8
43.44,-0.0677,-0.354,0.0134,-0.29,0.0,3.58,-0.77,-1417.1,-185.1
43.509,-0.0633,-0.3626,0.0134,-0.3,0.0,3.83,-0.77,-1506.1,-183.4
43.579,-0.0721,-0.378,0.0134,-0.3,0.0,4.44,-0.77,-1344.0,-183.2
43.649,-0.079,-0.384,0.0134,-0.31,0.0,4.51,-0.77,-1538.6,-182.5
43.72,-0.0657,-0.3845,0.0134,-0.31,0.0,4.23,-0.77,-1652.4,-177.7
43.788,-0.0815,-0.3908,0.0134,-0.32,0.0,4.29,-0.77,-1539.8,-180.5
43.857,-0.0813,-0.3961,0.0135,-0.32,0.0,4.28,-0.77,-1559.6,-180.1
43.927,-0.0878,-0.404,0.0134,-0.33,0.0,4.39,-0.77,-1507.7,-179.8
43.998,-0.0823,-0.4078,0.0134,-0.33,0.0,4.25,-0.77,-1594.4,-176.9
44.069,-0.0783,-0.3983,0.0134,-0.34,0.0,3.34,-0.77,-1852.7,-170.8
44.139,-0.0853,-0.4047,0.0134,-0.35,0.0,3.34,-0.77,-1574.9,-179.6
44.21,-0.09,-0.4025,0.0134,-0.35,0.0,2.82,-0.77,-1749.3,-174.3
44.28,-0.0865,-0.4026,0.0134,-0.36,0.0,2.44,-0.77,-1721.0,-176.8
44.35,-0.0867,-0.4089,0.0134,-0.37,0.0,2.4,-0.77,-1611.6,-180.1
44.42,-0.0843,-0.392,0.0134,-0.37,0.0,1.02,-0.77,-1961.6,-169.9
44.491,-0.0836,-0.4095,0.0134,-0.38,0.0,1.61,-0.77,-1608.4,-186.0
44.561,-0.0809,-0.4132,0.0134,-0.39,0.0,1.4,-0.77,-1695.3,-176.4
44.632,-0.062,-0.4088,0.0134,-0.4,0.0,0.72,-0.77,-1852.3,-173.0
44.7,-0.0507,-0.4079,0.0134,-0.4,0.0,0.24,-0.77,-1811.4,-175.6
44.769,-0.0469,-0.3953,0.0135,-0.41,0.0,-0.9,-0.77,-2000.0,-175.1
44.84,-0.0525,-0.3426,0.0135,-0.42,0.0,-4.37,-0.77,-2000.0,-161.0
44.91,-0.0529,-0.3862,0.0135,-0.43,0.0,-2.3,-0.77,-2000.0,-198.0
44.981,-0.0683,-0.389,0.0134,-0.43,0.0,-2.59,-0.77,-1843.3,-176.8
45.051,-0.0567,-0.3955,0.0134,-0.44,0.0,-2.66,-0.77,-1785.2,-181.1
45.122,-0.0541,-0.3863,0.0135,-0.45,0.0,-3.63,-0.77,-2000.0,-174.8
45.191,-0.0622,-0.4001,0.0134,-0.46,0.0,-3.28,-0.77,-1710.0,-182.6
45.261,-0.0481,-0.4095,0.0134,-0.46,0.0,-3.17,-0.77,-1756.0,-178.5
45.332,-0.0363,-0.4016,0.0134,-0.47,0.0,-4.06,-0.77,-2000.0,-172.2
45.402,-0.0441,-0.4218,0.0135,-0.48,0.0,-3.33,-0.77,-1705.8,-187.0
45.472,-0.0227,-0.4084,0.0135,-0.49,0.0,-4.52,-0.77,-2000.0,-168.8
45.542,-0.0395,-0.4078,0.0134,-0.49,0.0,-4.97,-0.77,-1974.9,-173.9
45.612,-0.0702,-0.4179,0.0134,-0.5,0.0,-4.81,-0.77,-1801.4,-178.9
45.681,-0.0503,-0.4255,0.0134,-0.51,0.0,-4.77,-0.77,-1842.0,-177.3
45.751,-0.0657,-0.4392,0.0134,-0.52,0.0,-4.38,-0.77,-1724.0,-180.3
45.821,-0.0485,-0.4501,0.0135,-0.52,0.0,-4.15,-0.77,-1771.6,-178.8
45.892,-0.0388,-0.4342,0.0135,-0.53,0.0,-5.44,-0.77,-2000.0,-163.0
45.962,-0.0354,-0.4532,0.0134,-0.54,0.0,-4.72,-0.77,-1772.2,-179.3
46.032,-0.0696,-0.4696,0.0135,-0.54,0.0,-4.13,-0.77,-1672.7,-180.5
46.102,-0.046,-0.4513,0.0135,-0.55,0.0,-5.52,-0.77,-2000.0,-159.7
46.171,-0.0616,-0.4773,0.0135,-0.55,0.0,-4.36,-0.77,-1674.6,-185.1
46.241,-0.069,-0.4905,0.0135,-0.56,0.0,-3.93,-0.77,-1720.5,-174.2
46.311,-0.0816,-0.5138,0.0134,-0.56,0.0,-2.9,-0.77,-1494.2,-175.6
46.381,-0.0903,-0.5064,0.0134,-0.57,0.0,-3.62,-0.77,-1844.5,-159.5
46.451,-0.0902,-0.5091,0.0135,-0.57,0.0,-3.73,-0.77,-1882.3,-167.8
46.522,-0.0819,-0.5065,0.0135,-0.58,0.0,-4.15,-0.77,-1976.5,-163.9
46.593,-0.0756,-0.4966,0.0134,-0.58,0.0,-4.97,-0.77,-2000.0,-158.9
46.663,-0.0793,-0.5044,0.0134,-0.59,0.0,-4.75,-0.77,-1824.5,-170.2
46.732,-0.0583,-0.4993,0.0135,-0.59,0.0,-5.25,-0.77,-2000.0,-163.8
46.802,-0.0476,-0.4901,0.0135,-0.59,0.0,-5.97,-0.77,-2000.0,-162.9
46.872,-0.029,-0.4925,0.0135,-0.6,0.0,-6.01,-0.77,-1946.0,-169.2
46.942,-0.0404,-0.4807,0.0135,-0.6,0.0,-6.85,-0.77,-2000.0,-161.2
47.012,-0.0439,-0.5043,0.0134,-0.6,0.0,-5.64,-0.77,-1822.6,-180.4
47.083,-0.0338,-0.5052,0.0135,-0.6,0.0,-5.71,-0.77,-1956.6,-169.4
47.152,-0.0692,-0.5139,0.0135,-0.61,0.0,-5.32,-0.77,-1820.1,-173.0
47.223,-0.0411,-0.5248,0.0135,-0.61,0.0,-4.78,-0.77,-1765.9,-170.4
47.293,-0.0504,-0.543,0.0135,-0.61,0.0,-3.81,-0.77,-1601.2,-176.4
47.362,-0.0421,-0.5408,0.0135,-0.61,0.0,-3.98,-0.77,-1946.6,-162.6
47.434,-0.0376,-0.5282,0.0135,-0.61,0.0,-4.73,-0.77,-2000.0,-157.3
47.504,-0.0548,-0.5415,0.0135,-0.61,0.0,-3.98,-0.77,-1764.1,-174.6
47.574,-0.0741,-0.5539,0.0134,-0.61,0.0,-3.25,-0.77,-1674.3,-169.5
47.645,-0.0522,-0.5495,0.0134,-0.61,0.0,-3.47,-0.77,-1954.6,-161.4
47.716,-0.0707,-0.5664,0.0135,-0.61,0.0,-2.46,-0.77,-1600.9,-177.3
47.787,-0.0719,-0.569,0.0135,-0.61,0.0,-2.24,-0.77,-1800.5,-167.3
47.857,-0.0528,-0.5428,0.0135,-0.61,0.0,-3.65,-0.77,-2000.0,-151.3
47.928,-0.054,-0.532,0.0135,-0.6,0.0,-4.16,-0.77,-2000.0,-161.6
47.999,-0.0848,-0.5453,0.0135,-0.6,0.0,-3.27,-0.77,-1701.1,-175.7
48.069,-0.084,-0.5561,0.0135,-0.6,0.0,-2.5,-0.77,-1655.0,-175.6
48.14,-0.1073,-0.5669,0.0135,-0.6,0.0,-1.72,-0.77,-1625.5,-177.5
48.211,-0.0925,-0.5677,0.0135,-0.59,0.0,-1.49,-0.78,-1789.7,-169.9
48.277,-0.0607,-0.535,0.0135,-0.59,0.0,-3.18,-0.77,-2000.0,-149.0
48.344,-0.0588,-0.508,0.0135,-0.59,0.0,-4.52,-0.77,-2000.0,-157.7
48.411,-0.0587,-0.5155,0.0135,-0.58,0.0,-3.87,-0.77,-1961.0,-180.7
48.477,-0.0438,-0.4905,0.0134,-0.58,0.0,-5.07,-0.77,-2000.0,-162.4
48.543,-0.0309,-0.5052,0.0135,-0.57,0.0,-3.98,-0.77,-1950.4,-189.9
48.609,-0.0362,-0.4758,0.0135,-0.57,0.0,-5.41,-0.77,-2000.0,-164.9
48.675,-0.0577,-0.4915,0.0135,-0.57,0.0,-4.23,-0.77,-1949.4,-191.5
48.741,-0.074,-0.4869,0.0135,-0.56,0.0,-4.21,-0.77,-1949.3,-180.1
48.807,-0.0439,-0.4835,0.0134,-0.56,0.0,-4.11,-0.77,-1926.5,-181.8
48.874,-0.0454,-0.4914,0.0135,-0.55,0.0,-3.34,-0.77,-1705.4,-190.2
48.94,-0.0424,-0.4797,0.0135,-0.54,0.0,-3.69,-0.77,-2000.0,-178.3
49.007,-0.0568,-0.4924,0.0135,-0.54,0.0,-2.63,-0.77,-1700.6,-193.9
49.073,-0.0482,-0.4814,0.0134,-0.53,0.0,-2.92,-0.77,-2000.0,-179.8
49.14,-0.0725,-0.4937,0.0135,-0.53,0.0,-1.86,-0.77,-1680.9,-196.8
49.207,-0.0684,-0.5115,0.0134,-0.52,0.0,-0.47,-0.77,-1396.9,-195.4
49.273,-0.0984,-0.5316,0.0135,-0.51,0.0,1.05,-0.77,-1272.5,-199.4
49.34,-0.0805,-0.5362,0.0135,-0.51,0.0,1.69,-0.77,-1588.8,-188.7
49.406,-0.0957,-0.5391,0.0134,-0.5,0.0,2.24,-0.77,-1597.1,-185.7
49.472,-0.0913,-0.5587,0.0135,-0.49,0.0,3.75,-0.77,-1266.4,-199.0
49.538,-0.0967,-0.5444,0.0135,-0.49,0.0,3.33,-0.77,-1597.6,-178.4
49.604,-0.0742,-0.5462,0.0135,-0.48,0.0,3.83,-0.77,-1550.6,-188.5
49.67,-0.0591,-0.5385,0.0135,-0.47,0.0,3.8,-0.77,-1733.4,-185.0
49.737,-0.0468,-0.5222,0.0135,-0.47,0.0,3.27,-0.77,-1895.1,-181.3
49.803,-0.0574,-0.5278,0.0135,-0.46,0.0,4.01,-0.77,-1562.9,-196.0
49.869,-0.0588,-0.5104,0.0135,-0.45,0.0,3.42,-0.77,-1892.5,-185.1
49.936,-0.0436,-0.4981,0.0135,-0.44,0.0,3.13,-0.77,-1824.2,-188.8
50.002,-0.0397,-0.4989,0.0135,-0.44,0.0,3.59,-0.77,-1562.5,-197.2
50.068,-0.0339,-0.4757,0.0134,-0.43,0.0,2.68,-0.77,-1893.7,-185.3
50.134,-0.0435,-0.4808,0.0134,-0.42,0.0,3.39,-0.77,-1564.0,-205.9
50.2,-0.07,-0.487,0.0135,-0.41,0.0,4.16,-0.77,-1420.5,-207.4
50.266,-0.055,-0.4688,0.0134,-0.41,0.0,3.53,-0.77,-1750.7,-192.5
50.333,-0.0446,-0.4731,0.0135,-0.4,0.0,4.18,-0.77,-1459.0,-208.2
50.399,-0.0372,-0.4592,0.0134,-0.39,0.0,3.79,-0.77,-1789.7,-198.8
50.465,-0.0463,-0.4615,0.0135,-0.39,0.0,4.32,-0.77,-1492.5,-210.6
50.531,-0.0605,-0.4571,0.0135,-0.38,0.0,4.47,-0.77,-1623.3,-207.7
50.597,-0.0538,-0.4373,0.0135,-0.37,0.0,3.72,-0.77,-1921.4,-200.9
50.663,-0.0403,-0.42,0.0134,-0.37,0.0,3.11,-0.77,-1899.5,-201.5
50.729,-0.0305,-0.4093,0.0134,-0.36,0.0,2.88,-0.77,-1792.0,-210.9
50.796,-0.0492,-0.4099,0.0134,-0.35,0.0,3.28,-0.77,-1565.9,-215.9
50.862,-0.0345,-0.4028,0.0134,-0.35,0.0,3.23,-0.77,-1717.7,-213.1
50.928,-0.0487,-0.3975,0.0133,-0.34,0.0,3.28,-0.76,-1682.2,-215.2
50.994,-0.0556,-0.3858,0.0134,-0.33,0.0,2.95,-0.77,-1811.0,-216.8
51.06,-0.0626,-0.3834,0.0134,-0.33,0.0,3.15,-0.77,-1635.1,-220.9
51.126,-0.0659,-0.3784,0.0134,-0.32,0.0,3.18,-0.77,-1685.4,-221.1
51.192,-0.0669,-0.3538,0.0134,-0.32,0.0,2.08,-0.77,-2000.0,-214.3
51.259,-0.0485,-0.3484,0.0133,-0.31,0.0,2.07,-0.76,-1732.6,-222.4
51.326,-0.0517,-0.3456,0.0134,-0.31,0.0,2.2,-0.77,-1682.4,-228.9
51.392,-0.0361,-0.3576,0.0134,-0.3,0.0,3.16,-0.77,-1350.7,-232.4
51.458,-0.0544,-0.3536,0.0134,-0.3,0.0,3.19,-0.77,-1678.8,-225.1
51.525,-0.0558,-0.3569,0.0134,-0.29,0.0,3.63,-0.77,-1520.5,-230.0
51.591,-0.0595,-0.3551,0.0134,-0.29,0.0,3.76,-0.77,-1623.1,-228.7
51.657,-0.0619,-0.3344,0.0134,-0.29,0.0,2.79,-0.77,-1954.9,-223.1
51.723,-0.0478,-0.3247,0.0134,-0.28,0.0,2.44,-0.77,-1815.4,-228.0
51.79,-0.0474,-0.3323,0.0134,-0.28,0.0,3.06,-0.77,-1484.7,-235.9
51.856,-0.0431,-0.3451,0.0134,-0.28,0.0,3.97,-0.77,-1310.2,-237.0
51.923,-0.0177,-0.3347,0.0134,-0.27,0.0,3.53,-0.77,-1644.6,-228.5
51.989,-0.0376,-0.3262,0.0134,-0.27,0.0,3.18,-0.77,-1782.4,-231.3
52.056,-0.0425,-0.3273,0.0134,-0.27,0.0,3.37,-0.77,-1600.9,-237.6
52.122,-0.0334,-0.3245,0.0134,-0.27,0.0,3.31,-0.77,-1681.1,-233.2
52.188,-0.035,-0.3279,0.0134,-0.27,0.0,3.6,-0.77,-1551.8,-237.9
52.255,-0.0306,-0.3244,0.0134,-0.26,0.0,3.47,-0.77,-1695.6,-233.4
52.321,-0.0454,-0.3298,0.0134,-0.26,0.0,3.84,-0.77,-1507.9,-239.1
52.387,-0.0661,-0.3263,0.0134,-0.26,0.0,3.67,-0.77,-1695.6,-236.7
52.453,-0.0568,-0.3137,0.0134,-0.26,0.0,2.97,-0.77,-1882.0,-231.6
52.52,-0.0734,-0.3107,0.0134,-0.26,0.0,2.8,-0.77,-1719.8,-238.8
52.586,-0.0738,-0.3132,0.0134,-0.26,0.0,2.93,-0.77,-1614.8,-240.6
52.652,-0.0656,-0.3259,0.0134,-0.26,0.0,3.63,-0.77,-1376.2,-243.2
52.718,-0.0587,-0.3354,0.0134,-0.26,0.0,4.12,-0.77,-1433.6,-239.9
52.784,-0.0526,-0.3489,0.0134,-0.26,0.0,4.83,-0.77,-1313.5,-243.4
52.851,-0.0453,-0.3431,0.0134,-0.27,0.0,4.42,-0.77,-1645.8,-234.7
52.917,-0.0436,-0.3351,0.0134,-0.27,0.0,3.86,-0.77,-1792.8,-236.5
52.983,-0.0557,-0.3481,0.0134,-0.27,0.0,4.49,-0.77,-1463.2,-242.9
53.05,-0.0748,-0.3565,0.0134,-0.27,0.0,4.83,-0.77,-1444.8,-239.8
53.118,-0.0724,-0.3636,0.0134,-0.27,0.0,5.09,-0.77,-1465.8,-240.6
53.185,-0.065,-0.3636,0.0134,-0.28,0.0,4.92,-0.77,-1616.8,-236.1
53.256,-0.0616,-0.3641,0.0134,-0.28,0.0,4.75,-0.77,-1616.3,-236.6
53.327,-0.0667,-0.3695,0.0134,-0.28,0.0,4.85,-0.77,-1520.0,-239.2
53.396,-0.0733,-0.3668,0.0135,-0.29,0.0,4.47,-0.77,-1685.4,-236.9
53.466,-0.0654,-0.3672,0.0134,-0.29,0.0,4.25,-0.77,-1639.4,-234.2
53.537,-0.061,-0.3739,0.0134,-0.3,0.0,4.38,-0.77,-1516.5,-238.2
53.608,-0.0645,-0.3762,0.0134,-0.3,0.0,4.23,-0.77,-1608.4,-238.7
53.678,-0.066,-0.3799,0.0134,-0.31,0.0,4.15,-0.77,-1585.2,-237.6
53.749,-0.0799,-0.3896,0.0134,-0.31,0.0,4.4,-0.77,-1460.2,-238.0
53.82,-0.0816,-0.3843,0.0134,-0.32,0.0,3.78,-0.77,-1758.5,-233.6
53.89,-0.0818,-0.351,0.0134,-0.32,0.0,1.53,-0.77,-2000.0,-226.2
53.961,-0.0689,-0.3506,0.0134,-0.33,0.0,1.16,-0.77,-1764.0,-239.4
54.031,-0.0619,-0.3649,0.0134,-0.34,0.0,1.63,-0.77,-1475.4,-244.2
54.102,-0.0559,-0.3787,0.0134,-0.34,0.0,2.04,-0.77,-1480.6,-242.5
54.176,-0.0414,-0.3576,0.0134,-0.35,0.0,0.44,-0.77,-1846.0,-230.5
54.245,-0.0439,-0.3663,0.0134,-0.36,0.0,0.56,-0.77,-1628.6,-241.2
54.317,-0.0466,-0.3686,0.0134,-0.36,0.0,0.28,-0.77,-1755.7,-237.7
54.387,-0.037,-0.3754,0.0134,-0.37,0.0,0.27,-0.77,-1678.5,-240.5
54.459,-0.0242,-0.3694,0.0134,-0.38,0.0,-0.5,-0.77,-1914.7,-236.3
54.53,-0.0263,-0.3707,0.0134,-0.39,0.0,-0.85,-0.77,-1813.3,-236.9
54.599,-0.0541,-0.3776,0.0134,-0.39,0.0,-0.87,-0.77,-1717.3,-239.1
54.669,-0.0584,-0.3788,0.0134,-0.4,0.0,-1.23,-0.77,-1829.2,-239.2
54.74,-0.0416,-0.3828,0.0134,-0.41,0.0,-1.44,-0.77,-1791.6,-236.4
54.811,-0.0215,-0.3599,0.0134,-0.42,0.0,-3.19,-0.77,-2000.0,-229.7
54.881,-0.0268,-0.3507,0.0135,-0.42,0.0,-4.16,-0.77,-2000.0,-237.1
54.953,-0.0495,-0.3637,0.0135,-0.43,0.0,-3.86,-0.77,-1725.6,-244.8
55.023,-0.043,-0.3475,0.0134,-0.44,0.0,-5.23,-0.77,-2000.0,-232.5
55.094,-0.0738,-0.3771,0.0134,-0.45,0.0,-3.99,-0.77,-1724.7,-248.6
55.165,-0.056,-0.3859,0.0134,-0.45,0.0,-3.92,-0.77,-1803.9,-239.6
55.235,-0.0409,-0.3753,0.0134,-0.46,0.0,-4.97,-0.77,-2000.0,-231.8
55.305,-0.0583,-0.3794,0.0134,-0.47,0.0,-5.17,-0.77,-1920.5,-238.7
55.376,-0.068,-0.3953,0.0134,-0.48,0.0,-4.69,-0.77,-1714.2,-240.3
55.446,-0.0792,-0.3953,0.0134,-0.48,0.0,-5.12,-0.77,-1985.3,-232.6
55.515,-0.0938,-0.4285,0.0134,-0.49,0.0,-3.63,-0.77,-1635.8,-247.7
55.586,-0.0613,-0.4364,0.0134,-0.5,0.0,-3.6,-0.77,-1818.7,-233.3
55.656,-0.0676,-0.4378,0.0134,-0.51,0.0,-3.92,-0.77,-1931.2,-229.1
55.726,-0.0735,-0.453,0.0135,-0.51,0.0,-3.46,-0.77,-1689.5,-235.8
55.797,-0.0622,-0.4712,0.0134,-0.52,0.0,-2.8,-0.77,-1610.5,-231.2
55.867,-0.0759,-0.4775,0.0134,-0.53,0.0,-2.82,-0.77,-1818.0,-226.2
55.937,-0.0881,-0.4995,0.0134,-0.53,0.0,-1.93,-0.77,-1503.2,-232.9
56.008,-0.0691,-0.4986,0.0134,-0.54,0.0,-2.35,-0.77,-1858.4,-218.9
56.078,-0.0554,-0.4794,0.0135,-0.55,0.0,-3.8,-0.77,-2000.0,-213.0
56.149,-0.0597,-0.4782,0.0135,-0.55,0.0,-4.21,-0.77,-1971.9,-222.7
56.218,-0.077,-0.5056,0.0135,-0.56,0.0,-2.96,-0.77,-1622.5,-236.8
56.288,-0.0767,-0.477,0.0135,-0.56,0.0,-4.91,-0.77,-1971.9,-205.9
56.359,-0.0787,-0.5076,0.0134,-0.57,0.0,-3.45,-0.77,-1619.8,-234.8
56.428,-0.0533,-0.5083,0.0135,-0.57,0.0,-3.69,-0.77,-1922.6,-222.0
56.5,-0.0565,-0.5043,0.0135,-0.58,0.0,-4.2,-0.78,-2000.0,-218.3
56.571,-0.0888,-0.5224,0.0135,-0.58,0.0,-3.41,-0.77,-1649.6,-225.7
56.642,-0.0601,-0.5402,0.0135,-0.59,0.0,-2.63,-0.77,-1591.8,-225.9
56.712,-0.042,-0.5682,0.0135,-0.59,0.0,-1.25,-0.78,-1323.3,-233.0
56.782,-0.055,-0.6063,0.0135,-0.59,0.0,0.74,-0.77,-973.8,-233.3
56.852,-0.0507,-0.6074,0.0135,-0.6,0.0,0.62,-0.77,-1323.9,-204.4
56.922,-0.0639,-0.6078,0.0135,-0.6,0.0,0.48,-0.77,-1674.2,-206.0
56.991,-0.0602,-0.6119,0.0135,-0.6,0.0,0.57,-0.77,-1701.3,-208.9
57.063,-0.0611,-0.6216,0.0135,-0.6,0.0,0.99,-0.77,-1582.5,-211.6
57.133,-0.0703,-0.6106,0.0135,-0.61,0.0,0.25,-0.77,-1934.5,-200.3
57.203,-0.0688,-0.6078,0.0135,-0.61,0.0,-0.0,-0.77,-1819.8,-206.1
57.273,-0.0736,-0.5906,0.0135,-0.61,0.0,-1.06,-0.77,-2000.0,-197.8
57.343,-0.0804,-0.5992,0.0135,-0.61,0.0,-0.62,-0.77,-1714.7,-216.0
57.413,-0.0846,-0.5971,0.0135,-0.61,0.0,-0.78,-0.77,-1817.0,-208.3
57.483,-0.0939,-0.6052,0.0135,-0.61,0.0,-0.32,-0.77,-1615.3,-217.2
57.553,-0.0983,-0.6018,0.0135,-0.61,0.0,-0.52,-0.77,-1821.0,-209.8
57.623,-0.0994,-0.6044,0.0135,-0.61,0.0,-0.34,-0.77,-1706.2,-213.1
57.693,-0.0782,-0.5801,0.0135,-0.61,0.0,-1.69,-0.77,-2000.0,-199.4
57.763,-0.0565,-0.5737,0.0135,-0.61,0.0,-1.99,-0.77,-1897.8,-212.0
57.833,-0.0506,-0.5759,0.0135,-0.61,0.0,-1.78,-0.77,-1745.5,-219.9
57.903,-0.0132,-0.5585,0.0135,-0.61,0.0,-2.68,-0.78,-2000.0,-210.9
57.973,-0.0307,-0.5435,0.0135,-0.6,0.0,-3.42,-0.77,-2000.0,-211.7
58.043,-0.0677,-0.559,0.0135,-0.6,0.0,-2.39,-0.77,-1711.5,-231.5
58.114,-0.0573,-0.5644,0.0135,-0.6,0.0,-1.93,-0.77,-1682.6,-226.1
58.185,-0.0471,-0.5367,0.0135,-0.59,0.0,-3.34,-0.77,-2000.0,-209.7
58.251,-0.0348,-0.5516,0.0135,-0.59,0.0,-2.3,-0.77,-1708.2,-236.3
58.318,-0.022,-0.5108,0.0135,-0.59,0.0,-4.44,-0.77,-2000.0,-206.8
58.384,-0.0505,-0.509,0.0135,-0.58,0.0,-4.33,-0.77,-1868.9,-229.1
58.451,-0.0176,-0.5021,0.0134,-0.58,0.0,-4.5,-0.77,-1958.7,-228.5
58.517,-0.0377,-0.4721,0.0134,-0.58,0.0,-5.98,-0.77,-2000.0,-221.3
58.583,-0.0292,-0.474,0.0135,-0.57,0.0,-5.62,-0.77,-1959.3,-242.9
58.649,-0.0453,-0.4809,0.0134,-0.57,0.0,-4.95,-0.77,-1733.4,-241.8
58.716,-0.0354,-0.4731,0.0135,-0.56,0.0,-5.12,-0.77,-1987.3,-237.1
58.782,-0.0567,-0.4765,0.0134,-0.56,0.0,-4.63,-0.77,-1785.1,-243.3
58.85,-0.0337,-0.4804,0.0135,-0.55,0.0,-4.09,-0.77,-1759.5,-244.5
58.916,-0.052,-0.4982,0.0135,-0.55,0.0,-2.75,-0.77,-1437.1,-254.4
58.982,-0.0467,-0.4932,0.0135,-0.54,0.0,-2.71,-0.78,-1768.4,-239.3
59.048,-0.043,-0.4855,0.0135,-0.53,0.0,-2.81,-0.77,-1916.5,-237.4
59.116,-0.0245,-0.4833,0.0135,-0.53,0.0,-2.58,-0.77,-1815.5,-242.8
59.182,-0.0141,-0.4789,0.0135,-0.52,0.0,-2.48,-0.77,-1851.1,-243.7
59.248,-0.0461,-0.4974,0.0135,-0.52,0.0,-1.05,-0.77,-1521.3,-255.6
59.315,-0.0308,-0.478,0.0135,-0.51,0.0,-1.78,-0.77,-1856.7,-236.7
59.381,-0.0487,-0.4884,0.0135,-0.5,0.0,-0.81,-0.77,-1526.0,-253.6
59.447,-0.0367,-0.477,0.0135,-0.5,0.0,-1.07,-0.77,-1855.7,-242.0
59.514,-0.0391,-0.4654,0.0135,-0.49,0.0,-1.34,-0.77,-1930.6,-245.5
59.581,-0.0617,-0.496,0.0135,-0.48,0.0,0.82,-0.77,-1597.8,-266.4
59.647,-0.038,-0.46,0.0135,-0.47,0.0,-0.84,-0.77,-1929.5,-233.9
59.714,-0.0656,-0.4904,0.0135,-0.47,0.0,1.31,-0.77,-1596.2,-271.2
59.781,-0.07,-0.523,0.0135,-0.46,0.0,3.59,-0.77,-1263.5,-268.1
59.847,-0.0875,-0.5171,0.0135,-0.45,0.0,3.67,-0.77,-1595.3,-245.3
59.914,-0.0867,-0.5463,0.0134,-0.45,0.0,5.76,-0.77,-1262.0,-264.5
59.98,-0.0648,-0.5364,0.0135,-0.44,0.0,5.61,-0.77,-1595.2,-243.9
60.047,-0.0741,-0.5548,0.0135,-0.43,0.0,7.08,-0.77,-1262.4,-261.4
60.114,-0.0809,-0.5528,0.0135,-0.42,0.0,7.39,-0.78,-1441.1,-248.5
60.181,-0.0593,-0.5455,0.0135,-0.42,0.0,7.39,-0.77,-1547.9,-244.6
60.248,-0.0454,-0.5636,0.0135,-0.41,0.0,8.84,-0.77,-1214.6,-259.6
60.314,-0.0557,-0.5533,0.0135,-0.4,0.0,8.67,-0.77,-1549.0,-244.4
60.381,-0.0452,-0.5386,0.0135,-0.39,0.0,8.23,-0.77,-1650.0,-245.0
60.447,-0.0416,-0.535,0.0135,-0.39,0.0,8.43,-0.77,-1410.2,-252.5
60.514,-0.0415,-0.5177,0.0134,-0.38,0.0,7.83,-0.77,-1705.6,-245.6
60.581,-0.0472,-0.5013,0.0135,-0.37,0.0,7.29,-0.77,-1700.1,-252.5
60.647,-0.0598,-0.4987,0.0135,-0.37,0.0,7.53,-0.77,-1411.8,-261.6
60.713,-0.0636,-0.4939,0.0135,-0.36,0.0,7.63,-0.77,-1450.9,-260.5
60.781,-0.0606,-0.4831,0.0134,-0.35,0.0,7.39,-0.77,-1580.9,-259.2
60.848,-0.0665,-0.4746,0.0135,-0.35,0.0,7.27,-0.77,-1537.1,-265.3
60.914,-0.0607,-0.4623,0.0134,-0.34,0.0,6.92,-0.77,-1623.7,-261.8
60.981,-0.0483,-0.4482,0.0134,-0.34,0.0,6.46,-0.77,-1673.4,-262.2
61.047,-0.0404,-0.4362,0.0134,-0.33,0.0,6.11,-0.77,-1641.5,-268.3
61.114,-0.0488,-0.4255,0.0134,-0.32,0.0,5.82,-0.77,-1628.8,-274.0
61.181,-0.0638,-0.4146,0.0134,-0.32,0.0,5.51,-0.77,-1640.2,-272.5
61.247,-0.0708,-0.4003,0.0135,-0.31,0.0,4.99,-0.77,-1723.0,-276.1
61.314,-0.058,-0.3795,0.0134,-0.31,0.0,4.09,-0.77,-1867.3,-273.7
61.382,-0.0583,-0.3686,0.0134,-0.3,0.0,3.75,-0.77,-1697.9,-280.1
61.449,-0.0649,-0.3626,0.0134,-0.3,0.0,3.67,-0.77,-1615.0,-285.8
61.515,-0.0763,-0.3646,0.0135,-0.29,0.0,4.04,-0.77,-1437.1,-290.1
61.581,-0.0625,-0.338,0.0134,-0.29,0.0,2.75,-0.77,-1768.5,-277.7
61.648,-0.0546,-0.326,0.0134,-0.29,0.0,2.28,-0.77,-1780.8,-289.5
61.714,-0.0523,-0.313,0.0135,-0.28,0.0,1.74,-0.77,-1820.3,-291.0
61.781,-0.0439,-0.2818,0.0134,-0.28,0.0,0.14,-0.77,-2000.0,-286.4
61.848,-0.0452,-0.2833,0.0134,-0.28,0.0,0.4,-0.77,-1817.6,-298.9
61.913,-0.0301,-0.2831,0.0134,-0.27,0.0,0.55,-0.77,-1636.0,-298.5
61.98,-0.0491,-0.2854,0.0134,-0.27,0.0,0.82,-0.77,-1583.1,-299.8
62.046,-0.0476,-0.2746,0.0134,-0.27,0.0,0.33,-0.76,-1845.7,-296.9
62.112,-0.0464,-0.2751,0.0133,-0.27,0.0,0.46,-0.76,-1642.1,-301.4
62.179,-0.0658,-0.2794,0.0133,-0.27,0.0,0.81,-0.76,-1558.9,-302.8
