time,roll,pitch,yaw,rp_rpm,ry_rpm,err_p,err_y,mp_rpm,my_rpm
0.041,-0.0581,0.0574,0.0005,-0.44,0.79,-28.29,44.97,-298.0,298.0
0.107,-0.055,0.0605,0.0005,-0.44,0.79,-28.46,44.97,-630.8,630.8
0.173,-0.0625,0.0594,0.0004,-0.44,0.79,-28.4,44.98,-960.9,960.9
0.239,-0.0658,0.0698,0.0004,-0.44,0.79,-29.0,44.97,-1291.1,1291.1
0.305,-0.058,0.0494,0.0005,-0.44,0.79,-27.83,44.97,-961.9,1620.3
0.371,-0.0681,0.0598,0.0004,-0.44,0.79,-28.43,44.97,-1293.6,1742.8
0.438,-0.0624,0.082,0.0004,-0.44,0.79,-29.7,44.98,-1624.8,1745.9
0.503,-0.0746,0.0702,0.0004,-0.44,0.79,-29.02,44.98,-1295.7,1750.0
0.57,-0.07,0.0826,0.0004,-0.44,0.79,-29.73,44.98,-1629.5,1753.0
0.637,-0.0614,0.0766,0.0004,-0.44,0.79,-29.39,44.98,-1341.3,1757.3
0.703,-0.0533,0.0774,0.0004,-0.44,0.79,-29.43,44.97,-1483.8,1760.7
0.769,-0.0533,0.0715,0.0004,-0.44,0.79,-29.1,44.98,-1377.8,1764.9
0.837,-0.0591,0.068,0.0005,-0.44,0.79,-28.89,44.97,-1433.8,1768.4
0.905,-0.0542,0.064,0.0004,-0.44,0.79,-28.67,44.98,-1440.9,1772.7
0.976,-0.0469,0.0759,0.0004,-0.44,0.79,-29.35,44.98,-1714.1,1776.2
1.047,-0.0495,0.0724,0.0004,-0.44,0.79,-29.15,44.98,-1500.0,1780.2
1.117,-0.0459,0.0717,0.0004,-0.44,0.79,-29.11,44.98,-1560.0,1784.2
1.186,-0.0401,0.0753,0.0004,-0.44,0.79,-29.32,44.98,-1647.1,1787.6
1.257,-0.0332,0.0655,0.0005,-0.44,0.79,-28.75,44.97,-1445.5,1791.9
1.328,-0.0333,0.0719,0.0004,-0.44,0.79,-29.12,44.97,-1713.2,1795.7
1.398,-0.0293,0.0694,0.0105,-0.44,0.79,-28.98,44.4,-1603.4,1743.7
1.466,-0.0353,0.06,0.0142,-0.44,0.79,-28.44,44.19,-1500.3,1774.0
1.535,-0.0384,0.0699,0.0157,-0.44,0.79,-29.0,44.1,-1813.4,1787.5
1.605,-0.0486,0.0638,0.0162,-0.44,0.79,-28.66,44.07,-1597.5,1795.4
1.676,-0.0492,0.0611,0.0163,-0.44,0.79,-28.5,44.06,-1659.8,1800.9
1.746,-0.0694,0.0541,0.0163,-0.44,0.79,-28.1,44.06,-1605.6,1805.6
1.816,-0.0715,0.0656,0.0163,-0.44,0.79,-28.76,44.07,-1887.7,1809.1
1.887,-0.0524,0.0632,0.0263,-0.44,0.79,-28.62,43.49,-1720.5,1758.4
1.957,-0.0434,0.0459,0.0301,-0.44,0.79,-27.63,43.28,-1492.7,1787.9
2.027,-0.0457,0.0354,0.0415,-0.44,0.79,-27.03,42.62,-1609.4,1746.1
2.099,-0.0605,0.0409,0.0458,-0.44,0.79,-27.34,42.38,-1851.0,1779.9
2.169,-0.055,0.0403,0.0573,-0.44,0.79,-27.31,41.72,-1790.5,1738.8
2.24,-0.062,0.0143,0.0717,-0.44,0.79,-25.82,40.89,-1433.7,1717.2
2.311,-0.0496,0.0054,0.087,-0.44,0.79,-25.31,40.02,-1676.3,1701.2
2.381,-0.0481,-0.017,0.1026,-0.44,0.79,-24.02,39.12,-1463.3,1687.6
2.451,-0.0493,-0.05,0.1284,-0.44,0.79,-22.13,37.64,-1256.9,1614.1
2.521,-0.0442,-0.0693,0.148,-0.44,0.79,-21.03,36.52,-1490.9,1628.6
2.591,-0.0517,-0.0845,0.1653,-0.44,0.79,-20.16,35.53,-1554.2,1625.7
2.661,-0.0692,-0.1274,0.1916,-0.44,0.79,-17.7,34.02,-1201.1,1553.6
2.732,-0.0758,-0.1649,0.2114,-0.44,0.79,-15.55,32.89,-1074.4,1568.0
2.801,-0.0749,-0.1877,0.2385,-0.44,0.79,-14.25,31.33,-1340.7,1496.8
2.871,-0.0797,-0.2179,0.2685,-0.44,0.79,-12.51,29.61,-1171.7,1447.7
2.945,-0.0798,-0.2235,0.2899,-0.44,0.79,-12.2,28.39,-1538.9,1478.4
3.014,-0.0705,-0.2418,0.3174,-0.44,0.79,-11.15,26.82,-1389.6,1404.8
3.081,-0.0774,-0.2676,0.3471,-0.44,0.79,-9.67,25.11,-1198.2,1343.4
3.147,-0.0726,-0.2846,0.3779,-0.44,0.79,-8.7,23.35,-1359.8,1294.7
3.213,-0.0706,-0.3147,0.3993,-0.44,0.79,-6.97,22.12,-1039.4,1326.4
3.279,-0.0679,-0.3115,0.427,-0.44,0.79,-7.15,20.54,-1369.7,1246.6
3.345,-0.0729,-0.3319,0.457,-0.44,0.79,-5.98,18.82,-1250.3,1185.5
3.411,-0.0658,-0.3508,0.4879,-0.44,0.79,-4.9,17.05,-1256.6,1128.2
3.477,-0.0616,-0.3602,0.5191,-0.44,0.79,-4.36,15.26,-1428.9,1073.0
3.544,-0.0611,-0.3799,0.5505,-0.44,0.79,-3.23,13.46,-1207.4,1015.2
3.61,-0.0586,-0.388,0.5719,-0.44,0.79,-2.77,12.23,-1423.0,1055.3
3.676,-0.067,-0.407,0.5995,-0.44,0.79,-1.68,10.65,-1182.5,951.9
3.743,-0.0614,-0.4221,0.6295,-0.44,0.79,-0.82,8.93,-1246.8,871.3
3.809,-0.0661,-0.4409,0.6602,-0.44,0.79,0.26,7.17,-1129.9,789.7
3.875,-0.0473,-0.4496,0.6814,-0.44,0.79,0.76,5.96,-1327.0,834.2
3.941,-0.0635,-0.4524,0.7088,-0.44,0.79,0.92,4.39,-1430.5,700.0
4.008,-0.0728,-0.4463,0.7288,-0.44,0.79,0.57,3.25,-1589.9,729.6
4.076,-0.0655,-0.4421,0.7559,-0.44,0.79,0.33,1.69,-1561.7,503.3
4.142,-0.0657,-0.4447,0.7755,-0.44,0.79,0.48,0.57,-1445.8,557.5
4.209,-0.0601,-0.4394,0.7924,-0.44,0.79,0.17,-0.4,-1586.0,519.7
4.275,-0.0588,-0.4297,0.8181,-0.44,0.79,-0.38,-1.88,-1665.6,189.0
4.342,-0.0609,-0.4127,0.8374,-0.44,0.79,-1.35,-2.98,-1794.5,163.4
4.409,-0.0583,-0.4129,0.8542,-0.44,0.79,-1.34,-3.94,-1533.3,119.5
4.475,-0.0473,-0.4048,0.87,-0.44,0.79,-1.81,-4.85,-1676.0,38.0
4.541,-0.0572,-0.412,0.8854,-0.44,0.79,-1.4,-5.73,-1415.3,-51.6
4.607,-0.066,-0.3966,0.9008,-0.44,0.79,-2.28,-6.61,-1746.0,-154.3
4.673,-0.0677,-0.3893,0.9161,-0.44,0.79,-2.7,-7.49,-1686.9,-257.4
4.739,-0.0631,-0.377,0.9215,-0.44,0.79,-3.4,-7.8,-1775.1,-39.8
4.807,-0.0578,-0.3696,0.9331,-0.44,0.79,-3.82,-8.47,-1713.7,-277.1
4.873,-0.064,-0.3593,0.9469,-0.44,0.79,-4.41,-9.26,-1772.2,-433.7
4.939,-0.0744,-0.3444,0.9518,-0.44,0.79,-5.27,-9.53,-1857.3,-238.1
5.005,-0.0723,-0.3445,0.9532,-0.44,0.79,-5.26,-9.62,-1641.5,-162.6
5.071,-0.0696,-0.3412,0.9633,-0.44,0.79,-5.45,-10.19,-1701.2,-460.1
5.138,-0.0845,-0.3447,0.9668,-0.44,0.79,-5.25,-10.4,-1594.8,-312.5
5.204,-0.057,-0.3251,0.9678,-0.44,0.79,-6.37,-10.45,-1926.8,-260.7
5.27,-0.0495,-0.3284,0.9678,-0.44,0.79,-6.19,-10.45,-1628.1,-240.1
5.336,-0.0491,-0.3259,0.9675,-0.44,0.79,-6.33,-10.43,-1723.7,-235.1
5.402,-0.0544,-0.3205,0.9671,-0.44,0.79,-6.64,-10.41,-1776.4,-236.5
5.468,-0.0557,-0.3263,0.9666,-0.44,0.79,-6.3,-10.38,-1604.4,-236.0
5.534,-0.0676,-0.3293,0.9662,-0.44,0.79,-6.13,-10.36,-1650.2,-239.4
5.6,-0.0708,-0.3369,0.9658,-0.44,0.79,-5.7,-10.34,-1571.4,-241.1
5.666,-0.0789,-0.33,0.9654,-0.44,0.79,-6.09,-10.31,-1802.2,-244.7
5.732,-0.066,-0.3398,0.9651,-0.44,0.79,-5.53,-10.3,-1540.3,-247.4
5.798,-0.0586,-0.3525,0.9647,-0.44,0.79,-4.8,-10.28,-1475.4,-247.2
5.864,-0.0657,-0.3534,0.9644,-0.44,0.79,-4.75,-10.26,-1671.0,-250.8
5.93,-0.0718,-0.3631,0.9641,-0.44,0.79,-4.19,-10.24,-1519.1,-252.4
5.996,-0.0765,-0.3678,0.9638,-0.44,0.79,-3.93,-10.22,-1599.4,-254.9
6.062,-0.0661,-0.3654,0.9636,-0.44,0.79,-4.06,-10.21,-1712.4,-260.2
6.128,-0.0606,-0.3726,0.9633,-0.44,0.79,-3.65,-10.2,-1556.8,-261.3
6.194,-0.0658,-0.3679,0.9631,-0.44,0.79,-3.92,-10.18,-1748.4,-267.4
6.26,-0.0745,-0.3567,0.9629,-0.44,0.79,-4.56,-10.17,-1857.4,-272.9
6.326,-0.0696,-0.3578,0.9627,-0.44,0.79,-4.5,-10.16,-1680.7,-277.1
6.392,-0.0571,-0.3539,0.9625,-0.44,0.79,-4.73,-10.15,-1763.7,-282.0
6.458,-0.0518,-0.3505,0.9623,-0.44,0.79,-4.92,-10.14,-1762.0,-286.8
6.524,-0.0667,-0.3597,0.9622,-0.44,0.79,-4.39,-10.13,-1560.9,-289.1
6.596,-0.0767,-0.3697,0.9621,-0.44,0.79,-3.82,-10.13,-1552.1,-295.4
6.666,-0.0699,-0.3587,0.962,-0.44,0.79,-4.45,-10.12,-1860.4,-299.6
6.735,-0.0644,-0.3691,0.9618,-0.44,0.79,-3.85,-10.11,-1546.3,-300.5
6.804,-0.0757,-0.3594,0.9617,-0.44,0.79,-4.41,-10.1,-1849.6,-307.6
6.877,-0.0809,-0.3607,0.9616,-0.44,0.79,-4.33,-10.1,-1700.8,-314.5
6.947,-0.0834,-0.3555,0.9614,-0.44,0.79,-4.63,-10.09,-1798.9,-317.6
7.013,-0.0895,-0.3555,0.9613,-0.44,0.79,-4.63,-10.08,-1730.8,-321.6
7.079,-0.0836,-0.354,0.9612,-0.44,0.79,-4.72,-10.07,-1757.9,-325.9
7.145,-0.0782,-0.3639,0.9611,-0.44,0.79,-4.15,-10.06,-1573.9,-329.4
7.212,-0.0844,-0.3723,0.961,-0.44,0.79,-3.67,-10.06,-1589.9,-332.2
7.278,-0.0835,-0.3715,0.9609,-0.44,0.79,-3.72,-10.05,-1734.9,-337.3
7.344,-0.0549,-0.3615,0.9608,-0.44,0.79,-4.29,-10.05,-1878.1,-343.9
7.41,-0.0505,-0.3672,0.9608,-0.44,0.79,-3.96,-10.05,-1646.9,-348.5
7.476,-0.0619,-0.3829,0.9607,-0.44,0.79,-3.06,-10.04,-1463.5,-348.3
7.542,-0.0641,-0.3808,0.9607,-0.44,0.79,-3.18,-10.04,-1751.7,-354.3
7.609,-0.0794,-0.3863,0.9606,-0.44,0.79,-2.87,-10.04,-1632.1,-356.9
7.678,-0.0809,-0.3915,0.9606,-0.44,0.79,-2.57,-10.04,-1635.6,-360.9
7.744,-0.0825,-0.4021,0.9605,-0.44,0.79,-1.96,-10.03,-1532.4,-362.1
7.81,-0.0512,-0.4044,0.9604,-0.44,0.79,-1.83,-10.03,-1662.0,-367.0
7.876,-0.0501,-0.4086,0.9604,-0.44,0.79,-1.59,-10.03,-1629.7,-371.3
7.943,-0.0419,-0.4132,0.9604,-0.44,0.79,-1.32,-10.03,-1617.1,-375.0
8.011,-0.0481,-0.4175,0.9603,-0.44,0.79,-1.08,-10.02,-1618.7,-378.0
8.08,-0.0487,-0.4257,0.9603,-0.44,0.79,-0.61,-10.02,-1551.8,-381.2
8.151,-0.0555,-0.408,0.9603,-0.44,0.79,-1.62,-10.02,-1903.8,-390.5
8.222,-0.0534,-0.418,0.9602,-0.44,0.79,-1.05,-10.02,-1547.7,-393.0
8.292,-0.044,-0.4061,0.9602,-0.44,0.79,-1.73,-10.02,-1861.7,-401.5
8.362,-0.0573,-0.4224,0.9602,-0.44,0.79,-0.8,-10.02,-1511.8,-402.4
8.432,-0.0651,-0.4254,0.9602,-0.44,0.79,-0.63,-10.01,-1634.0,-406.7
8.502,-0.0805,-0.422,0.9601,-0.44,0.79,-0.82,-10.01,-1730.8,-411.9
8.574,-0.08,-0.4273,0.9601,-0.44,0.79,-0.52,-10.01,-1600.0,-416.4
8.645,-0.0849,-0.4289,0.9601,-0.44,0.79,-0.42,-10.01,-1650.0,-420.2
8.715,-0.072,-0.4168,0.9601,-0.44,0.79,-1.12,-10.01,-1853.8,-428.8
8.786,-0.0581,-0.4091,0.96,-0.44,0.79,-1.56,-10.01,-1803.9,-435.8
8.856,-0.0583,-0.4086,0.96,-0.44,0.79,-1.59,-10.01,-1708.7,-441.1
8.926,-0.052,-0.3954,0.96,-0.44,0.79,-2.35,-10.0,-1895.0,-449.2
8.997,-0.0642,-0.3967,0.96,-0.44,0.79,-2.27,-10.0,-1701.4,-453.8
9.068,-0.079,-0.4202,0.96,-0.44,0.79,-0.93,-10.0,-1346.5,-453.7
9.138,-0.0719,-0.421,0.96,-0.44,0.79,-0.88,-10.0,-1678.3,-458.9
9.209,-0.0762,-0.4181,0.96,-0.44,0.79,-1.04,-10.0,-1734.5,-463.9
9.28,-0.0724,-0.4075,0.9599,-0.44,0.79,-1.65,-10.0,-1849.7,-472.1
9.351,-0.0696,-0.4066,0.9599,-0.44,0.79,-1.7,-10.0,-1723.4,-477.9
9.421,-0.0821,-0.4101,0.96,-0.44,0.79,-1.51,-10.0,-1658.6,-482.4
9.491,-0.0828,-0.4041,0.9599,-0.44,0.79,-1.85,-10.0,-1797.2,-488.1
9.562,-0.0753,-0.4091,0.9599,-0.44,0.79,-1.56,-10.0,-1638.7,-492.0
9.632,-0.0831,-0.4155,0.9599,-0.44,0.79,-1.19,-10.0,-1611.4,-496.4
9.704,-0.0829,-0.3986,0.9599,-0.44,0.79,-2.16,-10.0,-1943.6,-505.1
9.774,-0.0854,-0.4093,0.9599,-0.44,0.79,-1.55,-10.0,-1589.6,-507.5
9.845,-0.0769,-0.4035,0.9599,-0.44,0.79,-1.88,-10.0,-1801.5,-514.3
9.916,-0.0706,-0.4042,0.9599,-0.44,0.79,-1.84,-10.0,-1712.4,-518.5
9.987,-0.0725,-0.3976,0.9598,-0.44,0.79,-2.22,-9.99,-1819.7,-525.4
10.057,-0.0853,-0.4019,0.9598,-0.44,0.79,-1.97,-9.99,-1667.0,-530.0
10.126,-0.0756,-0.3994,0.9598,-0.44,0.79,-2.11,-10.0,-1766.9,-536.0
10.198,-0.0812,-0.3888,0.9599,-0.44,0.79,-2.72,-10.0,-1884.9,-544.0
10.268,-0.0906,-0.4092,0.9598,-0.44,0.79,-1.56,-9.99,-1533.4,-543.3
10.338,-0.0888,-0.4234,0.9598,-0.44,0.79,-0.74,-10.0,-1493.0,-545.7
10.408,-0.0883,-0.4297,0.9598,-0.44,0.79,-0.38,-9.99,-1607.7,-548.9
10.478,-0.0631,-0.4352,0.9598,-0.44,0.79,-0.07,-9.99,-1611.8,-552.4
10.55,-0.0435,-0.4401,0.9598,-0.44,0.79,0.22,-9.99,-1615.2,-556.7
10.62,-0.0533,-0.4391,0.9598,-0.44,0.79,0.16,-9.99,-1700.9,-561.9
10.69,-0.0565,-0.4228,0.9598,-0.44,0.79,-0.78,-9.99,-1922.0,-570.7
10.761,-0.0637,-0.4218,0.9598,-0.44,0.79,-0.83,-9.99,-1721.4,-576.6
10.832,-0.0595,-0.4234,0.9598,-0.44,0.79,-0.74,-9.99,-1684.3,-581.7
10.903,-0.0679,-0.4236,0.9598,-0.44,0.79,-0.73,-9.99,-1704.8,-586.7
10.972,-0.0727,-0.4387,0.9598,-0.44,0.79,0.13,-9.99,-1456.6,-588.2
11.042,-0.0661,-0.4245,0.9598,-0.44,0.79,-0.68,-9.99,-1807.2,-596.3
11.113,-0.0753,-0.4245,0.9598,-0.44,0.79,-0.68,-9.99,-1705.2,-601.1
11.184,-0.0811,-0.4287,0.9598,-0.44,0.79,-0.44,-9.99,-1641.2,-606.2
11.254,-0.0959,-0.4381,0.9598,-0.44,0.79,0.1,-9.99,-1551.1,-608.1
11.324,-0.0938,-0.4317,0.9598,-0.44,0.79,-0.26,-9.99,-1784.9,-615.3
11.395,-0.094,-0.4167,0.9598,-0.44,0.79,-1.12,-9.99,-1911.5,-623.8
11.465,-0.0676,-0.4243,0.9598,-0.44,0.79,-0.69,-9.99,-1596.4,-627.7
11.535,-0.0411,-0.4194,0.9598,-0.44,0.79,-0.97,-9.99,-1781.5,-632.9
11.606,-0.0342,-0.4163,0.9598,-0.44,0.79,-1.15,-9.99,-1761.1,-635.8
11.678,-0.0364,-0.4066,0.9598,-0.44,0.79,-1.71,-9.99,-1857.7,-639.8
11.748,-0.0331,-0.4038,0.9598,-0.44,0.79,-1.87,-9.99,-1773.6,-642.8
11.819,-0.052,-0.4057,0.9598,-0.44,0.79,-1.75,-9.99,-1707.5,-645.1
11.889,-0.066,-0.4104,0.9598,-0.44,0.79,-1.49,-9.99,-1664.3,-646.6
11.959,-0.0605,-0.4083,0.9598,-0.44,0.79,-1.6,-9.99,-1760.9,-649.8
12.03,-0.0579,-0.4237,0.9598,-0.44,0.79,-0.72,-9.99,-1487.1,-650.5
12.101,-0.0586,-0.4254,0.9598,-0.44,0.79,-0.63,-9.99,-1689.9,-652.6
12.171,-0.0648,-0.4296,0.9598,-0.44,0.79,-0.39,-9.99,-1647.6,-654.7
12.242,-0.0814,-0.423,0.9598,-0.44,0.79,-0.76,-9.99,-1804.8,-657.8
12.312,-0.0816,-0.4127,0.9598,-0.44,0.79,-1.35,-9.99,-1866.7,-661.8
12.383,-0.0578,-0.4135,0.9598,-0.44,0.79,-1.31,-9.99,-1719.4,-664.2
12.453,-0.0428,-0.4139,0.9598,-0.44,0.79,-1.28,-9.99,-1723.8,-666.2
12.523,-0.059,-0.4182,0.9598,-0.44,0.79,-1.04,-9.99,-1665.2,-668.3
12.593,-0.0699,-0.4168,0.9598,-0.44,0.79,-1.12,-9.99,-1746.1,-670.8
12.664,-0.0748,-0.4308,0.9598,-0.44,0.79,-0.32,-9.99,-1503.6,-671.6
12.734,-0.0781,-0.4337,0.9598,-0.44,0.79,-0.15,-9.99,-1665.5,-673.8
12.805,-0.0504,-0.4232,0.9598,-0.44,0.79,-0.75,-9.99,-1860.5,-677.2
12.874,-0.039,-0.428,0.9598,-0.44,0.79,-0.48,-9.99,-1646.0,-679.4
12.947,-0.0415,-0.4165,0.9598,-0.44,0.79,-1.14,-9.99,-1877.0,-683.1
13.017,-0.0395,-0.4149,0.9598,-0.44,0.79,-1.23,-9.99,-1753.9,-685.5
13.086,-0.0443,-0.403,0.9598,-0.44,0.79,-1.91,-9.99,-1907.0,-689.1
13.156,-0.072,-0.4093,0.9598,-0.44,0.79,-1.55,-9.99,-1651.1,-691.0
13.225,-0.059,-0.3964,0.9598,-0.44,0.79,-2.29,-9.99,-1927.5,-694.4
13.295,-0.0683,-0.4069,0.9598,-0.44,0.79,-1.69,-9.99,-1595.9,-695.8
13.365,-0.089,-0.4272,0.9598,-0.44,0.79,-0.53,-9.99,-1409.7,-696.2
13.435,-0.0886,-0.4392,0.9598,-0.44,0.79,0.16,-9.99,-1529.8,-696.9
13.505,-0.0818,-0.4295,0.9598,-0.44,0.79,-0.39,-9.99,-1849.0,-700.4
13.575,-0.0719,-0.4418,0.9598,-0.44,0.79,0.31,-9.99,-1520.9,-700.9
13.645,-0.0939,-0.451,0.9598,-0.44,0.79,0.84,-9.99,-1554.3,-702.3
13.714,-0.081,-0.4317,0.9598,-0.44,0.79,-0.26,-9.99,-1899.7,-706.9
13.785,-0.0824,-0.4169,0.9598,-0.44,0.79,-1.11,-9.99,-1924.7,-710.6
13.855,-0.0809,-0.4111,0.9598,-0.44,0.79,-1.45,-9.99,-1820.4,-713.7
13.926,-0.0763,-0.4236,0.9598,-0.44,0.79,-0.73,-9.99,-1543.8,-714.5
13.995,-0.0518,-0.4094,0.9598,-0.44,0.79,-1.54,-9.99,-1892.5,-718.4
14.067,-0.0395,-0.4047,0.9598,-0.44,0.79,-1.81,-9.99,-1813.7,-721.1
14.137,-0.0346,-0.4234,0.9598,-0.44,0.79,-0.74,-9.99,-1463.6,-721.5
14.208,-0.0551,-0.4193,0.9598,-0.44,0.79,-0.97,-9.99,-1789.1,-724.3
14.278,-0.0726,-0.4291,0.9598,-0.44,0.79,-0.41,-9.99,-1580.0,-725.3
14.348,-0.0568,-0.4271,0.9598,-0.44,0.79,-0.53,-9.99,-1753.9,-727.6
14.417,-0.0621,-0.427,0.9598,-0.44,0.79,-0.53,-9.99,-1727.8,-730.1
14.487,-0.086,-0.4596,0.9598,-0.44,0.79,1.33,-9.99,-1376.4,-728.6
14.558,-0.0807,-0.4622,0.9598,-0.44,0.79,1.48,-9.99,-1643.3,-730.5
14.629,-0.0717,-0.4529,0.9598,-0.44,0.79,0.95,-9.99,-1816.4,-733.9
14.699,-0.0833,-0.4428,0.9598,-0.44,0.79,0.37,-9.99,-1839.3,-737.1
14.769,-0.0751,-0.4345,0.9598,-0.44,0.79,-0.1,-9.99,-1825.3,-740.3
14.839,-0.0767,-0.4331,0.9598,-0.44,0.79,-0.19,-9.99,-1735.3,-742.4
14.909,-0.0794,-0.4306,0.9598,-0.44,0.79,-0.33,-9.99,-1752.4,-744.9
14.979,-0.0738,-0.4506,0.9598,-0.44,0.79,0.82,-9.99,-1401.9,-745.0
15.05,-0.0694,-0.4574,0.9598,-0.44,0.79,1.21,-9.99,-1583.8,-746.5
15.12,-0.0552,-0.444,0.9598,-0.44,0.79,0.44,-9.99,-1877.1,-750.1
15.191,-0.0671,-0.4441,0.9598,-0.44,0.79,0.45,-9.99,-1696.9,-752.2
15.261,-0.0836,-0.4331,0.9598,-0.44,0.79,-0.19,-9.99,-1858.9,-755.4
15.332,-0.0866,-0.4428,0.9598,-0.44,0.79,0.37,-9.99,-1556.1,-756.8
15.402,-0.0809,-0.4477,0.9598,-0.44,0.79,0.65,-9.99,-1621.7,-758.2
15.472,-0.0733,-0.4515,0.9598,-0.44,0.79,0.87,-9.99,-1631.7,-759.7
15.542,-0.0656,-0.4422,0.9598,-0.44,0.79,0.34,-9.99,-1824.5,-763.1
15.612,-0.0666,-0.4338,0.9598,-0.44,0.79,-0.15,-9.99,-1823.5,-765.9
15.686,-0.0763,-0.4386,0.9598,-0.44,0.79,0.13,-9.99,-1635.6,-768.0
15.758,-0.092,-0.4424,0.9598,-0.44,0.79,0.35,-9.99,-1644.1,-769.5
15.827,-0.092,-0.443,0.9598,-0.44,0.79,0.38,-9.99,-1687.1,-771.6
15.896,-0.0856,-0.4535,0.9598,-0.44,0.79,0.98,-9.99,-1521.4,-772.5
15.965,-0.0922,-0.4405,0.9598,-0.44,0.79,0.24,-9.99,-1870.3,-776.0
16.033,-0.0683,-0.4285,0.9598,-0.44,0.79,-0.45,-9.99,-1878.7,-779.1
16.099,-0.065,-0.4292,0.9598,-0.44,0.79,-0.41,-9.99,-1702.5,-780.7
16.164,-0.064,-0.4225,0.9598,-0.44,0.79,-0.79,-9.99,-1816.6,-783.7
16.231,-0.0587,-0.4218,0.9598,-0.44,0.79,-0.83,-9.99,-1732.0,-785.6
16.297,-0.0388,-0.4246,0.9598,-0.44,0.79,-0.67,-9.99,-1676.4,-787.2
16.363,-0.0493,-0.4368,0.9598,-0.44,0.79,0.03,-9.99,-1510.7,-788.3
16.43,-0.0409,-0.4521,0.9598,-0.44,0.79,0.91,-9.99,-1434.1,-788.2
16.496,-0.0405,-0.4335,0.9598,-0.44,0.79,-0.16,-9.99,-1765.9,-792.1
16.562,-0.035,-0.438,0.9598,-0.44,0.79,0.1,-9.99,-1631.9,-793.7
16.629,-0.0387,-0.4349,0.9598,-0.44,0.79,-0.08,-9.99,-1749.8,-795.7
16.695,-0.0543,-0.443,0.9598,-0.44,0.79,0.38,-9.99,-1568.0,-796.9
16.762,-0.0633,-0.4321,0.9598,-0.44,0.79,-0.24,-9.99,-1860.8,-800.1
16.828,-0.0678,-0.4494,0.9598,-0.44,0.79,0.75,-9.99,-1529.6,-800.3
16.895,-0.0534,-0.4452,0.9598,-0.44,0.79,0.51,-9.99,-1753.1,-802.7
16.961,-0.0486,-0.4182,0.9598,-0.44,0.79,-1.04,-9.99,-2000.0,-807.2
17.027,-0.0631,-0.4213,0.9598,-0.44,0.79,-0.86,-9.99,-1750.7,-808.8
17.094,-0.0579,-0.4185,0.9598,-0.44,0.79,-1.02,-9.99,-1764.2,-810.8
17.161,-0.0412,-0.425,0.9598,-0.44,0.79,-0.65,-9.99,-1618.9,-812.0
17.227,-0.0447,-0.4433,0.9598,-0.44,0.79,0.4,-9.99,-1391.6,-812.3
17.293,-0.0385,-0.4376,0.9598,-0.44,0.79,0.08,-9.99,-1722.9,-814.5
17.36,-0.04,-0.438,0.9598,-0.44,0.79,0.09,-9.99,-1694.7,-816.6
17.426,-0.0489,-0.4833,0.9598,-0.44,0.79,2.69,-9.99,-1362.4,-813.7
17.493,-0.0456,-0.5116,0.9598,-0.44,0.79,4.31,-9.99,-1061.0,-812.4
17.561,-0.0514,-0.4893,0.9598,-0.44,0.79,3.04,-9.99,-1402.1,-816.7
17.627,-0.041,-0.484,0.9598,-0.44,0.79,2.73,-9.99,-1711.7,-819.5
17.695,-0.0525,-0.4841,0.9598,-0.44,0.79,2.74,-9.99,-1628.5,-821.1
17.761,-0.0562,-0.4629,0.9598,-0.44,0.79,1.52,-9.99,-1952.1,-824.9
17.827,-0.0676,-0.4423,0.9598,-0.44,0.79,0.34,-9.99,-1967.1,-828.9
17.894,-0.0668,-0.4396,0.9598,-0.44,0.79,0.19,-9.99,-1723.8,-831.1
17.961,-0.0484,-0.4428,0.9598,-0.44,0.79,0.37,-9.99,-1631.5,-832.6
18.028,-0.032,-0.4416,0.9598,-0.44,0.79,0.3,-9.99,-1697.3,-834.7
18.095,-0.041,-0.427,0.9598,-0.44,0.79,-0.54,-9.99,-1904.4,-838.0
18.161,-0.0515,-0.4063,0.9598,-0.44,0.79,-1.72,-9.99,-2000.0,-841.7
18.228,-0.0561,-0.4339,0.9598,-0.44,0.79,-0.14,-9.99,-1671.3,-840.9
18.294,-0.0658,-0.431,0.9598,-0.44,0.79,-0.3,-9.99,-1737.1,-843.3
18.36,-0.078,-0.4242,0.9598,-0.44,0.79,-0.7,-9.99,-1802.4,-845.3
18.426,-0.0749,-0.4448,0.9598,-0.44,0.79,0.48,-9.99,-1472.1,-845.6
18.492,-0.091,-0.4307,0.9598,-0.44,0.79,-0.32,-9.99,-1803.3,-848.5
18.559,-0.0808,-0.4209,0.9598,-0.44,0.79,-0.88,-9.99,-1847.6,-851.0
18.625,-0.0769,-0.4168,0.9598,-0.44,0.79,-1.12,-9.99,-1772.3,-853.4
18.691,-0.062,-0.4198,0.9598,-0.44,0.79,-0.95,-9.99,-1665.1,-854.7
18.757,-0.0792,-0.4704,0.9598,-0.44,0.79,1.95,-9.99,-1334.5,-851.9
18.823,-0.0656,-0.4375,0.9598,-0.44,0.79,0.07,-9.99,-1664.6,-856.6
18.889,-0.0658,-0.4391,0.9598,-0.44,0.79,0.16,-9.99,-1659.4,-858.5
18.955,-0.0603,-0.4518,0.9598,-0.44,0.79,0.89,-9.99,-1461.2,-858.9
19.021,-0.0654,-0.4522,0.9598,-0.44,0.79,0.91,-9.99,-1659.3,-860.7
19.087,-0.0572,-0.4409,0.9598,-0.44,0.79,0.26,-9.99,-1844.0,-863.4
19.154,-0.0436,-0.464,0.9598,-0.44,0.79,1.58,-9.99,-1510.7,-863.1
19.22,-0.0523,-0.4414,0.9598,-0.44,0.79,0.29,-9.99,-1842.4,-866.9
19.286,-0.0618,-0.4672,0.9598,-0.44,0.79,1.77,-9.99,-1512.2,-866.3
19.352,-0.0569,-0.439,0.9598,-0.44,0.79,0.15,-9.99,-1842.3,-870.8
19.419,-0.047,-0.4386,0.9598,-0.44,0.79,0.13,-9.99,-1685.0,-873.0
19.485,-0.0669,-0.469,0.9598,-0.44,0.79,1.87,-9.99,-1354.4,-871.3
19.551,-0.069,-0.4821,0.9598,-0.44,0.79,2.62,-9.99,-1401.0,-871.6
19.617,-0.0701,-0.4802,0.9598,-0.44,0.79,2.51,-9.99,-1649.9,-873.8
19.684,-0.0369,-0.4468,0.9598,-0.44,0.79,0.6,-9.99,-1981.1,-878.8
19.75,-0.018,-0.4377,0.9598,-0.44,0.79,0.08,-9.99,-1805.9,-881.4
19.816,-0.0204,-0.4654,0.9598,-0.44,0.79,1.66,-9.99,-1474.4,-880.2
19.882,-0.0364,-0.4393,0.9598,-0.44,0.79,0.17,-9.99,-1805.0,-884.4
19.948,-0.0474,-0.4332,0.9598,-0.44,0.79,-0.18,-9.99,-1767.6,-886.7
20.014,-0.0503,-0.469,0.9598,-0.44,0.79,1.87,-9.99,-1435.3,-885.3
20.08,-0.0794,-0.4579,0.9598,-0.44,0.79,1.23,-9.99,-1765.5,-888.0
20.146,-0.0465,-0.4588,0.9598,-0.44,0.79,1.28,-9.99,-1627.0,-889.4
20.212,-0.0435,-0.4556,0.9598,-0.44,0.79,1.1,-9.99,-1692.5,-891.6
20.278,-0.0408,-0.4606,0.9598,-0.44,0.79,1.39,-9.99,-1556.8,-892.7
20.344,-0.0376,-0.458,0.9598,-0.44,0.79,1.24,-9.99,-1678.4,-894.8
20.41,-0.0323,-0.4331,0.9598,-0.44,0.79,-0.18,-9.99,-2000.0,-898.9
20.477,-0.0499,-0.442,0.9598,-0.44,0.79,0.32,-9.99,-1677.3,-899.4
20.543,-0.0606,-0.4452,0.9598,-0.44,0.79,0.51,-9.99,-1603.5,-900.8
20.609,-0.0614,-0.4597,0.9598,-0.44,0.79,1.34,-9.99,-1391.8,-901.2
20.675,-0.0568,-0.4508,0.9598,-0.44,0.79,0.83,-9.99,-1722.8,-903.9
20.742,-0.0493,-0.4406,0.9598,-0.44,0.79,0.25,-9.99,-1806.2,-906.6
20.812,-0.032,-0.4454,0.9598,-0.44,0.79,0.52,-9.99,-1580.0,-907.8
20.883,-0.0411,-0.4481,0.9598,-0.44,0.79,0.68,-9.99,-1607.2,-909.4
20.953,-0.0478,-0.4448,0.9598,-0.44,0.79,0.49,-9.99,-1697.3,-911.4
21.023,-0.0659,-0.4026,0.9598,-0.44,0.79,-1.94,-9.99,-2000.0,-917.1
21.094,-0.0578,-0.3796,0.9598,-0.44,0.79,-3.25,-9.99,-2000.0,-920.5
21.165,-0.0723,-0.3608,0.9598,-0.44,0.79,-4.33,-9.99,-1996.5,-923.6
21.235,-0.0658,-0.3772,0.9598,-0.44,0.79,-3.39,-9.99,-1648.0,-924.3
21.305,-0.0924,-0.3936,0.9598,-0.44,0.79,-2.45,-9.99,-1479.7,-924.7
21.375,-0.0944,-0.4008,0.9598,-0.44,0.79,-2.04,-9.99,-1614.3,-925.8
21.446,-0.0796,-0.4108,0.9598,-0.44,0.79,-1.46,-9.99,-1559.6,-926.8
21.516,-0.055,-0.4433,0.9598,-0.44,0.79,0.4,-9.99,-1208.7,-925.7
21.586,-0.0606,-0.4545,0.9598,-0.44,0.79,1.04,-9.99,-1477.8,-926.5
21.656,-0.0675,-0.4599,0.9598,-0.44,0.79,1.35,-9.99,-1561.0,-927.8
21.726,-0.0547,-0.4495,0.9598,-0.44,0.79,0.75,-9.99,-1798.5,-930.5
21.797,-0.0624,-0.4464,0.9598,-0.44,0.79,0.58,-9.99,-1701.6,-932.6
21.867,-0.0662,-0.45,0.9598,-0.44,0.79,0.78,-9.99,-1599.0,-934.0
21.937,-0.0525,-0.4297,0.9598,-0.44,0.79,-0.38,-9.99,-1946.1,-937.3
22.008,-0.0357,-0.418,0.9598,-0.44,0.79,-1.05,-9.99,-1850.8,-940.1
22.079,-0.025,-0.4165,0.9598,-0.44,0.79,-1.13,-9.99,-1715.4,-942.0
22.149,-0.0413,-0.4114,0.9598,-0.44,0.79,-1.43,-9.99,-1773.2,-944.2
22.219,-0.0478,-0.4116,0.9598,-0.44,0.79,-1.42,-9.99,-1700.0,-945.9
22.29,-0.0492,-0.4083,0.9598,-0.44,0.79,-1.6,-9.99,-1753.4,-947.9
22.36,-0.0473,-0.4078,0.9598,-0.44,0.79,-1.63,-9.99,-1716.5,-949.5
22.43,-0.043,-0.4058,0.9598,-0.44,0.79,-1.75,-9.99,-1742.3,-951.4
22.5,-0.0475,-0.4005,0.9598,-0.44,0.79,-2.06,-9.99,-1793.1,-953.8
22.571,-0.0547,-0.4031,0.9598,-0.44,0.79,-1.91,-9.99,-1682.5,-955.3
22.641,-0.0364,-0.4008,0.9598,-0.44,0.79,-2.03,-9.99,-1754.3,-956.8
22.712,-0.034,-0.3905,0.9598,-0.44,0.79,-2.62,-9.99,-1873.0,-959.4
22.783,-0.0456,-0.4137,0.9598,-0.44,0.79,-1.3,-9.99,-1517.9,-959.4
22.853,-0.0594,-0.4301,0.9598,-0.44,0.79,-0.36,-9.99,-1440.1,-959.7
22.923,-0.0637,-0.4447,0.9598,-0.44,0.79,0.48,-9.99,-1446.7,-960.1
22.995,-0.0745,-0.4407,0.9598,-0.44,0.79,0.25,-9.99,-1731.2,-962.3
23.067,-0.0712,-0.4386,0.9598,-0.44,0.79,0.13,-9.99,-1706.0,-964.2
23.134,-0.0822,-0.4425,0.9598,-0.44,0.79,0.35,-9.99,-1614.2,-965.4
23.2,-0.0844,-0.4449,0.9598,-0.44,0.79,0.49,-9.99,-1632.0,-966.8
23.266,-0.0721,-0.4435,0.9598,-0.44,0.79,0.41,-9.99,-1691.7,-968.5
23.332,-0.0681,-0.4424,0.9598,-0.44,0.79,0.35,-9.99,-1688.3,-970.3
23.398,-0.0585,-0.443,0.9598,-0.44,0.79,0.38,-9.99,-1660.9,-971.6
23.465,-0.0796,-0.4545,0.9598,-0.44,0.79,1.04,-9.99,-1468.8,-972.2
23.531,-0.0947,-0.457,0.9598,-0.44,0.79,1.18,-9.99,-1613.0,-973.8
23.598,-0.0846,-0.4618,0.9598,-0.44,0.79,1.46,-9.99,-1567.7,-974.8
23.664,-0.0671,-0.4504,0.9598,-0.44,0.79,0.8,-9.99,-1823.6,-977.3
23.731,-0.058,-0.4529,0.9598,-0.44,0.79,0.95,-9.99,-1613.9,-978.7
23.798,-0.0657,-0.4463,0.9598,-0.44,0.79,0.57,-9.99,-1757.3,-980.8
23.864,-0.0721,-0.4467,0.9598,-0.44,0.79,0.59,-9.99,-1653.2,-982.2
23.932,-0.0797,-0.4484,0.9598,-0.44,0.79,0.69,-9.99,-1631.7,-983.9
23.998,-0.0667,-0.441,0.9598,-0.44,0.79,0.27,-9.99,-1775.2,-985.7
24.065,-0.0556,-0.4412,0.9598,-0.44,0.79,0.28,-9.99,-1661.0,-987.5
24.132,-0.0359,-0.4362,0.9598,-0.44,0.79,-0.01,-9.99,-1745.4,-989.6
24.198,-0.0495,-0.4388,0.9598,-0.44,0.79,0.14,-9.99,-1627.4,-990.8
24.264,-0.0664,-0.4423,0.9598,-0.44,0.79,0.34,-9.99,-1607.4,-991.9
24.331,-0.0644,-0.4393,0.9598,-0.44,0.79,0.17,-9.99,-1712.1,-993.8
24.397,-0.0594,-0.4367,0.9598,-0.44,0.79,0.02,-9.99,-1708.5,-995.6
24.463,-0.053,-0.4389,0.9598,-0.44,0.79,0.15,-9.99,-1632.4,-997.0
24.53,-0.0566,-0.4451,0.9598,-0.44,0.79,0.5,-9.99,-1560.1,-998.0
24.596,-0.0631,-0.4451,0.9598,-0.44,0.79,0.5,-9.99,-1657.4,-999.6
24.662,-0.0626,-0.4413,0.9598,-0.44,0.79,0.28,-9.99,-1718.5,-1001.2
24.728,-0.0592,-0.4317,0.9598,-0.44,0.79,-0.26,-9.99,-1813.1,-1003.3
24.794,-0.0668,-0.4272,0.9598,-0.44,0.79,-0.53,-9.99,-1747.6,-1005.4
24.86,-0.0529,-0.4306,0.9598,-0.44,0.79,-0.33,-9.99,-1622.9,-1006.7
24.927,-0.0435,-0.4203,0.9598,-0.44,0.79,-0.92,-9.99,-1835.4,-1009.2
24.993,-0.0578,-0.4285,0.9598,-0.44,0.79,-0.45,-9.99,-1549.9,-1009.9
25.059,-0.0653,-0.4306,0.9598,-0.44,0.79,-0.33,-9.99,-1644.4,-1011.5
25.125,-0.0494,-0.4246,0.9598,-0.44,0.79,-0.67,-9.99,-1772.2,-1013.2
25.192,-0.0562,-0.4237,0.9598,-0.44,0.79,-0.72,-9.99,-1698.1,-1014.9
25.258,-0.0736,-0.423,0.9598,-0.44,0.79,-0.77,-9.99,-1697.6,-1016.3
25.324,-0.059,-0.4289,0.9598,-0.44,0.79,-0.43,-9.99,-1586.5,-1017.4
25.39,-0.042,-0.4137,0.9598,-0.44,0.79,-1.3,-9.99,-1913.5,-1019.9
25.457,-0.0355,-0.4043,0.9598,-0.44,0.79,-1.84,-9.99,-1845.6,-1022.4
25.523,-0.0514,-0.4016,0.9598,-0.44,0.79,-1.99,-9.99,-1756.2,-1024.2
25.589,-0.0611,-0.4067,0.9598,-0.44,0.79,-1.7,-9.99,-1631.9,-1025.0
25.656,-0.0559,-0.4061,0.9598,-0.44,0.79,-1.73,-9.99,-1722.2,-1026.9
25.722,-0.0695,-0.4173,0.9598,-0.44,0.79,-1.09,-9.99,-1524.3,-1027.1
25.791,-0.086,-0.4267,0.9598,-0.44,0.79,-0.55,-9.99,-1545.3,-1028.2
25.858,-0.074,-0.4269,0.9598,-0.44,0.79,-0.54,-9.99,-1685.6,-1029.6
25.924,-0.0717,-0.4344,0.9598,-0.44,0.79,-0.11,-9.99,-1560.6,-1030.5
25.991,-0.0616,-0.4312,0.9598,-0.44,0.79,-0.29,-9.99,-1729.3,-1032.4
26.058,-0.0668,-0.4461,0.9598,-0.44,0.79,0.56,-9.99,-1418.2,-1032.6
26.124,-0.081,-0.4608,0.9598,-0.44,0.79,1.4,-9.99,-1399.1,-1032.8
26.19,-0.086,-0.4672,0.9598,-0.44,0.79,1.77,-9.99,-1530.5,-1034.0
26.257,-0.0772,-0.4531,0.9598,-0.44,0.79,0.96,-9.99,-1852.1,-1036.3
26.323,-0.0679,-0.4535,0.9598,-0.44,0.79,0.98,-9.99,-1643.4,-1038.0
26.39,-0.0692,-0.4345,0.9598,-0.44,0.79,-0.11,-9.99,-1940.3,-1041.0
26.456,-0.0766,-0.4295,0.9598,-0.44,0.79,-0.39,-9.99,-1752.7,-1042.7
26.522,-0.0748,-0.4346,0.9598,-0.44,0.79,-0.1,-9.99,-1594.5,-1043.8
26.589,-0.0583,-0.4225,0.9598,-0.44,0.79,-0.79,-9.99,-1861.2,-1046.2
26.655,-0.0518,-0.4187,0.9598,-0.44,0.79,-1.01,-9.99,-1749.3,-1047.8
26.722,-0.0554,-0.4239,0.9598,-0.44,0.79,-0.71,-9.99,-1609.9,-1049.1
26.788,-0.0548,-0.4163,0.9598,-0.44,0.79,-1.15,-9.99,-1807.8,-1051.0
26.854,-0.0453,-0.4067,0.9598,-0.44,0.79,-1.7,-9.99,-1848.0,-1053.4
26.921,-0.0628,-0.4184,0.9598,-0.44,0.79,-1.03,-9.99,-1513.6,-1053.6
26.987,-0.0686,-0.4273,0.9598,-0.44,0.79,-0.52,-9.99,-1546.6,-1054.8
27.053,-0.0613,-0.4221,0.9598,-0.44,0.79,-0.81,-9.99,-1768.9,-1056.5
27.12,-0.0707,-0.4256,0.9598,-0.44,0.79,-0.62,-9.99,-1636.6,-1057.8
27.186,-0.0821,-0.4262,0.9598,-0.44,0.79,-0.58,-9.99,-1678.0,-1059.0
27.252,-0.0579,-0.4274,0.9697,-0.44,0.79,-0.51,-10.56,-1668.4,-1150.1
27.321,-0.0591,-0.4113,0.9735,-0.44,0.79,-1.43,-10.78,-1926.1,-1115.4
27.387,-0.0612,-0.4113,0.9749,-0.44,0.79,-1.43,-10.86,-1707.1,-1103.1
27.453,-0.0685,-0.4188,0.9754,-0.44,0.79,-1.0,-10.89,-1583.2,-1098.2
27.52,-0.0544,-0.4315,0.9756,-0.44,0.79,-0.28,-10.9,-1480.2,-1096.6
27.586,-0.0435,-0.4238,0.9757,-0.44,0.79,-0.72,-10.9,-1804.7,-1097.8
27.652,-0.0557,-0.4204,0.9757,-0.44,0.79,-0.91,-10.9,-1747.9,-1099.2
27.719,-0.0672,-0.4247,0.9757,-0.44,0.79,-0.66,-10.9,-1625.6,-1100.3
27.785,-0.0521,-0.4205,0.9756,-0.44,0.79,-0.91,-10.9,-1760.2,-1101.9
27.851,-0.0393,-0.4202,0.9756,-0.44,0.79,-0.93,-10.9,-1704.0,-1103.6
27.918,-0.0253,-0.4171,0.9756,-0.44,0.79,-1.1,-10.9,-1747.0,-1105.4
27.987,-0.0371,-0.4198,0.9756,-0.44,0.79,-0.95,-10.9,-1662.1,-1106.8
28.054,-0.0421,-0.4176,0.9756,-0.44,0.79,-1.07,-10.9,-1736.6,-1108.2
28.125,-0.052,-0.4264,0.9755,-0.44,0.79,-0.57,-10.89,-1564.6,-1109.2
28.196,-0.0526,-0.4192,0.9755,-0.44,0.79,-0.98,-10.89,-1800.9,-1111.4
28.265,-0.0319,-0.4154,0.9655,-0.44,0.79,-1.2,-10.32,-1760.3,-1022.3
28.335,-0.0372,-0.4211,0.9518,-0.44,0.79,-0.88,-9.53,-1621.7,-968.1
28.405,-0.0537,-0.4248,0.9266,-0.44,0.79,-0.66,-8.09,-1645.7,-816.3
28.475,-0.0369,-0.428,0.8872,-0.44,0.79,-0.48,-5.84,-1652.5,-467.3
28.544,-0.0322,-0.4251,0.8524,-0.44,0.79,-0.64,-3.84,-1743.5,-355.6
28.616,-0.0321,-0.4163,0.8094,-0.44,0.79,-1.15,-1.37,-1832.1,1.8
28.686,-0.016,-0.4204,0.7633,-0.44,0.79,-0.91,1.26,-1653.7,354.7
28.756,-0.0228,-0.4295,0.7163,-0.44,0.79,-0.39,3.96,-1563.4,700.7
28.827,-0.0415,-0.4487,0.6687,-0.44,0.79,0.71,6.69,-1377.3,824.2
28.898,-0.0423,-0.4418,0.6311,-0.44,0.79,0.31,8.84,-1730.8,831.2
28.967,-0.0549,-0.4355,0.5874,-0.44,0.79,-0.05,11.34,-1771.2,984.0
29.038,-0.0674,-0.4364,0.5512,-0.44,0.79,0.0,13.42,-1668.0,996.7
29.109,-0.0643,-0.4286,0.518,-0.44,0.79,-0.44,15.32,-1792.9,1041.4
29.177,-0.0704,-0.4085,0.4862,-0.44,0.79,-1.6,17.14,-1975.4,1101.2
29.247,-0.0973,-0.4122,0.4646,-0.44,0.79,-1.38,18.38,-1647.6,1066.9
29.317,-0.081,-0.4136,0.4368,-0.44,0.79,-1.3,19.97,-1677.7,1155.9
29.388,-0.0727,-0.4116,0.4168,-0.44,0.79,-1.42,21.12,-1725.0,1140.3
29.458,-0.065,-0.3956,0.3999,-0.44,0.79,-2.33,22.09,-1926.2,1154.6
29.529,-0.0858,-0.4098,0.384,-0.44,0.79,-1.52,23.0,-1573.5,1173.3
29.599,-0.0834,-0.4156,0.3685,-0.44,0.79,-1.19,23.89,-1602.2,1196.6
29.669,-0.087,-0.4095,0.3631,-0.44,0.79,-1.54,24.19,-1776.8,1143.5
29.74,-0.0886,-0.3946,0.3516,-0.44,0.79,-2.39,24.86,-1906.1,1207.7
29.81,-0.0778,-0.3847,0.3477,-0.44,0.79,-2.96,25.08,-1853.9,1169.1
29.88,-0.0573,-0.37,0.3467,-0.44,0.79,-3.8,25.14,-1932.5,1157.1
29.951,-0.0676,-0.3765,0.3467,-0.44,0.79,-3.43,25.13,-1642.9,1152.8
30.021,-0.0551,-0.3575,0.3471,-0.44,0.79,-4.51,25.11,-1993.9,1155.7
30.091,-0.0682,-0.3402,0.3477,-0.44,0.79,-5.51,25.08,-2000.0,1159.8
30.161,-0.0805,-0.3469,0.3483,-0.44,0.79,-5.13,25.04,-1684.1,1161.1
30.231,-0.0527,-0.3433,0.3488,-0.44,0.79,-5.33,25.02,-1829.7,1164.8
30.301,-0.072,-0.341,0.3493,-0.44,0.79,-5.46,24.99,-1820.1,1167.8
30.371,-0.0439,-0.3448,0.3498,-0.44,0.79,-5.24,24.96,-1734.6,1170.2
30.442,-0.0484,-0.3358,0.3502,-0.44,0.79,-5.76,24.93,-1915.7,1174.3
30.513,-0.0661,-0.3443,0.3506,-0.44,0.79,-5.27,24.91,-1676.3,1176.2
30.583,-0.0815,-0.368,0.351,-0.44,0.79,-3.92,24.89,-1412.3,1175.7
30.655,-0.0657,-0.3757,0.3514,-0.44,0.79,-3.47,24.87,-1653.9,1178.2
30.725,-0.0544,-0.3774,0.3518,-0.44,0.79,-3.37,24.85,-1736.0,1180.2
30.795,-0.0502,-0.3886,0.3521,-0.44,0.79,-2.73,24.83,-1585.2,1181.7
30.865,-0.0766,-0.3873,0.3524,-0.44,0.79,-2.81,24.81,-1767.7,1185.0
30.935,-0.0848,-0.3861,0.3527,-0.44,0.79,-2.88,24.79,-1767.8,1188.5
31.006,-0.0977,-0.3613,0.3529,-0.44,0.79,-4.3,24.78,-2000.0,1194.9
31.076,-0.0946,-0.3558,0.3532,-0.44,0.79,-4.62,24.77,-1863.6,1198.6
31.147,-0.0643,-0.3489,0.3534,-0.44,0.79,-5.01,24.75,-1889.7,1203.0
31.218,-0.0924,-0.3761,0.3535,-0.44,0.79,-3.45,24.74,-1535.9,1202.3
31.287,-0.0626,-0.3703,0.3637,-0.44,0.79,-3.79,24.16,-1858.6,1123.0
31.358,-0.0732,-0.3607,0.3677,-0.44,0.79,-4.33,23.93,-1917.7,1164.2
31.429,-0.0907,-0.3746,0.3693,-0.44,0.79,-3.54,23.84,-1584.6,1178.9
31.498,-0.0665,-0.3917,0.3799,-0.44,0.79,-2.56,23.23,-1511.3,1100.4
31.569,-0.0527,-0.3936,0.384,-0.44,0.79,-2.45,23.0,-1737.4,1142.4
31.639,-0.0355,-0.4118,0.3857,-0.44,0.79,-1.41,22.9,-1469.8,1156.9
31.709,-0.0334,-0.4145,0.3863,-0.44,0.79,-1.25,22.87,-1699.4,1165.2
31.779,-0.0318,-0.3936,0.3965,-0.44,0.79,-2.45,22.28,-2000.0,1088.7
31.849,-0.0286,-0.4087,0.4004,-0.44,0.79,-1.58,22.06,-1676.4,1127.6
31.92,-0.0438,-0.4095,0.4019,-0.44,0.79,-1.54,21.97,-1737.2,1144.3
31.99,-0.0508,-0.4084,0.4124,-0.44,0.79,-1.6,21.37,-1765.5,1066.9
32.061,-0.0429,-0.4092,0.4164,-0.44,0.79,-1.55,21.14,-1739.1,1109.8
32.131,-0.0319,-0.4056,0.4179,-0.44,0.79,-1.76,21.06,-1804.4,1127.5
32.201,-0.0653,-0.4299,0.4284,-0.44,0.79,-0.37,20.45,-1454.8,1045.7
32.272,-0.0788,-0.4674,0.4324,-0.44,0.79,1.78,20.23,-1102.3,1083.7
32.342,-0.0867,-0.4646,0.4438,-0.44,0.79,1.62,19.57,-1454.3,1013.6
32.412,-0.0854,-0.4564,0.4481,-0.44,0.79,1.15,19.32,-1803.2,1060.7
32.481,-0.0793,-0.4455,0.4497,-0.44,0.79,0.52,19.23,-1852.4,1081.4
32.552,-0.0813,-0.4434,0.4503,-0.44,0.79,0.41,19.2,-1734.5,1090.8
32.622,-0.078,-0.4421,0.4604,-0.44,0.79,0.33,18.62,-1726.8,1007.3
32.694,-0.0847,-0.4461,0.4642,-0.44,0.79,0.56,18.4,-1646.4,1049.5
32.765,-0.0927,-0.4476,0.4656,-0.44,0.79,0.65,18.32,-1678.5,1066.4
32.836,-0.098,-0.4523,0.476,-0.44,0.79,0.92,17.73,-1625.4,983.1
32.905,-0.0733,-0.4738,0.4798,-0.44,0.79,2.15,17.51,-1316.9,1024.4
32.977,-0.078,-0.4838,0.4812,-0.44,0.79,2.72,17.43,-1501.4,1041.1
33.048,-0.0663,-0.4674,0.4817,-0.44,0.79,1.78,17.4,-1857.2,1051.8
33.116,-0.0476,-0.4611,0.4917,-0.44,0.79,1.42,16.83,-1766.5,963.6
33.186,-0.0501,-0.4344,0.4955,-0.44,0.79,-0.11,16.61,-2000.0,1011.4
33.255,-0.0484,-0.4283,0.4968,-0.44,0.79,-0.46,16.53,-1800.0,1030.2
33.325,-0.0587,-0.4244,0.4973,-0.44,0.79,-0.69,16.51,-1774.7,1039.4
33.396,-0.0714,-0.4076,0.4974,-0.44,0.79,-1.65,16.5,-1958.5,1046.1
33.467,-0.0783,-0.4137,0.5073,-0.44,0.79,-1.3,15.93,-1650.3,954.6
33.537,-0.0788,-0.4161,0.511,-0.44,0.79,-1.16,15.72,-1700.7,997.8
33.607,-0.0579,-0.3951,0.5123,-0.44,0.79,-2.36,15.65,-2000.0,1018.0
33.677,-0.0579,-0.4191,0.5127,-0.44,0.79,-0.99,15.62,-1678.3,1023.8
33.747,-0.0592,-0.4204,0.5128,-0.44,0.79,-0.91,15.62,-1712.2,1028.5
33.817,-0.0427,-0.4012,0.5227,-0.44,0.79,-2.01,15.05,-2000.0,936.5
33.887,-0.0302,-0.3945,0.5264,-0.44,0.79,-2.4,14.84,-1854.5,982.1
33.958,-0.036,-0.3917,0.5277,-0.44,0.79,-2.56,14.76,-1807.0,1001.1
34.027,-0.0528,-0.4027,0.5282,-0.44,0.79,-1.93,14.74,-1599.5,1008.0
34.097,-0.0466,-0.3747,0.5283,-0.44,0.79,-3.53,14.73,-1951.2,1015.9
34.168,-0.0471,-0.3573,0.5282,-0.44,0.79,-4.53,14.73,-2000.0,1020.7
34.238,-0.0529,-0.3791,0.5381,-0.44,0.79,-3.28,14.17,-1682.5,921.7
34.308,-0.0593,-0.3889,0.5418,-0.44,0.79,-2.72,13.96,-1647.4,967.1
34.379,-0.0582,-0.3987,0.5431,-0.44,0.79,-2.15,13.88,-1637.3,984.1
34.449,-0.0733,-0.4085,0.5435,-0.44,0.79,-1.59,13.86,-1624.1,991.5
34.518,-0.0807,-0.4308,0.5436,-0.44,0.79,-0.32,13.85,-1393.3,993.9
34.589,-0.0872,-0.4485,0.5436,-0.44,0.79,0.7,13.85,-1448.4,994.9
34.659,-0.0802,-0.4408,0.5435,-0.44,0.79,0.26,13.86,-1799.2,998.6
34.729,-0.0729,-0.4125,0.5434,-0.44,0.79,-1.37,13.86,-2000.0,1004.3
34.798,-0.0627,-0.4252,0.5434,-0.44,0.79,-0.64,13.87,-1764.4,1005.1
34.868,-0.0601,-0.4204,0.5433,-0.44,0.79,-0.91,13.87,-1813.7,1008.0
34.938,-0.0487,-0.4263,0.5432,-0.44,0.79,-0.57,13.88,-1657.3,1009.6
35.007,-0.0505,-0.4186,0.5431,-0.44,0.79,-1.02,13.88,-1856.0,1013.1
35.078,-0.0383,-0.4044,0.5431,-0.44,0.79,-1.83,13.88,-1950.5,1016.6
35.147,-0.0382,-0.4008,0.543,-0.44,0.79,-2.04,13.89,-1823.2,1019.5
35.217,-0.0373,-0.4001,0.5429,-0.44,0.79,-2.08,13.89,-1785.4,1021.9
35.287,-0.0235,-0.3816,0.5528,-0.44,0.79,-3.14,13.33,-2000.0,926.6
35.357,-0.0427,-0.3865,0.5565,-0.44,0.79,-2.85,13.11,-1730.0,971.5
35.428,-0.0568,-0.4008,0.5579,-0.44,0.79,-2.04,13.03,-1580.2,987.8
35.499,-0.0712,-0.4045,0.5584,-0.44,0.79,-1.82,13.01,-1727.7,995.8
35.57,-0.0517,-0.4074,0.5586,-0.44,0.79,-1.66,13.0,-1737.5,999.7
35.639,-0.0773,-0.4241,0.5585,-0.44,0.79,-0.7,13.0,-1508.4,1001.6
35.709,-0.0934,-0.4414,0.5585,-0.44,0.79,0.29,13.0,-1474.9,1002.0
35.779,-0.0986,-0.4371,0.5584,-0.44,0.79,0.04,13.0,-1799.3,1005.0
35.85,-0.0913,-0.431,0.5584,-0.44,0.79,-0.31,13.01,-1828.2,1007.7
35.919,-0.0821,-0.4169,0.5583,-0.44,0.79,-1.11,13.01,-1946.9,1011.1
35.99,-0.0867,-0.4174,0.5583,-0.44,0.79,-1.09,13.01,-1757.3,1013.3
36.059,-0.0931,-0.425,0.5582,-0.44,0.79,-0.65,13.02,-1647.7,1015.0
36.13,-0.0951,-0.4182,0.5582,-0.44,0.79,-1.04,13.02,-1853.2,1017.6
36.2,-0.0836,-0.4181,0.5581,-0.44,0.79,-1.04,13.02,-1765.0,1019.9
36.27,-0.0807,-0.406,0.5581,-0.44,0.79,-1.74,13.02,-1935.4,1023.0
36.34,-0.0666,-0.402,0.5581,-0.44,0.79,-1.97,13.03,-1838.9,1025.4
36.41,-0.0754,-0.4117,0.558,-0.44,0.79,-1.41,13.03,-1637.0,1026.7
36.48,-0.0488,-0.4014,0.558,-0.44,0.79,-2.0,13.03,-1921.4,1029.8
36.551,-0.0517,-0.3621,0.558,-0.44,0.79,-4.26,13.03,-2000.0,1035.3
36.621,-0.0615,-0.3622,0.5579,-0.44,0.79,-4.25,13.03,-1923.1,1037.7
36.691,-0.0805,-0.3938,0.5579,-0.44,0.79,-2.44,13.03,-1573.7,1036.7
36.762,-0.0834,-0.3902,0.5579,-0.44,0.79,-2.64,13.04,-1855.0,1039.3
36.832,-0.0917,-0.4106,0.5579,-0.44,0.79,-1.48,13.03,-1505.0,1039.1
36.902,-0.0747,-0.403,0.5678,-0.44,0.79,-1.91,12.47,-1856.1,945.4
36.972,-0.0822,-0.409,0.5716,-0.44,0.79,-1.56,12.25,-1708.9,988.6
37.042,-0.0825,-0.4231,0.573,-0.44,0.79,-0.76,12.17,-1571.9,1004.7
37.113,-0.0762,-0.4421,0.5735,-0.44,0.79,0.33,12.14,-1471.9,1010.6
37.184,-0.0648,-0.4207,0.5736,-0.44,0.79,-0.89,12.13,-1828.0,1016.7
37.253,-0.069,-0.4333,0.5736,-0.44,0.79,-0.17,12.13,-1579.3,1018.7
37.324,-0.0853,-0.4469,0.5736,-0.44,0.79,0.6,12.13,-1550.6,1019.4
37.394,-0.0891,-0.4511,0.5736,-0.44,0.79,0.85,12.14,-1680.4,1021.2
37.464,-0.0851,-0.4168,0.5736,-0.44,0.79,-1.12,12.14,-2000.0,1026.5
37.534,-0.0958,-0.4079,0.5735,-0.44,0.79,-1.63,12.14,-1908.0,1029.4
37.604,-0.0909,-0.4137,0.5735,-0.44,0.79,-1.3,12.14,-1705.9,1030.4
37.674,-0.0922,-0.4286,0.5735,-0.44,0.79,-0.44,12.14,-1553.9,1031.0
37.745,-0.1051,-0.4361,0.5735,-0.44,0.79,-0.01,12.14,-1654.8,1032.3
37.816,-0.1097,-0.4472,0.5735,-0.44,0.79,0.62,12.14,-1587.3,1033.3
37.886,-0.1097,-0.4445,0.5734,-0.44,0.79,0.47,12.15,-1784.5,1035.5
37.957,-0.1067,-0.4424,0.5734,-0.44,0.79,0.34,12.15,-1779.3,1037.7
38.029,-0.0937,-0.4339,0.5733,-0.44,0.79,-0.14,12.15,-1868.7,1040.5
38.098,-0.0865,-0.4297,0.5733,-0.44,0.79,-0.38,12.15,-1822.1,1042.8
38.166,-0.0977,-0.4206,0.5733,-0.44,0.79,-0.9,12.15,-1899.9,1045.3
38.237,-0.1022,-0.4316,0.5733,-0.44,0.79,-0.27,12.15,-1608.5,1046.3
38.307,-0.0837,-0.4305,0.5733,-0.44,0.79,-0.34,12.15,-1779.2,1048.4
38.377,-0.0833,-0.4253,0.5732,-0.44,0.79,-0.63,12.16,-1839.2,1050.7
38.448,-0.0729,-0.4444,0.5732,-0.44,0.79,0.46,12.16,-1485.5,1050.8
38.519,-0.0446,-0.4444,0.5732,-0.44,0.79,0.46,12.16,-1747.7,1052.8
38.589,-0.0504,-0.3972,0.5732,-0.44,0.79,-2.24,12.16,-2000.0,1058.9
38.66,-0.0502,-0.3943,0.5732,-0.44,0.79,-2.41,12.16,-1846.1,1061.0
38.73,-0.0677,-0.4142,0.5732,-0.44,0.79,-1.27,12.16,-1496.2,1061.2
38.8,-0.0535,-0.3911,0.5732,-0.44,0.79,-2.59,12.16,-1847.2,1064.9
38.87,-0.0716,-0.4097,0.5831,-0.44,0.79,-1.53,11.59,-1525.6,970.6
38.94,-0.0792,-0.4235,0.5869,-0.44,0.79,-0.74,11.37,-1583.1,1012.2
39.011,-0.0705,-0.4377,0.5883,-0.44,0.79,0.08,11.29,-1557.9,1027.6
39.081,-0.0632,-0.4287,0.5888,-0.44,0.79,-0.44,11.26,-1890.5,1036.1
39.151,-0.058,-0.399,0.589,-0.44,0.79,-2.14,11.25,-2000.0,1042.2
39.221,-0.0757,-0.3923,0.589,-0.44,0.79,-2.52,11.25,-1904.0,1045.4
39.291,-0.0861,-0.3879,0.589,-0.44,0.79,-2.77,11.25,-1881.5,1048.0
39.361,-0.064,-0.3888,0.589,-0.44,0.79,-2.72,11.25,-1813.8,1049.9
39.431,-0.0577,-0.3788,0.5889,-0.44,0.79,-3.3,11.26,-1965.9,1052.4
39.501,-0.0734,-0.397,0.5889,-0.44,0.79,-2.25,11.26,-1616.3,1052.8
39.572,-0.096,-0.4354,0.5989,-0.44,0.79,-0.05,10.69,-1261.7,957.4
39.642,-0.1033,-0.4465,0.6026,-0.44,0.79,0.58,10.47,-1603.9,998.1
39.712,-0.1011,-0.4635,0.604,-0.44,0.79,1.56,10.39,-1485.6,1013.1
39.782,-0.0927,-0.4777,0.6045,-0.44,0.79,2.37,10.36,-1511.2,1019.2
39.852,-0.0762,-0.4557,0.6047,-0.44,0.79,1.11,10.35,-1862.8,1024.9
39.922,-0.0805,-0.4411,0.6047,-0.44,0.79,0.28,10.35,-1951.2,1028.6
39.992,-0.0849,-0.4485,0.6047,-0.44,0.79,0.7,10.35,-1648.2,1030.1
40.062,-0.0773,-0.4364,0.6047,-0.44,0.79,0.0,10.36,-1926.2,1032.8
40.132,-0.08,-0.4292,0.6146,-0.44,0.79,-0.41,9.79,-1870.9,939.1
40.202,-0.0737,-0.436,0.6183,-0.44,0.79,-0.02,9.57,-1674.7,980.7
40.273,-0.0882,-0.4378,0.6296,-0.44,0.79,0.08,8.92,-1743.1,899.0
40.343,-0.0794,-0.4314,0.6339,-0.44,0.79,-0.28,8.68,-1859.2,948.5
40.415,-0.0834,-0.4344,0.6355,-0.44,0.79,-0.11,8.59,-1731.2,967.9
40.485,-0.0871,-0.447,0.646,-0.44,0.79,0.61,7.99,-1576.7,873.4
40.555,-0.0835,-0.4514,0.6499,-0.44,0.79,0.87,7.77,-1689.5,920.5
40.625,-0.0828,-0.4435,0.6513,-0.44,0.79,0.41,7.68,-1866.0,939.5
40.695,-0.0722,-0.426,0.6518,-0.44,0.79,-0.59,7.66,-2000.0,948.5
40.765,-0.0448,-0.4424,0.6519,-0.44,0.79,0.35,7.65,-1653.4,951.3
40.835,-0.0609,-0.4534,0.6618,-0.44,0.79,0.98,7.08,-1590.3,847.8
40.905,-0.066,-0.4397,0.6655,-0.44,0.79,0.19,6.87,-1940.8,895.5
40.976,-0.0555,-0.4291,0.6669,-0.44,0.79,-0.42,6.79,-1913.6,914.0
41.046,-0.0471,-0.4256,0.6673,-0.44,0.79,-0.61,6.76,-1827.8,921.9
41.116,-0.0488,-0.4382,0.6674,-0.44,0.79,0.11,6.76,-1585.3,925.1
41.186,-0.0431,-0.4562,0.6674,-0.44,0.79,1.14,6.76,-1476.1,926.4
41.255,-0.0361,-0.439,0.6673,-0.44,0.79,0.15,6.77,-1823.6,929.3
41.326,-0.0449,-0.4286,0.6672,-0.44,0.79,-0.44,6.77,-1911.3,931.3
41.395,-0.064,-0.4354,0.6671,-0.44,0.79,-0.05,6.78,-1674.0,932.2
41.466,-0.0693,-0.4225,0.667,-0.44,0.79,-0.79,6.78,-1950.1,934.1
41.536,-0.0693,-0.4429,0.6669,-0.44,0.79,0.38,6.79,-1598.1,934.4
41.606,-0.0728,-0.4467,0.6669,-0.44,0.79,0.59,6.79,-1702.7,935.2
41.677,-0.0788,-0.4676,0.6668,-0.44,0.79,1.79,6.79,-1412.0,935.3
41.747,-0.0598,-0.4818,0.6667,-0.44,0.79,2.6,6.8,-1495.7,935.9
41.817,-0.0534,-0.4809,0.6667,-0.44,0.79,2.55,6.8,-1721.2,937.0
41.888,-0.0582,-0.4795,0.6666,-0.44,0.79,2.48,6.8,-1726.2,938.2
41.959,-0.0693,-0.4539,0.6666,-0.44,0.79,1.01,6.81,-2000.0,941.1
42.029,-0.0463,-0.4288,0.6666,-0.44,0.79,-0.43,6.81,-2000.0,943.9
42.1,-0.0603,-0.4015,0.6665,-0.44,0.79,-2.0,6.81,-2000.0,946.7
42.17,-0.0684,-0.4097,0.6665,-0.44,0.79,-1.53,6.81,-1779.6,947.5
42.241,-0.0607,-0.4154,0.6664,-0.44,0.79,-1.2,6.82,-1710.4,948.4
42.312,-0.0578,-0.407,0.6664,-0.44,0.79,-1.68,6.82,-1906.3,950.4
42.382,-0.0626,-0.4104,0.6663,-0.44,0.79,-1.49,6.82,-1750.1,951.2
42.454,-0.0835,-0.4227,0.6663,-0.44,0.79,-0.78,6.82,-1613.6,951.9
42.525,-0.0718,-0.406,0.6663,-0.44,0.79,-1.74,6.82,-1966.2,953.7
42.595,-0.0666,-0.3856,0.6663,-0.44,0.79,-2.91,6.83,-2000.0,956.0
42.667,-0.087,-0.3955,0.6762,-0.44,0.79,-2.34,6.26,-1719.1,852.1
42.736,-0.079,-0.4136,0.6799,-0.44,0.79,-1.3,6.04,-1535.9,896.2
42.806,-0.0699,-0.4122,0.6813,-0.44,0.79,-1.38,5.96,-1819.3,913.9
42.876,-0.0611,-0.3958,0.6818,-0.44,0.79,-2.32,5.94,-2000.0,922.8
42.946,-0.076,-0.4125,0.682,-0.44,0.79,-1.36,5.93,-1675.7,925.1
43.017,-0.0698,-0.4324,0.682,-0.44,0.79,-0.22,5.92,-1491.9,926.0
43.086,-0.042,-0.3965,0.682,-0.44,0.79,-2.28,5.93,-1837.1,929.5
43.152,-0.0356,-0.3611,0.6819,-0.44,0.79,-4.31,5.93,-2000.0,932.3
43.218,-0.038,-0.3964,0.6819,-0.44,0.79,-2.29,5.93,-1838.2,931.9
43.284,-0.0063,-0.386,0.6819,-0.44,0.79,-2.88,5.93,-1979.7,933.3
43.35,-0.0417,-0.4109,0.6818,-0.44,0.79,-1.46,5.93,-1650.5,933.2
43.416,-0.0378,-0.4276,0.6818,-0.44,0.79,-0.5,5.94,-1539.4,933.4
43.483,-0.0619,-0.4156,0.6818,-0.44,0.79,-1.19,5.94,-1870.7,935.0
43.549,-0.0477,-0.4484,0.6817,-0.44,0.79,0.69,5.94,-1540.6,934.4
43.614,-0.0399,-0.4134,0.6817,-0.44,0.79,-1.32,5.94,-1870.2,937.1
43.68,-0.0336,-0.4267,0.6817,-0.44,0.79,-0.55,5.94,-1595.4,937.5
43.747,-0.015,-0.4307,0.6817,-0.44,0.79,-0.32,5.94,-1736.1,938.1
43.813,-0.0344,-0.4259,0.6817,-0.44,0.79,-0.6,5.94,-1864.7,939.5
43.879,-0.0488,-0.4449,0.6817,-0.44,0.79,0.49,5.94,-1535.5,939.4
43.945,-0.0441,-0.4241,0.6816,-0.44,0.79,-0.7,5.95,-1867.2,941.7
44.011,-0.057,-0.4311,0.6816,-0.44,0.79,-0.3,5.95,-1690.2,942.3
44.077,-0.0776,-0.43,0.6816,-0.44,0.79,-0.36,5.95,-1809.1,943.3
44.144,-0.059,-0.406,0.6816,-0.44,0.79,-1.74,5.95,-2000.0,945.2
44.21,-0.077,-0.4329,0.6816,-0.44,0.79,-0.2,5.95,-1798.0,945.2
44.276,-0.0659,-0.4346,0.6816,-0.44,0.79,-0.1,5.95,-1765.8,946.0
44.342,-0.0819,-0.4523,0.6815,-0.44,0.79,0.92,5.95,-1490.9,946.2
44.409,-0.0993,-0.4412,0.6815,-0.44,0.79,0.28,5.95,-1822.1,947.8
44.475,-0.0841,-0.4362,0.6815,-0.44,0.79,-0.01,5.95,-1856.7,949.2
44.541,-0.0804,-0.4249,0.6815,-0.44,0.79,-0.65,5.95,-1952.8,950.1
44.607,-0.0995,-0.4414,0.6815,-0.44,0.79,0.29,5.96,-1623.5,950.9
44.673,-0.0845,-0.4154,0.6814,-0.44,0.79,-1.2,5.96,-1955.1,952.9
44.739,-0.0839,-0.4127,0.6814,-0.44,0.79,-1.36,5.96,-1853.4,953.9
44.805,-0.0981,-0.443,0.6815,-0.44,0.79,0.38,5.95,-1523.7,953.0
44.871,-0.0948,-0.4319,0.6815,-0.44,0.79,-0.25,5.96,-1854.4,955.1
44.938,-0.0966,-0.4192,0.6815,-0.44,0.79,-0.98,5.96,-1979.4,956.4
45.004,-0.0992,-0.4183,0.6814,-0.44,0.79,-1.03,5.96,-1823.6,957.7
45.07,-0.088,-0.4542,0.6814,-0.44,0.79,1.02,5.96,-1490.3,956.8
45.136,-0.0675,-0.4504,0.6814,-0.44,0.79,0.8,5.96,-1820.6,957.7
45.202,-0.0969,-0.4435,0.6815,-0.44,0.79,0.41,5.95,-1874.7,958.8
45.269,-0.0833,-0.4442,0.6814,-0.44,0.79,0.45,5.96,-1767.9,960.1
45.335,-0.0674,-0.4358,0.6814,-0.44,0.79,-0.03,5.96,-1903.9,961.4
45.401,-0.0666,-0.4434,0.6814,-0.44,0.79,0.4,5.96,-1667.7,962.0
45.467,-0.0425,-0.4422,0.6814,-0.44,0.79,0.33,5.96,-1797.0,963.2
45.533,-0.0503,-0.4672,0.6814,-0.44,0.79,1.77,5.96,-1464.7,962.8
45.599,-0.0393,-0.4665,0.6814,-0.44,0.79,1.73,5.96,-1759.6,963.8
45.665,-0.0304,-0.4478,0.6814,-0.44,0.79,0.66,5.96,-2000.0,965.6
45.731,-0.0388,-0.4477,0.6814,-0.44,0.79,0.65,5.96,-1770.5,966.4
45.797,-0.0297,-0.4489,0.6814,-0.44,0.79,0.72,5.96,-1751.0,967.3
45.863,-0.0545,-0.4519,0.6814,-0.44,0.79,0.89,5.96,-1720.3,968.3
45.929,-0.0562,-0.4659,0.6814,-0.44,0.79,1.69,5.96,-1528.8,968.5
45.995,-0.0464,-0.4565,0.6814,-0.44,0.79,1.15,5.96,-1859.5,970.1
46.061,-0.0539,-0.4676,0.6814,-0.44,0.79,1.79,5.96,-1570.4,970.1
46.128,-0.0617,-0.4409,0.6814,-0.44,0.79,0.26,5.96,-1901.6,972.6
46.194,-0.0451,-0.4562,0.6814,-0.44,0.79,1.14,5.96,-1570.4,972.8
46.26,-0.0349,-0.4479,0.6813,-0.44,0.79,0.66,5.96,-1878.4,974.1
46.326,-0.0411,-0.4351,0.6814,-0.44,0.79,-0.07,5.96,-1953.0,975.6
46.392,-0.0553,-0.433,0.6814,-0.44,0.79,-0.19,5.96,-1811.6,976.6
46.458,-0.0565,-0.4231,0.6814,-0.44,0.79,-0.76,5.96,-1928.1,978.0
46.524,-0.0783,-0.4004,0.6813,-0.44,0.79,-2.06,5.96,-2000.0,980.3
46.591,-0.0722,-0.3935,0.6814,-0.44,0.79,-2.45,5.96,-1923.7,981.3
46.657,-0.0461,-0.3668,0.6813,-0.44,0.79,-3.98,5.96,-2000.0,983.5
46.723,-0.0271,-0.3413,0.6813,-0.44,0.79,-5.44,5.96,-2000.0,985.5
46.789,-0.0247,-0.3222,0.6813,-0.44,0.79,-6.54,5.96,-2000.0,987.4
46.855,-0.011,-0.3185,0.6813,-0.44,0.79,-6.75,5.96,-1976.3,988.2
46.921,-0.0548,-0.2974,0.6813,-0.44,0.79,-7.96,5.96,-2000.0,989.6
46.987,-0.0266,-0.2877,0.6814,-0.44,0.79,-8.52,5.96,-2000.0,991.1
47.054,-0.0391,-0.2853,0.6814,-0.44,0.79,-8.65,5.96,-2000.0,992.1
47.12,-0.0409,-0.2842,0.6913,-0.44,0.79,-8.72,5.39,-1999.6,881.3
47.186,-0.0196,-0.2818,0.695,-0.44,0.79,-8.86,5.18,-2000.0,931.6
47.252,-0.0604,-0.2878,0.6965,-0.44,0.79,-8.51,5.1,-1914.3,950.2
47.318,-0.0299,-0.2963,0.697,-0.44,0.79,-8.03,5.07,-1876.8,958.0
47.384,-0.0347,-0.2989,0.6971,-0.44,0.79,-7.88,5.06,-1957.0,961.3
47.45,-0.0284,-0.2829,0.6972,-0.44,0.79,-8.79,5.05,-2000.0,963.4
47.516,-0.0238,-0.2965,0.6972,-0.44,0.79,-8.01,5.05,-1874.9,964.7
47.582,-0.0313,-0.2965,0.6972,-0.44,0.79,-8.01,5.05,-2000.0,965.6
47.648,-0.0534,-0.3204,0.6971,-0.44,0.79,-6.64,5.06,-1678.2,965.9
47.714,-0.0702,-0.3453,0.6971,-0.44,0.79,-5.22,5.06,-1608.3,965.8
47.78,-0.0397,-0.3534,0.6971,-0.44,0.79,-4.75,5.06,-1849.7,966.0
47.846,-0.0419,-0.3348,0.6971,-0.44,0.79,-5.82,5.06,-2000.0,967.8
47.912,-0.0434,-0.364,0.6971,-0.44,0.79,-4.15,5.06,-1848.8,967.6
47.981,-0.0531,-0.3454,0.6971,-0.44,0.79,-5.21,5.06,-2000.0,969.2
48.047,-0.0352,-0.3697,0.697,-0.44,0.79,-3.82,5.06,-1858.8,969.4
48.118,-0.0423,-0.3854,0.697,-0.44,0.79,-2.92,5.06,-1735.5,969.4
48.189,-0.064,-0.4092,0.697,-0.44,0.79,-1.55,5.06,-1586.6,969.3
48.259,-0.0632,-0.4452,0.697,-0.44,0.79,0.51,5.06,-1329.3,968.7
48.329,-0.0362,-0.4585,0.697,-0.44,0.79,1.27,5.06,-1675.8,968.9
48.4,-0.0445,-0.4923,0.697,-0.44,0.79,3.21,5.06,-1320.6,968.3
48.47,-0.0735,-0.5104,0.697,-0.44,0.79,4.24,5.06,-1531.7,968.1
48.54,-0.0752,-0.5136,0.697,-0.44,0.79,4.43,5.06,-1740.2,968.8
48.609,-0.0848,-0.5299,0.697,-0.44,0.79,5.36,5.06,-1521.3,969.0
48.679,-0.0961,-0.5206,0.697,-0.44,0.79,4.83,5.07,-1870.4,970.4
48.749,-0.071,-0.5294,0.6969,-0.44,0.79,5.34,5.07,-1627.5,971.0
48.819,-0.0588,-0.5126,0.6969,-0.44,0.79,4.37,5.07,-1975.3,972.3
48.89,-0.0639,-0.5192,0.6969,-0.44,0.79,4.75,5.07,-1669.2,973.1
48.959,-0.0463,-0.5275,0.6969,-0.44,0.79,5.22,5.07,-1626.3,973.3
49.03,-0.0412,-0.531,0.6969,-0.44,0.79,5.43,5.07,-1688.6,973.8
49.1,-0.0433,-0.5243,0.6969,-0.44,0.79,5.04,5.07,-1830.9,975.4
49.171,-0.0672,-0.5241,0.6969,-0.44,0.79,5.03,5.07,-1740.5,976.0
49.241,-0.0587,-0.5363,0.6969,-0.44,0.79,5.73,5.07,-1539.9,976.2
49.312,-0.075,-0.5782,0.6969,-0.44,0.79,8.13,5.07,-1185.9,974.9
49.383,-0.0665,-0.5836,0.6969,-0.44,0.79,8.44,5.07,-1542.5,975.5
49.453,-0.0608,-0.5854,0.6969,-0.44,0.79,8.54,5.07,-1612.4,976.1
49.523,-0.0645,-0.5746,0.6969,-0.44,0.79,7.92,5.07,-1795.8,977.5
49.593,-0.0575,-0.5676,0.6969,-0.44,0.79,7.52,5.07,-1748.1,978.7
49.663,-0.073,-0.5556,0.6969,-0.44,0.79,6.83,5.07,-1824.8,980.2
49.734,-0.0708,-0.5379,0.6969,-0.44,0.79,5.82,5.07,-1912.1,981.9
49.804,-0.0904,-0.5045,0.6968,-0.44,0.79,3.9,5.07,-2000.0,984.7
49.874,-0.1015,-0.5069,0.6969,-0.44,0.79,4.05,5.07,-1780.8,984.9
49.944,-0.0704,-0.4826,0.6969,-0.44,0.79,2.65,5.07,-2000.0,987.0
50.014,-0.0632,-0.4905,0.6968,-0.44,0.79,3.1,5.07,-1693.5,987.7
50.084,-0.0454,-0.4688,0.6968,-0.44,0.79,1.86,5.07,-2000.0,989.4
50.154,-0.0455,-0.4532,0.6968,-0.44,0.79,0.97,5.07,-1967.5,990.8
50.225,-0.0659,-0.4736,0.6968,-0.44,0.79,2.13,5.07,-1614.9,990.9
50.296,-0.0426,-0.4832,0.6968,-0.44,0.79,2.69,5.07,-1589.6,991.3
50.366,-0.0781,-0.4724,0.6968,-0.44,0.79,2.07,5.07,-1882.2,992.5
50.436,-0.07,-0.4772,0.6968,-0.44,0.79,2.34,5.07,-1663.6,993.1
50.507,-0.0574,-0.4613,0.6968,-0.44,0.79,1.43,5.07,-1953.2,994.6
50.576,-0.0654,-0.4621,0.6968,-0.44,0.79,1.48,5.07,-1736.0,995.5
50.647,-0.046,-0.4532,0.6968,-0.44,0.79,0.97,5.07,-1873.6,996.6
50.717,-0.0463,-0.4501,0.6968,-0.44,0.79,0.79,5.07,-1801.2,997.7
50.788,-0.0696,-0.4536,0.6968,-0.44,0.79,0.99,5.08,-1707.1,998.4
50.86,-0.058,-0.4245,0.6968,-0.44,0.79,-0.68,5.08,-2000.0,1000.4
50.93,-0.0569,-0.4236,0.6968,-0.44,0.79,-0.73,5.08,-1803.7,1001.4
50.999,-0.0759,-0.4313,0.6968,-0.44,0.79,-0.29,5.08,-1675.5,1001.8
51.069,-0.0838,-0.4427,0.7067,-0.44,0.79,0.36,4.51,-1606.1,901.8
51.139,-0.0786,-0.4424,0.7105,-0.44,0.79,0.35,4.29,-1773.0,945.5
51.209,-0.0832,-0.4357,0.712,-0.44,0.79,-0.04,4.21,-1866.2,961.9
51.278,-0.0896,-0.4443,0.7125,-0.44,0.79,0.46,4.18,-1642.4,968.4
51.349,-0.0841,-0.4704,0.7127,-0.44,0.79,1.95,4.17,-1334.7,970.3
51.419,-0.0646,-0.4439,0.7127,-0.44,0.79,0.43,4.16,-1685.1,973.3
51.489,-0.0553,-0.4253,0.7127,-0.44,0.79,-0.63,4.16,-2000.0,974.9
51.559,-0.0509,-0.4303,0.7127,-0.44,0.79,-0.35,4.17,-1713.5,975.6
51.629,-0.0682,-0.4292,0.7127,-0.44,0.79,-0.41,4.17,-1797.2,976.4
51.698,-0.0757,-0.4264,0.7126,-0.44,0.79,-0.57,4.17,-1824.9,977.1
51.768,-0.0527,-0.4134,0.7126,-0.44,0.79,-1.31,4.17,-1969.3,978.4
51.838,-0.0366,-0.4101,0.7126,-0.44,0.79,-1.51,4.17,-1852.3,979.2
51.908,-0.0457,-0.4038,0.7126,-0.44,0.79,-1.87,4.17,-1898.1,980.2
51.979,-0.04,-0.4092,0.7125,-0.44,0.79,-1.55,4.17,-1739.1,980.8
52.05,-0.0541,-0.4211,0.7125,-0.44,0.79,-0.87,4.18,-1632.9,981.1
52.12,-0.0577,-0.4163,0.7125,-0.44,0.79,-1.15,4.18,-1868.2,982.1
52.19,-0.0499,-0.4236,0.7125,-0.44,0.79,-0.73,4.18,-1695.6,982.4
52.26,-0.0293,-0.4178,0.7125,-0.44,0.79,-1.06,4.18,-1880.2,983.4
52.33,-0.0342,-0.3949,0.7124,-0.44,0.79,-2.38,4.18,-2000.0,984.9
52.4,-0.0199,-0.4006,0.7124,-0.44,0.79,-2.05,4.18,-1761.4,985.1
52.471,-0.0254,-0.403,0.7124,-0.44,0.79,-1.91,4.18,-1793.9,985.9
52.542,-0.0513,-0.4085,0.7125,-0.44,0.79,-1.6,4.18,-1747.7,986.2
52.613,-0.0655,-0.4405,0.7124,-0.44,0.79,0.24,4.18,-1390.3,986.3
52.683,-0.0538,-0.4397,0.7124,-0.44,0.79,0.2,4.18,-1739.7,986.7
52.753,-0.0469,-0.428,0.7124,-0.44,0.79,-0.48,4.18,-1948.8,987.8
52.823,-0.0601,-0.4457,0.7124,-0.44,0.79,0.54,4.18,-1598.3,987.9
52.893,-0.0627,-0.459,0.7124,-0.44,0.79,1.3,4.18,-1567.8,988.2
52.968,-0.0477,-0.4344,0.7124,-0.44,0.79,-0.11,4.18,-1941.8,990.3
53.038,-0.02,-0.43,0.7124,-0.44,0.79,-0.36,4.19,-1851.8,990.7
53.105,-0.0234,-0.4238,0.7124,-0.44,0.79,-0.72,4.19,-1886.2,991.6
53.171,-0.0549,-0.4356,0.7124,-0.44,0.79,-0.04,4.18,-1613.3,991.7
53.237,-0.0508,-0.4207,0.7124,-0.44,0.79,-0.9,4.19,-1942.5,993.1
53.303,-0.0465,-0.4242,0.7123,-0.44,0.79,-0.69,4.19,-1751.9,993.7
53.369,-0.0609,-0.4285,0.7124,-0.44,0.79,-0.45,4.19,-1736.5,993.8
53.435,-0.0403,-0.4118,0.7124,-0.44,0.79,-1.41,4.19,-2000.0,995.2
53.501,-0.0588,-0.4335,0.7124,-0.44,0.79,-0.16,4.19,-1707.8,995.1
53.567,-0.0578,-0.4411,0.7123,-0.44,0.79,0.27,4.19,-1672.1,995.6
53.633,-0.0433,-0.4314,0.7123,-0.44,0.79,-0.28,4.19,-1928.0,996.6
53.699,-0.0545,-0.4395,0.7123,-0.44,0.79,0.18,4.19,-1666.5,997.2
53.765,-0.0688,-0.4333,0.7123,-0.44,0.79,-0.18,4.19,-1879.4,997.9
53.831,-0.0681,-0.4346,0.7123,-0.44,0.79,-0.1,4.19,-1771.9,998.5
53.897,-0.0651,-0.4479,0.7123,-0.44,0.79,0.66,4.19,-1574.7,998.6
53.963,-0.0649,-0.4492,0.7123,-0.44,0.79,0.74,4.19,-1754.4,999.2
54.03,-0.0606,-0.4572,0.7123,-0.44,0.79,1.2,4.19,-1644.0,999.6
54.097,-0.0421,-0.4561,0.7123,-0.44,0.79,1.14,4.19,-1778.8,1000.3
54.164,-0.0476,-0.4472,0.7123,-0.44,0.79,0.62,4.19,-1897.0,1001.1
54.23,-0.0507,-0.445,0.7123,-0.44,0.79,0.5,4.19,-1807.8,1001.9
54.296,-0.0378,-0.4375,0.7123,-0.44,0.79,0.06,4.19,-1889.3,1002.8
54.362,-0.0397,-0.4363,0.7123,-0.44,0.79,0.0,4.19,-1802.0,1003.6
54.428,-0.0237,-0.4323,0.7123,-0.44,0.79,-0.23,4.19,-1846.9,1004.1
54.494,-0.0608,-0.4262,0.7123,-0.44,0.79,-0.58,4.19,-1883.7,1005.2
54.56,-0.0589,-0.4337,0.7123,-0.44,0.79,-0.15,4.19,-1681.0,1005.4
54.626,-0.0489,-0.4073,0.7222,-0.44,0.79,-1.66,3.62,-2000.0,901.4
54.693,-0.0463,-0.4329,0.726,-0.44,0.79,-0.2,3.41,-1678.9,947.9
54.759,-0.0206,-0.4084,0.7274,-0.44,0.79,-1.6,3.32,-2000.0,965.7
54.825,-0.0455,-0.4141,0.7279,-0.44,0.79,-1.27,3.29,-1733.5,972.3
54.891,-0.0411,-0.4081,0.7281,-0.44,0.79,-1.62,3.28,-1906.4,975.5
54.957,-0.0547,-0.4014,0.7282,-0.44,0.79,-2.0,3.28,-1923.5,977.1
55.023,-0.0404,-0.4075,0.7281,-0.44,0.79,-1.65,3.28,-1739.4,978.1
55.089,-0.0592,-0.4026,0.7281,-0.44,0.79,-1.93,3.28,-1900.7,978.8
55.155,-0.0466,-0.397,0.7281,-0.44,0.79,-2.25,3.28,-1918.1,979.7
55.221,-0.0589,-0.4193,0.7281,-0.44,0.79,-0.98,3.28,-1588.9,979.6
55.287,-0.038,-0.4352,0.7281,-0.44,0.79,-0.06,3.29,-1556.6,979.6
55.353,-0.0721,-0.4609,0.7281,-0.44,0.79,1.41,3.28,-1347.0,979.2
55.419,-0.0743,-0.4732,0.728,-0.44,0.79,2.11,3.29,-1562.0,979.7
55.486,-0.0936,-0.4704,0.728,-0.44,0.79,1.95,3.29,-1792.5,980.2
55.552,-0.0941,-0.4744,0.728,-0.44,0.79,2.18,3.29,-1687.8,980.9
55.618,-0.0846,-0.4832,0.728,-0.44,0.79,2.69,3.29,-1600.1,981.2
55.684,-0.0767,-0.4745,0.728,-0.44,0.79,2.19,3.29,-1865.7,981.7
55.75,-0.0824,-0.4826,0.7279,-0.44,0.79,2.65,3.29,-1609.1,982.2
55.816,-0.0835,-0.4807,0.7279,-0.44,0.79,2.54,3.29,-1759.8,982.5
55.882,-0.0674,-0.469,0.7279,-0.44,0.79,1.87,3.29,-1907.7,983.4
55.948,-0.057,-0.4712,0.7279,-0.44,0.79,2.0,3.29,-1708.1,984.0
56.014,-0.0728,-0.4777,0.7279,-0.44,0.79,2.37,3.29,-1632.0,984.3
56.08,-0.0858,-0.4798,0.7279,-0.44,0.79,2.49,3.29,-1695.7,984.7
56.147,-0.0685,-0.4975,0.7279,-0.44,0.79,3.51,3.29,-1414.8,984.8
56.213,-0.0533,-0.471,0.7279,-0.44,0.79,1.99,3.3,-1744.8,986.1
56.279,-0.0548,-0.4594,0.7279,-0.44,0.79,1.32,3.29,-1908.4,986.7
56.346,-0.0609,-0.4585,0.7278,-0.44,0.79,1.27,3.3,-1758.8,987.9
56.412,-0.0499,-0.458,0.7278,-0.44,0.79,1.24,3.3,-1755.2,988.1
56.478,-0.0257,-0.4694,0.7278,-0.44,0.79,1.9,3.3,-1554.4,988.1
56.545,-0.0457,-0.4633,0.7278,-0.44,0.79,1.55,3.3,-1825.1,989.0
56.611,-0.0636,-0.4565,0.7278,-0.44,0.79,1.16,3.3,-1840.6,989.8
56.677,-0.0671,-0.4466,0.7278,-0.44,0.79,0.59,3.3,-1894.4,990.2
56.744,-0.0793,-0.4633,0.7278,-0.44,0.79,1.55,3.3,-1562.1,990.3
56.81,-0.0826,-0.4891,0.7278,-0.44,0.79,3.02,3.3,-1262.2,990.4
56.877,-0.1028,-0.4631,0.7278,-0.44,0.79,1.53,3.3,-1593.5,991.5
56.943,-0.0936,-0.4813,0.7278,-0.44,0.79,2.58,3.3,-1412.0,991.4
57.01,-0.0884,-0.466,0.7278,-0.44,0.79,1.7,3.3,-1748.1,992.4
57.076,-0.0805,-0.4602,0.7278,-0.44,0.79,1.37,3.3,-1815.3,993.1
57.143,-0.0867,-0.4507,0.7278,-0.44,0.79,0.82,3.3,-1875.4,994.1
57.21,-0.065,-0.4373,0.7278,-0.44,0.79,0.06,3.3,-1941.1,995.0
57.276,-0.0496,-0.4065,0.7278,-0.44,0.79,-1.71,3.3,-2000.0,996.2
57.342,-0.0617,-0.3942,0.7278,-0.44,0.79,-2.41,3.3,-1976.1,997.0
57.409,-0.0501,-0.3855,0.7278,-0.44,0.79,-2.91,3.3,-1941.1,997.4
57.475,-0.0706,-0.377,0.7278,-0.44,0.79,-3.4,3.3,-1950.9,998.4
57.541,-0.0779,-0.369,0.7278,-0.44,0.79,-3.86,3.3,-1955.2,998.7
57.607,-0.0692,-0.3744,0.7377,-0.44,0.79,-3.55,2.73,-1766.6,891.3
57.673,-0.0598,-0.3807,0.7415,-0.44,0.79,-3.19,2.52,-1751.2,939.1
57.74,-0.037,-0.3972,0.7429,-0.44,0.79,-2.24,2.44,-1574.3,956.8
57.805,-0.0426,-0.3769,0.7434,-0.44,0.79,-3.4,2.41,-1904.0,964.0
57.871,-0.0395,-0.3879,0.7436,-0.44,0.79,-2.77,2.39,-1677.6,966.5
57.939,-0.0267,-0.3977,0.7437,-0.44,0.79,-2.21,2.39,-1687.2,967.8
58.006,-0.0495,-0.412,0.7437,-0.44,0.79,-1.39,2.39,-1602.6,968.6
58.077,-0.0548,-0.4094,0.7437,-0.44,0.79,-1.54,2.39,-1848.3,968.9
58.148,-0.0468,-0.3953,0.7436,-0.44,0.79,-2.35,2.39,-2000.0,970.0
58.217,-0.0372,-0.3988,0.7436,-0.44,0.79,-2.15,2.4,-1784.0,970.3
58.287,-0.0382,-0.4156,0.7436,-0.44,0.79,-1.19,2.4,-1572.6,970.4
58.357,-0.0612,-0.4463,0.7435,-0.44,0.79,0.57,2.4,-1292.6,970.3
58.427,-0.0704,-0.4517,0.7435,-0.44,0.79,0.88,2.4,-1642.1,970.5
58.498,-0.0707,-0.4424,0.7435,-0.44,0.79,0.35,2.4,-1899.8,971.1
58.569,-0.0646,-0.4501,0.7435,-0.44,0.79,0.79,2.4,-1663.5,971.3
58.64,-0.0576,-0.4537,0.7435,-0.44,0.79,1.0,2.4,-1715.2,971.9
58.709,-0.0605,-0.4548,0.7434,-0.44,0.79,1.06,2.4,-1747.7,972.2
58.781,-0.067,-0.4445,0.7434,-0.44,0.79,0.47,2.41,-1906.8,972.9
58.851,-0.078,-0.4399,0.7434,-0.44,0.79,0.2,2.41,-1840.0,973.3
58.92,-0.084,-0.4534,0.7434,-0.44,0.79,0.98,2.41,-1565.5,973.5
58.994,-0.0693,-0.4402,0.7434,-0.44,0.79,0.22,2.41,-1934.5,974.2
59.066,-0.0843,-0.4343,0.7434,-0.44,0.79,-0.12,2.41,-1862.4,974.6
59.135,-0.089,-0.4504,0.7434,-0.44,0.79,0.8,2.41,-1528.8,975.0
59.205,-0.0654,-0.4526,0.7433,-0.44,0.79,0.93,2.41,-1731.4,975.3
59.275,-0.0479,-0.4418,0.7433,-0.44,0.79,0.31,2.41,-1916.2,975.8
59.345,-0.0608,-0.4428,0.7433,-0.44,0.79,0.37,2.41,-1760.9,976.3
59.414,-0.0439,-0.4345,0.7433,-0.44,0.79,-0.1,2.41,-1892.1,976.6
59.484,-0.046,-0.4252,0.7433,-0.44,0.79,-0.64,2.41,-1915.7,977.6
59.554,-0.0687,-0.4327,0.7433,-0.44,0.79,-0.21,2.41,-1681.2,977.4
59.624,-0.0878,-0.453,0.7433,-0.44,0.79,0.96,2.41,-1459.0,977.7
59.694,-0.0667,-0.4677,0.7433,-0.44,0.79,1.8,2.41,-1528.1,977.6
59.766,-0.0567,-0.4512,0.7433,-0.44,0.79,0.85,2.41,-1885.8,978.6
59.835,-0.0636,-0.4644,0.7433,-0.44,0.79,1.61,2.41,-1550.3,978.7
59.905,-0.0689,-0.4595,0.7433,-0.44,0.79,1.33,2.41,-1816.1,979.0
59.975,-0.0563,-0.4403,0.7433,-0.44,0.79,0.23,2.41,-2000.0,979.9
60.045,-0.047,-0.4193,0.7433,-0.44,0.79,-0.98,2.41,-2000.0,980.8
60.115,-0.0415,-0.411,0.7433,-0.44,0.79,-1.45,2.41,-1915.1,981.2
60.185,-0.0444,-0.3942,0.7433,-0.44,0.79,-2.41,2.41,-2000.0,982.2
60.255,-0.0519,-0.3792,0.7433,-0.44,0.79,-3.27,2.41,-2000.0,982.7
60.325,-0.0753,-0.4152,0.7432,-0.44,0.79,-1.21,2.42,-1682.4,982.7
60.395,-0.038,-0.4204,0.7433,-0.44,0.79,-0.91,2.41,-1732.3,982.5
60.465,-0.069,-0.4374,0.7432,-0.44,0.79,0.06,2.42,-1536.3,983.1
60.535,-0.0628,-0.4343,0.7432,-0.44,0.79,-0.12,2.42,-1828.6,983.5
60.605,-0.0797,-0.4391,0.7432,-0.44,0.79,0.16,2.42,-1715.4,983.5
60.676,-0.0864,-0.4771,0.7432,-0.44,0.79,2.34,2.41,-1362.2,983.2
60.746,-0.0535,-0.484,0.7432,-0.44,0.79,2.73,2.42,-1624.1,983.5
60.816,-0.06,-0.448,0.7433,-0.44,0.79,0.67,2.41,-1977.2,984.5
60.887,-0.0555,-0.4684,0.7433,-0.44,0.79,1.84,2.41,-1622.6,984.5
60.957,-0.0585,-0.4779,0.7433,-0.44,0.79,2.38,2.41,-1590.5,984.9
61.028,-0.0606,-0.4718,0.7432,-0.44,0.79,2.03,2.42,-1814.9,985.4
