time,roll,pitch,yaw,rp_rpm,ry_rpm,err_p,err_y,mp_rpm,my_rpm
0.04,-0.043,0.0612,-0.0026,-0.35,0.79,-23.51,45.15,-298.0,298.0
0.107,-0.0451,0.062,-0.0026,-0.35,0.79,-23.55,45.15,-631.3,631.3
0.174,-0.0454,0.058,-0.0026,-0.35,0.79,-23.32,45.15,-963.1,963.1
0.24,-0.0423,0.0488,-0.0026,-0.35,0.79,-22.8,45.15,-972.1,1293.2
0.306,-0.0565,0.0498,-0.0026,-0.35,0.79,-22.86,45.15,-1228.9,1623.9
0.372,-0.04,0.0372,-0.0026,-0.35,0.79,-22.13,45.15,-900.1,1761.1
0.439,-0.0356,0.0453,-0.0026,-0.35,0.79,-22.6,45.15,-1233.9,1765.0
0.505,-0.0449,0.072,-0.0026,-0.35,0.79,-24.13,45.15,-1564.7,1767.8
0.571,-0.0407,0.0642,-0.0026,-0.35,0.79,-23.68,45.15,-1233.9,1771.8
0.637,-0.0458,0.0527,-0.0026,-0.35,0.79,-23.02,45.15,-1047.2,1775.8
0.704,-0.0417,0.069,-0.0026,-0.35,0.79,-23.95,45.15,-1380.0,1779.4
0.77,-0.0511,0.0658,-0.0026,-0.35,0.79,-23.77,45.15,-1287.7,1783.1
0.837,-0.0464,0.0613,-0.0026,-0.35,0.79,-23.51,45.15,-1270.8,1787.1
0.904,-0.0435,0.0628,-0.0026,-0.35,0.79,-23.6,45.15,-1403.4,1790.7
0.972,-0.0433,0.0689,-0.0026,-0.35,0.79,-23.95,45.15,-1504.2,1794.2
1.037,-0.0532,0.0726,-0.0026,-0.35,0.79,-24.16,45.15,-1484.5,1798.0
1.104,-0.0517,0.068,-0.0026,-0.35,0.79,-23.9,45.15,-1345.7,1801.7
1.17,-0.0483,0.0336,-0.0026,-0.35,0.79,-21.92,45.15,-1015.0,1806.2
1.236,-0.0398,0.0399,-0.0026,-0.35,0.79,-22.28,45.15,-1347.8,1809.9
1.303,-0.0428,0.0506,-0.0026,-0.35,0.79,-22.9,45.15,-1624.9,1813.2
1.369,-0.0311,0.063,-0.0026,-0.35,0.79,-23.61,45.15,-1679.5,1816.9
1.436,-0.0376,0.0612,-0.0026,-0.35,0.79,-23.51,45.15,-1460.3,1820.2
1.502,-0.0307,0.0419,-0.0026,-0.35,0.79,-22.4,45.15,-1130.7,1824.7
1.568,-0.0366,0.0386,-0.0026,-0.35,0.79,-22.21,45.15,-1433.2,1828.1
1.634,-0.0299,0.0473,-0.0026,-0.35,0.79,-22.71,45.15,-1654.4,1831.7
1.7,-0.041,0.0539,-0.0026,-0.35,0.79,-23.09,45.15,-1642.8,1835.1
1.767,-0.0474,0.0558,-0.0026,-0.35,0.79,-23.2,45.15,-1583.2,1838.6
1.833,-0.0513,0.0526,-0.0026,-0.35,0.79,-23.01,45.15,-1508.7,1842.5
1.899,-0.0553,0.0405,-0.0026,-0.35,0.79,-22.32,45.15,-1350.5,1846.3
1.965,-0.0477,0.0478,0.0074,-0.35,0.79,-22.74,44.58,-1680.4,1793.0
2.032,-0.0456,0.0404,0.0112,-0.35,0.79,-22.31,44.36,-1468.1,1824.0
2.098,-0.0504,0.04,0.0126,-0.35,0.79,-22.29,44.28,-1598.0,1837.9
2.165,-0.0472,0.0338,0.023,-0.35,0.79,-21.93,43.68,-1510.1,1788.7
2.232,-0.0506,0.029,0.037,-0.35,0.79,-21.66,42.88,-1547.3,1763.6
2.301,-0.052,0.0139,0.0423,-0.35,0.79,-20.79,42.58,-1373.3,1805.8
2.372,-0.0375,-0.0038,0.0542,-0.35,0.79,-19.78,41.89,-1327.9,1769.1
2.442,-0.0236,-0.019,0.0686,-0.35,0.79,-18.91,41.07,-1362.9,1746.7
2.511,-0.0393,-0.0359,0.084,-0.35,0.79,-17.94,40.19,-1324.6,1731.0
2.582,-0.0473,-0.0586,0.1097,-0.35,0.79,-16.64,38.71,-1208.0,1660.2
2.653,-0.0492,-0.0673,0.1293,-0.35,0.79,-16.15,37.59,-1461.9,1674.1
2.724,-0.049,-0.0684,0.1467,-0.35,0.79,-16.08,36.6,-1592.9,1672.8
2.795,-0.0449,-0.0934,0.173,-0.35,0.79,-14.65,35.09,-1240.0,1601.2
2.863,-0.0553,-0.1148,0.1926,-0.35,0.79,-13.42,33.96,-1199.9,1613.0
2.931,-0.056,-0.1323,0.2198,-0.35,0.79,-12.42,32.41,-1270.5,1546.0
3.002,-0.0663,-0.1514,0.24,-0.35,0.79,-11.33,31.25,-1235.1,1566.6
3.072,-0.0647,-0.1782,0.2673,-0.35,0.79,-9.79,29.69,-1029.1,1495.9
3.143,-0.0798,-0.1917,0.2874,-0.35,0.79,-9.02,28.53,-1300.7,1514.9
3.214,-0.087,-0.2118,0.3147,-0.35,0.79,-7.86,26.97,-1149.4,1442.7
3.284,-0.0834,-0.2349,0.3447,-0.35,0.79,-6.54,25.25,-1049.4,1388.0
3.354,-0.0792,-0.2485,0.3757,-0.35,0.79,-5.76,23.48,-1238.0,1341.5
3.424,-0.0686,-0.2574,0.397,-0.35,0.79,-5.25,22.25,-1319.7,1370.3
3.494,-0.0602,-0.2548,0.4248,-0.35,0.79,-5.4,20.66,-1523.9,1295.4
3.565,-0.0506,-0.2748,0.4548,-0.35,0.79,-4.26,18.94,-1171.2,1235.6
3.636,-0.0519,-0.2842,0.4858,-0.35,0.79,-3.72,17.17,-1292.3,1181.1
3.706,-0.0488,-0.2802,0.5169,-0.35,0.79,-3.95,15.38,-1530.6,1126.2
3.776,-0.0487,-0.29,0.5484,-0.35,0.79,-3.38,13.58,-1287.8,1070.5
3.847,-0.0625,-0.2849,0.5697,-0.35,0.79,-3.67,12.36,-1550.9,1106.1
3.917,-0.0543,-0.2854,0.5973,-0.35,0.79,-3.65,10.78,-1467.2,1006.0
3.988,-0.0498,-0.2963,0.6273,-0.35,0.79,-3.02,9.06,-1275.0,926.9
4.058,-0.0603,-0.3033,0.6481,-0.35,0.79,-2.62,7.87,-1336.2,957.4
4.128,-0.0583,-0.306,0.6754,-0.35,0.79,-2.47,6.3,-1411.7,837.0
4.2,-0.0419,-0.3027,0.6954,-0.35,0.79,-2.65,5.16,-1514.7,862.9
4.271,-0.044,-0.3011,0.7224,-0.35,0.79,-2.75,3.61,-1495.8,723.2
4.34,-0.0504,-0.2891,0.7418,-0.35,0.79,-3.44,2.5,-1673.7,742.8
4.412,-0.0584,-0.2893,0.7689,-0.35,0.79,-3.42,0.95,-1489.2,520.5
4.482,-0.0574,-0.3388,0.7885,-0.35,0.79,-0.59,-0.18,-1139.3,573.7
4.552,-0.0651,-0.3265,0.8054,-0.35,0.79,-1.29,-1.14,-1488.4,527.1
4.621,-0.0593,-0.2958,0.8212,-0.35,0.79,-3.05,-2.05,-1837.2,444.1
4.691,-0.0649,-0.2594,0.8367,-0.35,0.79,-5.14,-2.94,-2000.0,342.9
4.761,-0.0663,-0.2575,0.8521,-0.35,0.79,-5.25,-3.82,-1681.4,241.8
4.831,-0.0725,-0.2698,0.8674,-0.35,0.79,-4.54,-4.7,-1331.9,142.6
4.901,-0.0646,-0.2632,0.8827,-0.35,0.79,-4.92,-5.58,-1647.2,37.9
4.971,-0.0624,-0.2515,0.888,-0.35,0.79,-5.59,-5.88,-1737.8,254.2
5.041,-0.0636,-0.2613,0.8996,-0.35,0.79,-5.03,-6.54,-1398.2,15.0
5.111,-0.0542,-0.2371,0.9036,-0.35,0.79,-6.41,-6.77,-1747.6,174.5
5.182,-0.0454,-0.2413,0.9047,-0.35,0.79,-6.17,-6.84,-1531.2,239.3
5.252,-0.0273,-0.2363,0.9146,-0.35,0.79,-6.46,-7.4,-1678.7,-56.3
5.321,-0.0352,-0.2468,0.9179,-0.35,0.79,-5.86,-7.59,-1428.6,88.1
5.392,-0.0244,-0.2541,0.9188,-0.35,0.79,-5.44,-7.65,-1478.0,140.3
5.462,-0.0479,-0.2672,0.9189,-0.35,0.79,-4.69,-7.65,-1365.8,159.8
5.532,-0.05,-0.2696,0.9186,-0.35,0.79,-4.55,-7.63,-1540.5,167.3
5.602,-0.055,-0.2697,0.9182,-0.35,0.79,-4.55,-7.61,-1579.6,168.4
5.672,-0.0644,-0.263,0.9177,-0.35,0.79,-4.93,-7.58,-1694.1,168.8
5.741,-0.058,-0.2675,0.9172,-0.35,0.79,-4.68,-7.55,-1522.0,168.3
5.813,-0.0677,-0.2941,0.9169,-0.35,0.79,-3.15,-7.53,-1163.2,164.6
5.883,-0.0701,-0.2955,0.9164,-0.35,0.79,-3.07,-7.51,-1513.2,167.9
5.955,-0.0739,-0.2913,0.9161,-0.35,0.79,-3.31,-7.49,-1629.6,161.1
6.026,-0.0733,-0.2726,0.9157,-0.35,0.79,-4.38,-7.47,-1854.6,160.3
6.094,-0.0689,-0.2645,0.9154,-0.35,0.79,-4.84,-7.45,-1729.6,156.3
6.163,-0.0635,-0.2651,0.9151,-0.35,0.79,-4.81,-7.43,-1605.0,152.9
6.233,-0.0567,-0.272,0.9149,-0.35,0.79,-4.41,-7.42,-1501.1,149.4
6.303,-0.061,-0.2752,0.9146,-0.35,0.79,-4.23,-7.4,-1558.3,149.3
6.372,-0.0572,-0.2789,0.9143,-0.35,0.79,-4.02,-7.38,-1549.7,148.0
6.444,-0.058,-0.2798,0.9141,-0.35,0.79,-3.97,-7.37,-1594.2,142.3
6.515,-0.0688,-0.2874,0.9139,-0.35,0.79,-3.54,-7.36,-1484.8,141.4
6.585,-0.0819,-0.2993,0.9137,-0.35,0.79,-2.85,-7.35,-1394.4,139.0
6.655,-0.0634,-0.3023,0.9135,-0.35,0.79,-2.68,-7.34,-1539.0,137.0
6.726,-0.0602,-0.313,0.9133,-0.35,0.79,-2.07,-7.33,-1401.6,136.7
6.797,-0.0675,-0.3079,0.9132,-0.35,0.79,-2.36,-7.32,-1655.6,131.9
6.866,-0.0674,-0.2907,0.913,-0.35,0.79,-3.35,-7.31,-1848.0,125.4
6.938,-0.0724,-0.2816,0.9129,-0.35,0.79,-3.86,-7.31,-1747.6,121.4
7.009,-0.0625,-0.2784,0.9128,-0.35,0.79,-4.05,-7.3,-1674.8,117.4
7.08,-0.0692,-0.268,0.9126,-0.35,0.79,-4.65,-7.29,-1789.8,114.3
7.149,-0.0767,-0.2718,0.9125,-0.35,0.79,-4.43,-7.28,-1587.0,111.2
7.219,-0.0619,-0.2763,0.9124,-0.35,0.79,-4.17,-7.28,-1573.1,107.5
7.289,-0.0554,-0.2642,0.9123,-0.35,0.79,-4.86,-7.27,-1826.4,102.7
7.36,-0.0469,-0.2622,0.9122,-0.35,0.79,-4.98,-7.26,-1695.7,100.4
7.43,-0.0357,-0.263,0.9121,-0.35,0.79,-4.93,-7.26,-1656.9,94.1
7.502,-0.0278,-0.2648,0.9121,-0.35,0.79,-4.83,-7.26,-1646.5,92.0
7.573,-0.0469,-0.2687,0.912,-0.35,0.79,-4.61,-7.25,-1612.7,90.1
7.643,-0.0572,-0.2701,0.9119,-0.35,0.79,-4.53,-7.25,-1650.7,86.5
7.713,-0.0583,-0.2683,0.9118,-0.35,0.79,-4.63,-7.24,-1702.7,80.9
7.783,-0.0694,-0.277,0.9118,-0.35,0.79,-4.13,-7.24,-1537.5,78.2
7.853,-0.0704,-0.2792,0.9117,-0.35,0.79,-4.0,-7.24,-1637.7,76.6
7.923,-0.0706,-0.2859,0.9117,-0.35,0.79,-3.62,-7.24,-1563.8,73.0
7.994,-0.0683,-0.2856,0.9117,-0.35,0.79,-3.64,-7.24,-1671.8,67.7
8.064,-0.0608,-0.2913,0.9117,-0.35,0.79,-3.31,-7.23,-1577.3,65.3
8.135,-0.0553,-0.2997,0.9116,-0.35,0.79,-2.83,-7.23,-1527.4,62.3
8.205,-0.0494,-0.301,0.9115,-0.35,0.79,-2.75,-7.23,-1634.3,61.7
8.276,-0.0443,-0.3105,0.9114,-0.35,0.79,-2.21,-7.22,-1500.4,59.0
8.347,-0.0441,-0.3122,0.9115,-0.35,0.79,-2.11,-7.22,-1618.8,52.2
8.417,-0.0488,-0.3078,0.9114,-0.35,0.79,-2.37,-7.22,-1713.1,50.0
8.487,-0.0511,-0.3114,0.9115,-0.35,0.79,-2.16,-7.22,-1593.9,44.6
8.558,-0.0494,-0.3089,0.9114,-0.35,0.79,-2.3,-7.22,-1686.5,41.6
8.63,-0.0522,-0.3144,0.9114,-0.35,0.79,-1.98,-7.22,-1565.7,38.0
8.7,-0.047,-0.3162,0.9114,-0.35,0.79,-1.88,-7.22,-1619.9,34.3
8.771,-0.0435,-0.3245,0.9113,-0.35,0.79,-1.41,-7.22,-1509.8,34.6
8.842,-0.0456,-0.3313,0.9113,-0.35,0.79,-1.02,-7.21,-1526.2,30.5
8.912,-0.0518,-0.3245,0.9113,-0.35,0.79,-1.41,-7.21,-1734.2,25.4
8.982,-0.0595,-0.3202,0.9113,-0.35,0.79,-1.65,-7.21,-1705.5,19.8
9.053,-0.0639,-0.3301,0.9113,-0.35,0.79,-1.09,-7.21,-1482.0,18.7
9.123,-0.0618,-0.3263,0.9113,-0.35,0.79,-1.3,-7.21,-1691.8,13.7
9.194,-0.0609,-0.3207,0.9113,-0.35,0.79,-1.63,-7.21,-1726.3,9.0
9.264,-0.0641,-0.3194,0.9113,-0.35,0.79,-1.7,-7.21,-1668.4,5.1
9.334,-0.0613,-0.3227,0.9112,-0.35,0.79,-1.51,-7.21,-1597.1,2.8
9.404,-0.0513,-0.3254,0.9112,-0.35,0.79,-1.36,-7.21,-1605.0,-1.8
9.475,-0.0403,-0.3239,0.9112,-0.35,0.79,-1.44,-7.21,-1667.5,-4.9
9.546,-0.0364,-0.3284,0.9112,-0.35,0.79,-1.18,-7.21,-1575.2,-9.2
9.619,-0.0363,-0.3276,0.9112,-0.35,0.79,-1.23,-7.21,-1654.9,-11.8
9.688,-0.0364,-0.3277,0.9111,-0.35,0.79,-1.22,-7.2,-1643.0,-15.7
9.758,-0.0428,-0.3204,0.9111,-0.35,0.79,-1.64,-7.2,-1758.5,-19.8
9.828,-0.0494,-0.3238,0.9111,-0.35,0.79,-1.45,-7.2,-1601.3,-24.9
9.898,-0.0484,-0.3267,0.9111,-0.35,0.79,-1.28,-7.2,-1606.3,-27.4
9.969,-0.0618,-0.331,0.9111,-0.35,0.79,-1.03,-7.2,-1580.7,-31.1
10.038,-0.0599,-0.3254,0.9111,-0.17,1.57,8.65,37.8,-1467.8,316.8
10.109,-0.06,-0.3262,0.9112,-0.17,1.57,8.69,37.79,-1348.8,668.8
10.179,-0.0646,-0.3339,0.9112,-0.17,1.57,9.13,37.79,-1195.0,1020.3
10.249,-0.0678,-0.3359,0.9111,-0.17,1.57,9.25,37.8,-1289.7,1370.7
10.319,-0.0656,-0.3305,0.9111,-0.17,1.57,8.94,37.8,-1420.3,1720.9
10.391,-0.0577,-0.3235,0.9111,-0.17,1.57,8.54,37.8,-1444.9,1782.9
10.461,-0.0567,-0.3317,0.911,-0.17,1.57,9.01,37.8,-1142.4,1785.6
10.531,-0.06,-0.3281,0.911,-0.17,1.57,8.8,37.8,-1364.7,1789.2
10.601,-0.0599,-0.3232,0.911,-0.17,1.57,8.52,37.8,-1385.3,1793.0
10.672,-0.0656,-0.317,0.911,-0.17,1.57,8.16,37.8,-1405.1,1797.1
10.743,-0.0586,-0.3026,0.9111,-0.17,1.57,7.34,37.8,-1550.1,1802.2
10.812,-0.0554,-0.3025,0.911,-0.17,1.57,7.33,37.8,-1306.4,1806.1
10.882,-0.0557,-0.2971,0.911,-0.17,1.57,7.02,37.81,-1398.6,1809.8
10.956,-0.0572,-0.2815,0.9111,-0.17,1.57,6.13,37.8,-1566.4,1814.3
11.026,-0.0512,-0.2775,0.911,-0.17,1.57,5.9,37.8,-1388.7,1818.8
11.093,-0.0551,-0.2661,0.911,-0.17,1.57,5.25,37.8,-1530.7,1823.0
11.159,-0.0526,-0.2504,0.911,-0.17,1.57,4.35,37.8,-1618.2,1827.9
11.225,-0.0667,-0.2429,0.911,-0.17,1.57,3.92,37.8,-1488.5,1831.5
11.291,-0.0659,-0.2195,0.911,-0.17,1.57,2.58,37.8,-1764.2,1836.4
11.357,-0.0558,-0.2108,0.911,-0.17,1.57,2.08,37.8,-1546.6,1840.5
11.423,-0.0639,-0.2217,0.911,-0.17,1.57,2.7,37.8,-1215.6,1843.1
11.489,-0.0667,-0.206,0.911,-0.17,1.57,1.8,37.8,-1545.8,1847.2
11.555,-0.0588,-0.2039,0.9111,-0.17,1.57,1.68,37.8,-1432.6,1850.2
11.621,-0.0698,-0.1903,0.911,-0.17,1.57,0.9,37.8,-1640.4,1854.9
11.687,-0.0643,-0.1842,0.911,-0.17,1.57,0.55,37.8,-1526.7,1858.0
11.753,-0.0535,-0.1608,0.911,-0.17,1.57,-0.79,37.81,-1817.0,1863.2
11.819,-0.0551,-0.1578,0.911,-0.17,1.57,-0.96,37.8,-1508.9,1865.9
11.886,-0.0647,-0.1411,0.911,-0.17,1.57,-1.92,37.8,-1743.4,1870.1
11.952,-0.0473,-0.1199,0.911,-0.17,1.57,-3.13,37.8,-1832.2,1874.2
12.018,-0.0407,-0.1176,0.9209,-0.17,1.57,-3.26,37.24,-1555.0,1821.4
12.088,-0.0516,-0.1187,0.9247,-0.17,1.57,-3.2,37.02,-1498.6,1851.0
12.154,-0.0673,-0.1175,0.9261,-0.17,1.57,-3.27,36.94,-1538.7,1863.2
12.22,-0.0656,-0.1043,0.9366,-0.17,1.57,-4.03,36.34,-1745.2,1813.4
12.286,-0.0506,-0.1064,0.9405,-0.17,1.57,-3.9,36.11,-1503.9,1844.1
12.352,-0.054,-0.1091,0.952,-0.17,1.57,-3.75,35.46,-1494.1,1799.7
12.418,-0.0393,-0.0963,0.9662,-0.17,1.57,-4.48,34.64,-1755.6,1775.2
12.485,-0.038,-0.0956,0.9815,-0.17,1.57,-4.52,33.76,-1576.5,1757.7
12.551,-0.0571,-0.0529,0.9972,-0.17,1.57,-6.97,32.86,-1907.2,1742.8
12.617,-0.0677,-0.039,1.013,-0.17,1.57,-7.76,31.96,-1851.7,1728.3
12.684,-0.0635,-0.0441,1.029,-0.17,1.57,-7.47,31.04,-1570.0,1714.0
12.749,-0.0595,-0.074,1.0448,-0.17,1.57,-5.76,30.14,-1240.4,1698.6
12.816,-0.049,-0.0885,1.0705,-0.17,1.57,-4.93,28.66,-1354.7,1619.4
12.881,-0.0648,-0.1026,1.0901,-0.17,1.57,-4.12,27.54,-1343.0,1631.7
12.948,-0.0528,-0.1169,1.1074,-0.17,1.57,-3.3,26.55,-1326.9,1627.5
13.015,-0.0363,-0.1271,1.1336,-0.17,1.57,-2.72,25.05,-1389.6,1546.5
13.081,-0.0204,-0.1237,1.1534,-0.17,1.57,-2.91,23.92,-1626.5,1560.6
13.148,-0.0049,-0.1319,1.1806,-0.17,1.57,-2.44,22.36,-1426.9,1487.5
13.214,-0.0144,-0.1029,1.2105,-0.17,1.57,-4.1,20.64,-1757.6,1429.0
13.28,-0.0018,-0.1174,1.2317,-0.17,1.57,-3.27,19.43,-1427.4,1454.0
13.346,-0.0175,-0.1403,1.2593,-0.17,1.57,-1.96,17.85,-1133.3,1375.9
13.412,-0.0268,-0.159,1.2795,-0.17,1.57,-0.89,16.69,-1192.3,1394.4
13.479,-0.0301,-0.1759,1.3067,-0.17,1.57,0.08,15.13,-1204.5,1309.0
13.545,-0.0421,-0.1853,1.3367,-0.17,1.57,0.62,13.41,-1339.3,1243.7
13.611,-0.0625,-0.2018,1.3576,-0.17,1.57,1.56,12.21,-1165.6,1271.0
13.678,-0.0488,-0.2123,1.3852,-0.17,1.57,2.16,10.63,-1274.5,1180.2
13.744,-0.0517,-0.2139,1.4151,-0.17,1.57,2.25,8.92,-1436.2,1106.2
13.81,-0.0513,-0.2195,1.4361,-0.17,1.57,2.58,7.72,-1352.4,1136.1
13.876,-0.0667,-0.2296,1.4635,-0.17,1.57,3.15,6.15,-1247.6,1032.8
13.942,-0.0684,-0.2351,1.4835,-0.17,1.57,3.47,5.0,-1323.4,1053.1
14.008,-0.0636,-0.2499,1.5105,-0.17,1.57,4.32,3.45,-1100.6,935.1
14.074,-0.0548,-0.2486,1.5303,-0.17,1.57,4.24,2.32,-1424.8,956.0
14.141,-0.045,-0.2184,1.5573,-0.17,1.57,2.51,0.77,-1755.6,819.5
14.207,-0.0527,-0.2519,1.5771,-0.17,1.57,4.43,-0.36,-1424.9,845.3
14.273,-0.0508,-0.2496,1.5942,-0.17,1.57,4.3,-1.34,-1429.6,829.2
14.339,-0.0434,-0.2641,1.6201,-0.17,1.57,5.13,-2.83,-1096.8,653.4
14.406,-0.0393,-0.2839,1.6394,-0.17,1.57,6.26,-3.93,-867.5,675.5
14.472,-0.0426,-0.2753,1.6563,-0.17,1.57,5.78,-4.9,-1198.2,650.9
14.538,-0.057,-0.2684,1.6721,-0.17,1.57,5.38,-5.81,-1464.5,583.8
14.604,-0.0549,-0.239,1.6877,-0.17,1.57,3.69,-6.7,-1796.5,479.4
14.67,-0.0629,-0.2521,1.7031,-0.17,1.57,4.44,-7.58,-1466.3,377.9
14.736,-0.0565,-0.2581,1.7185,-0.17,1.57,4.79,-8.46,-1221.0,271.4
14.802,-0.0593,-0.2523,1.7239,-0.17,1.57,4.46,-8.77,-1452.9,499.8
14.868,-0.0577,-0.2476,1.7355,-0.17,1.57,4.19,-9.44,-1435.3,249.3
14.934,-0.0598,-0.2559,1.7494,-0.17,1.57,4.66,-10.24,-1164.1,88.8
15.0,-0.0639,-0.2582,1.7544,-0.17,1.57,4.79,-10.52,-1279.3,295.1
15.067,-0.0689,-0.2595,1.7658,-0.17,1.57,4.87,-11.17,-1290.7,36.2
15.133,-0.0574,-0.2595,1.7698,-0.17,1.57,4.87,-11.4,-1311.6,206.5
15.2,-0.0651,-0.2623,1.771,-0.17,1.57,5.03,-11.47,-1248.5,270.5
15.266,-0.064,-0.2535,1.771,-0.17,1.57,4.52,-11.47,-1473.5,291.9
15.332,-0.0754,-0.2531,1.7707,-0.17,1.57,4.5,-11.45,-1315.7,297.9
15.399,-0.0626,-0.2404,1.7704,-0.17,1.57,3.77,-11.43,-1547.5,292.6
15.465,-0.0564,-0.2392,1.7699,-0.17,1.57,3.71,-11.41,-1346.0,293.5
15.531,-0.0662,-0.2367,1.7695,-0.17,1.57,3.56,-11.38,-1372.1,288.7
15.598,-0.0677,-0.2246,1.7691,-0.17,1.57,2.87,-11.36,-1552.6,282.5
15.664,-0.0666,-0.2382,1.7687,-0.17,1.57,3.65,-11.34,-1220.8,281.7
15.73,-0.0694,-0.2309,1.7683,-0.17,1.57,3.23,-11.31,-1457.7,277.1
15.797,-0.0768,-0.2381,1.768,-0.17,1.57,3.64,-11.3,-1164.6,272.0
15.863,-0.0853,-0.2365,1.7676,-0.17,1.57,3.55,-11.28,-1337.7,270.4
15.93,-0.0757,-0.2284,1.7673,-0.17,1.57,3.09,-11.26,-1466.9,262.1
16.0,-0.0692,-0.2221,1.7671,-0.17,1.57,2.73,-11.25,-1434.2,253.2
16.071,-0.0648,-0.2168,1.7669,-0.17,1.57,2.42,-11.24,-1423.5,249.1
16.142,-0.0518,-0.2244,1.7667,-0.17,1.57,2.86,-11.22,-1170.1,246.0
16.212,-0.0539,-0.2197,1.7664,-0.17,1.57,2.59,-11.21,-1403.5,240.7
16.282,-0.053,-0.2165,1.7662,-0.17,1.57,2.41,-11.19,-1380.8,236.4
16.352,-0.0493,-0.2191,1.7659,-0.17,1.57,2.55,-11.18,-1269.4,231.2
16.421,-0.0448,-0.2115,1.7657,-0.17,1.57,2.12,-11.17,-1458.0,225.9
16.492,-0.0425,-0.2178,1.7655,-0.17,1.57,2.48,-11.16,-1193.8,220.0
16.562,-0.0396,-0.2405,1.7654,-0.17,1.57,3.78,-11.15,-843.8,218.0
16.632,-0.0355,-0.2268,1.7651,-0.17,1.57,2.99,-11.14,-1193.2,212.6
16.702,-0.0445,-0.2194,1.765,-0.17,1.57,2.57,-11.13,-1432.0,204.7
16.773,-0.0524,-0.2006,1.7649,-0.17,1.57,1.49,-11.12,-1630.1,195.1
16.843,-0.0591,-0.2,1.7648,-0.17,1.57,1.46,-11.11,-1340.8,190.8
16.914,-0.0451,-0.215,1.7646,-0.17,1.57,2.32,-11.11,-994.2,186.8
16.985,-0.0523,-0.2339,1.7645,-0.17,1.57,3.4,-11.1,-843.4,186.0
17.057,-0.072,-0.2175,1.7644,-0.17,1.57,2.46,-11.09,-1207.9,175.8
17.127,-0.0647,-0.2157,1.7643,-0.17,1.57,2.36,-11.08,-1327.6,171.4
17.199,-0.0654,-0.2126,1.7642,-0.17,1.57,2.18,-11.08,-1351.5,162.6
17.27,-0.0616,-0.2289,1.7641,-0.17,1.57,3.11,-11.08,-998.0,161.4
17.339,-0.0535,-0.2303,1.764,-0.17,1.57,3.2,-11.07,-1232.9,155.3
17.41,-0.0588,-0.23,1.764,-0.17,1.57,3.18,-11.07,-1264.6,149.0
17.48,-0.054,-0.2195,1.7639,-0.17,1.57,2.58,-11.06,-1456.6,142.7
17.55,-0.0517,-0.2126,1.7638,-0.17,1.57,2.18,-11.06,-1404.9,135.5
17.621,-0.0479,-0.207,1.7637,-0.17,1.57,1.86,-11.06,-1388.5,128.1
17.691,-0.047,-0.2081,1.7637,-0.17,1.57,1.92,-11.05,-1264.0,123.4
17.762,-0.048,-0.2034,1.7636,-0.17,1.57,1.65,-11.05,-1375.4,116.4
17.832,-0.0534,-0.2083,1.7636,-0.17,1.57,1.93,-11.05,-1186.7,110.2
17.903,-0.0552,-0.2018,1.7635,-0.17,1.57,1.56,-11.04,-1403.5,105.1
17.974,-0.0507,-0.1988,1.7635,-0.17,1.57,1.39,-11.04,-1348.5,98.0
18.044,-0.0559,-0.2081,1.7634,-0.17,1.57,1.92,-11.04,-1087.8,93.4
18.116,-0.0572,-0.2093,1.7634,-0.17,1.57,1.99,-11.04,-1248.7,86.5
18.186,-0.0567,-0.2262,1.7634,-0.17,1.57,2.96,-11.04,-897.4,83.9
18.256,-0.051,-0.2229,1.7633,-0.17,1.57,2.77,-11.03,-1247.6,78.2
18.326,-0.0501,-0.2105,1.7633,-0.17,1.57,2.06,-11.03,-1479.8,70.6
18.395,-0.0466,-0.2094,1.7633,-0.17,1.57,1.99,-11.03,-1283.0,62.9
18.466,-0.0557,-0.2176,1.7632,-0.17,1.57,2.47,-11.03,-1075.4,59.9
18.537,-0.0502,-0.2057,1.7632,-0.17,1.57,1.78,-11.03,-1431.8,50.6
18.607,-0.0536,-0.2099,1.7632,-0.17,1.57,2.03,-11.02,-1168.7,46.4
18.677,-0.0501,-0.1967,1.7632,-0.17,1.57,1.27,-11.02,-1503.7,37.3
18.747,-0.0619,-0.1994,1.7632,-0.17,1.57,1.42,-11.02,-1216.0,32.8
18.817,-0.0594,-0.1974,1.7631,-0.17,1.57,1.31,-11.02,-1307.2,26.1
18.889,-0.0612,-0.2004,1.7631,-0.17,1.57,1.48,-11.02,-1206.2,20.9
18.959,-0.0571,-0.1953,1.7631,-0.17,1.57,1.19,-11.02,-1362.8,13.6
19.03,-0.0616,-0.198,1.7631,-0.17,1.57,1.34,-11.02,-1213.1,7.0
19.1,-0.0656,-0.2046,1.7631,-0.17,1.57,1.72,-11.02,-1117.4,2.6
19.169,-0.0667,-0.206,1.7631,-0.17,1.57,1.8,-11.02,-1219.8,-3.5
19.241,-0.0736,-0.2045,1.7631,-0.17,1.57,1.72,-11.02,-1274.7,-9.2
19.312,-0.0688,-0.2035,1.7631,-0.17,1.57,1.66,-11.02,-1267.7,-16.0
19.384,-0.0687,-0.2062,1.763,-0.17,1.57,1.81,-11.01,-1188.1,-20.7
19.453,-0.0644,-0.2033,1.763,-0.17,1.57,1.65,-11.01,-1298.5,-27.5
19.524,-0.0675,-0.1987,1.763,-0.17,1.57,1.39,-11.01,-1333.6,-35.4
19.595,-0.0561,-0.1971,1.763,-0.17,1.57,1.29,-11.01,-1281.7,-41.0
19.667,-0.0629,-0.1984,1.763,-0.17,1.57,1.37,-11.01,-1222.1,-47.3
19.738,-0.0635,-0.1966,1.763,-0.17,1.57,1.26,-11.01,-1283.8,-53.5
19.809,-0.0641,-0.1915,1.763,-0.17,1.57,0.97,-11.01,-1348.7,-60.3
19.879,-0.0561,-0.1841,1.763,-0.17,1.57,0.55,-11.01,-1399.6,-67.5
19.951,-0.0537,-0.1878,1.763,-0.17,1.57,0.76,-11.01,-1191.3,-73.0
20.021,-0.0596,-0.188,1.763,-0.17,1.57,0.77,-11.01,-1255.9,-79.0
20.092,-0.0599,-0.1932,1.763,-0.17,1.57,1.07,-11.01,-1144.7,-85.3
20.162,-0.0773,-0.1854,1.763,-0.17,1.57,0.62,-11.01,-1402.3,-92.5
20.234,-0.0687,-0.188,1.763,-0.17,1.57,0.77,-11.01,-1206.2,-97.1
20.305,-0.0724,-0.1859,1.763,-0.17,1.57,0.65,-11.01,-1298.6,-104.5
20.376,-0.0609,-0.1921,1.7629,-0.17,1.57,1.01,-11.01,-1124.1,-108.1
20.449,-0.0717,-0.1891,1.7629,-0.17,1.57,0.84,-11.01,-1306.0,-116.6
20.519,-0.0598,-0.1902,1.7629,-0.17,1.57,0.9,-11.01,-1227.7,-122.1
20.591,-0.0641,-0.1957,1.7629,-0.17,1.57,1.21,-11.01,-1130.7,-126.8
20.661,-0.0638,-0.2051,1.763,-0.17,1.57,1.75,-11.01,-1019.2,-134.0
20.732,-0.066,-0.2058,1.763,-0.17,1.57,1.79,-11.01,-1202.2,-138.4
20.802,-0.066,-0.2032,1.7629,-0.17,1.57,1.64,-11.01,-1270.1,-144.7
20.873,-0.0566,-0.1985,1.763,-0.17,1.57,1.37,-11.01,-1313.8,-152.4
20.945,-0.055,-0.1974,1.7629,-0.17,1.57,1.31,-11.01,-1246.9,-157.2
21.015,-0.051,-0.1908,1.763,-0.17,1.57,0.93,-11.01,-1359.0,-166.1
21.081,-0.0498,-0.1905,1.7629,-0.17,1.57,0.92,-11.01,-1240.7,-170.7
21.148,-0.0554,-0.1967,1.7629,-0.17,1.57,1.27,-11.01,-1089.0,-174.0
21.214,-0.0586,-0.1772,1.7629,-0.17,1.57,0.15,-11.01,-1419.2,-185.0
21.28,-0.0605,-0.1818,1.7629,-0.17,1.57,0.42,-11.01,-1150.8,-190.0
21.346,-0.0532,-0.1823,1.7629,-0.17,1.57,0.45,-11.01,-1235.9,-195.0
21.412,-0.0496,-0.1807,1.7629,-0.17,1.57,0.35,-11.01,-1282.1,-200.8
21.478,-0.0514,-0.182,1.7629,-0.17,1.57,0.43,-11.01,-1219.9,-206.3
21.544,-0.042,-0.193,1.7629,-0.17,1.57,1.06,-11.01,-971.9,-211.2
21.61,-0.0465,-0.1872,1.7629,-0.17,1.57,0.72,-11.01,-1301.5,-216.2
21.676,-0.0524,-0.1909,1.7629,-0.17,1.57,0.94,-11.01,-1148.1,-221.8
21.742,-0.0542,-0.1821,1.7629,-0.17,1.57,0.43,-11.01,-1411.4,-229.9
21.808,-0.0584,-0.1805,1.7629,-0.17,1.57,0.34,-11.01,-1277.5,-236.0
21.874,-0.0604,-0.1937,1.7629,-0.17,1.57,1.1,-11.01,-947.8,-237.8
21.94,-0.0571,-0.1859,1.7629,-0.17,1.57,0.65,-11.01,-1278.1,-246.8
22.007,-0.0616,-0.1781,1.763,-0.17,1.57,0.21,-11.01,-1395.1,-254.7
22.074,-0.0681,-0.1535,1.763,-0.17,1.57,-1.2,-11.01,-1696.6,-261.7
22.14,-0.0604,-0.1601,1.7629,-0.17,1.57,-0.83,-11.01,-1367.4,-265.3
22.207,-0.0628,-0.1787,1.7629,-0.17,1.57,0.24,-11.01,-1035.6,-269.7
22.273,-0.0455,-0.1831,1.7629,-0.17,1.57,0.49,-11.01,-1144.1,-276.0
22.338,-0.0499,-0.2049,1.7629,-0.17,1.57,1.74,-11.01,-814.4,-278.0
22.405,-0.0558,-0.2121,1.7629,-0.17,1.57,2.15,-11.01,-1018.2,-284.2
22.471,-0.0617,-0.1999,1.7629,-0.17,1.57,1.45,-11.01,-1350.0,-289.7
22.537,-0.0555,-0.1897,1.7629,-0.17,1.57,0.87,-11.01,-1416.6,-297.0
22.604,-0.0592,-0.1971,1.7629,-0.17,1.57,1.29,-11.01,-1083.3,-303.4
22.67,-0.0514,-0.1861,1.7629,-0.17,1.57,0.67,-11.01,-1414.8,-310.5
22.736,-0.0433,-0.1925,1.7629,-0.17,1.57,1.03,-11.01,-1084.6,-314.4
22.802,-0.0447,-0.1727,1.7629,-0.17,1.57,-0.1,-11.01,-1414.4,-322.4
22.868,-0.0438,-0.1734,1.7629,-0.17,1.57,-0.07,-11.01,-1232.2,-327.7
22.934,-0.0532,-0.1824,1.7629,-0.17,1.57,0.45,-11.01,-1024.1,-333.5
23.0,-0.0519,-0.1822,1.7629,-0.17,1.57,0.44,-11.01,-1234.3,-339.8
23.066,-0.0611,-0.1802,1.7629,-0.17,1.57,0.33,-11.01,-1272.1,-344.6
23.132,-0.0572,-0.182,1.7629,-0.17,1.57,0.43,-11.01,-1190.4,-350.0
23.199,-0.0589,-0.1826,1.7629,-0.17,1.57,0.46,-11.01,-1214.6,-356.9
23.265,-0.0703,-0.189,1.7629,-0.17,1.57,0.83,-11.01,-1071.9,-361.0
23.331,-0.0612,-0.1885,1.7629,-0.17,1.57,0.8,-11.01,-1226.7,-366.4
23.397,-0.0553,-0.1844,1.7629,-0.17,1.57,0.57,-11.01,-1303.6,-373.3
23.464,-0.0629,-0.1935,1.7629,-0.17,1.57,1.09,-11.01,-994.3,-377.4
23.531,-0.0571,-0.1892,1.7629,-0.17,1.57,0.84,-11.01,-1297.5,-385.4
23.597,-0.05,-0.1824,1.7629,-0.17,1.57,0.45,-11.01,-1356.3,-390.4
23.663,-0.0478,-0.1922,1.7629,-0.17,1.57,1.01,-11.01,-1024.5,-394.8
23.729,-0.0541,-0.1969,1.7629,-0.17,1.57,1.28,-11.01,-1089.7,-400.6
23.796,-0.0584,-0.2017,1.7629,-0.17,1.57,1.56,-11.01,-1076.5,-405.8
23.862,-0.0546,-0.1995,1.7629,-0.17,1.57,1.43,-11.01,-1233.7,-412.1
23.927,-0.0543,-0.2021,1.7629,-0.17,1.57,1.58,-11.01,-1121.1,-417.5
23.995,-0.054,-0.2045,1.7629,-0.17,1.57,1.72,-11.01,-1122.7,-421.9
24.061,-0.045,-0.1974,1.7629,-0.17,1.57,1.31,-11.01,-1327.9,-428.7
24.127,-0.0409,-0.1869,1.7629,-0.17,1.57,0.71,-11.01,-1406.2,-438.0
24.193,-0.0547,-0.1654,1.7629,-0.17,1.57,-0.53,-11.01,-1623.3,-444.1
24.26,-0.0508,-0.16,1.7629,-0.17,1.57,-0.83,-11.01,-1353.2,-452.0
24.326,-0.0454,-0.1774,1.7629,-0.17,1.57,0.16,-11.01,-1020.8,-454.9
24.392,-0.0365,-0.1985,1.7629,-0.17,1.57,1.38,-11.01,-691.2,-457.8
24.46,-0.0391,-0.2061,1.7629,-0.17,1.57,1.81,-11.01,-989.7,-463.4
24.526,-0.04,-0.2078,1.7629,-0.17,1.57,1.9,-11.01,-1124.7,-468.2
24.592,-0.041,-0.1928,1.7629,-0.17,1.57,1.05,-11.01,-1454.3,-475.1
24.661,-0.0398,-0.1873,1.7629,-0.17,1.57,0.73,-11.01,-1303.3,-483.4
24.728,-0.0526,-0.1787,1.7629,-0.17,1.57,0.24,-11.01,-1376.2,-490.4
24.794,-0.0603,-0.1724,1.7629,-0.17,1.57,-0.12,-11.01,-1344.4,-494.9
24.862,-0.0591,-0.17,1.7629,-0.17,1.57,-0.26,-11.01,-1271.6,-502.1
24.928,-0.068,-0.1749,1.7629,-0.17,1.57,0.02,-11.01,-1111.2,-507.8
24.994,-0.0616,-0.1763,1.7629,-0.17,1.57,0.1,-11.01,-1183.2,-513.8
25.061,-0.0648,-0.1799,1.7629,-0.17,1.57,0.31,-11.0,-1128.7,-517.2
25.127,-0.0717,-0.1838,1.7629,-0.17,1.57,0.53,-11.0,-1113.2,-523.4
25.193,-0.0579,-0.1805,1.7629,-0.17,1.57,0.34,-11.01,-1271.3,-530.6
25.259,-0.0643,-0.185,1.7629,-0.17,1.57,0.6,-11.01,-1097.3,-536.4
25.325,-0.0738,-0.1927,1.7629,-0.17,1.57,1.04,-11.01,-1001.2,-539.7
25.392,-0.0658,-0.1984,1.7629,-0.17,1.57,1.37,-11.01,-1039.8,-546.0
25.458,-0.0605,-0.1874,1.7629,-0.17,1.57,0.74,-11.01,-1370.3,-551.8
25.525,-0.0679,-0.1852,1.7629,-0.17,1.57,0.61,-11.01,-1235.3,-558.2
25.591,-0.0704,-0.1801,1.7629,-0.17,1.57,0.32,-11.01,-1304.5,-565.3
25.657,-0.0649,-0.177,1.7629,-0.17,1.57,0.14,-11.01,-1266.7,-570.6
25.724,-0.0635,-0.1725,1.7629,-0.17,1.57,-0.11,-11.01,-1303.3,-576.7
25.79,-0.0624,-0.1685,1.7629,-0.17,1.57,-0.35,-11.01,-1300.8,-583.6
25.856,-0.0678,-0.17,1.7629,-0.17,1.57,-0.26,-11.01,-1185.5,-588.0
25.925,-0.0515,-0.181,1.7629,-0.17,1.57,0.37,-11.01,-945.7,-594.7
25.992,-0.0591,-0.1807,1.7629,-0.17,1.57,0.35,-11.01,-1203.8,-599.4
26.063,-0.0652,-0.1826,1.7629,-0.17,1.57,0.46,-11.01,-1154.2,-605.5
26.133,-0.0593,-0.1856,1.7629,-0.17,1.57,0.64,-11.01,-1125.2,-611.5
26.203,-0.0646,-0.1859,1.7629,-0.17,1.57,0.65,-11.01,-1179.9,-618.0
26.273,-0.0595,-0.1802,1.7629,-0.17,1.57,0.33,-11.01,-1305.1,-624.1
26.344,-0.0576,-0.1683,1.7629,-0.17,1.57,-0.36,-11.01,-1430.9,-631.7
26.415,-0.0523,-0.1702,1.7629,-0.17,1.57,-0.25,-11.01,-1173.5,-634.8
26.484,-0.0622,-0.173,1.7629,-0.17,1.57,-0.09,-11.01,-1151.9,-637.7
26.555,-0.0639,-0.1703,1.7629,-0.17,1.57,-0.24,-11.01,-1265.9,-640.9
26.625,-0.0657,-0.1678,1.7629,-0.17,1.57,-0.39,-11.01,-1265.2,-644.2
26.695,-0.0682,-0.1766,1.7629,-0.17,1.57,0.12,-11.01,-1011.0,-646.8
26.766,-0.0634,-0.1632,1.7629,-0.17,1.57,-0.65,-11.01,-1366.2,-650.5
26.836,-0.0584,-0.1722,1.7629,-0.17,1.57,-0.13,-11.01,-1017.6,-652.8
26.906,-0.0559,-0.1752,1.7629,-0.17,1.57,0.04,-11.01,-1142.2,-656.0
26.976,-0.0509,-0.1713,1.7629,-0.17,1.57,-0.19,-11.01,-1287.6,-658.4
27.047,-0.0591,-0.1732,1.7629,-0.17,1.57,-0.07,-11.0,-1169.7,-661.4
27.118,-0.066,-0.1884,1.7629,-0.17,1.57,0.8,-11.01,-817.6,-664.4
27.188,-0.0714,-0.1879,1.7629,-0.17,1.57,0.77,-11.01,-1170.7,-666.9
27.259,-0.0587,-0.1837,1.7629,-0.17,1.57,0.52,-11.01,-1268.7,-669.8
27.33,-0.0596,-0.1876,1.7629,-0.17,1.57,0.75,-11.01,-1098.8,-672.3
27.4,-0.0448,-0.1956,1.7629,-0.17,1.57,1.21,-11.01,-984.2,-675.2
27.47,-0.0366,-0.1907,1.7629,-0.17,1.57,0.93,-11.0,-1266.8,-677.6
27.54,-0.047,-0.1916,1.7629,-0.17,1.57,0.98,-11.01,-1149.8,-681.3
27.611,-0.0542,-0.1931,1.7629,-0.17,1.57,1.06,-11.01,-1133.9,-683.3
27.682,-0.0656,-0.1984,1.7629,-0.17,1.57,1.37,-11.01,-1041.3,-686.4
27.752,-0.072,-0.2003,1.7629,-0.17,1.57,1.47,-11.01,-1107.2,-689.4
27.823,-0.0616,-0.1909,1.7629,-0.17,1.57,0.94,-11.01,-1342.9,-691.5
27.892,-0.0593,-0.1928,1.7629,-0.17,1.57,1.05,-11.01,-1119.0,-695.3
27.963,-0.0612,-0.1853,1.7629,-0.17,1.57,0.61,-11.01,-1316.1,-698.2
28.034,-0.055,-0.1858,1.7629,-0.17,1.57,0.65,-11.01,-1158.4,-700.9
28.103,-0.0558,-0.1814,1.7629,-0.17,1.57,0.39,-11.01,-1264.9,-703.7
28.174,-0.0676,-0.1837,1.7629,-0.17,1.57,0.53,-11.01,-1125.4,-706.4
28.245,-0.0575,-0.1745,1.7629,-0.17,1.57,-0.0,-11.01,-1361.2,-709.9
28.314,-0.0624,-0.1589,1.7629,-0.17,1.57,-0.9,-11.01,-1495.7,-713.5
28.385,-0.0637,-0.1592,1.7629,-0.17,1.57,-0.88,-11.01,-1210.0,-715.3
28.456,-0.0522,-0.1667,1.7629,-0.17,1.57,-0.45,-11.01,-1047.3,-718.5
28.525,-0.0567,-0.1808,1.7629,-0.17,1.57,0.36,-11.01,-842.1,-720.3
28.596,-0.0487,-0.1924,1.7629,-0.17,1.57,1.02,-11.01,-884.0,-722.5
28.667,-0.0547,-0.1794,1.7629,-0.17,1.57,0.28,-11.01,-1243.8,-725.7
28.747,-0.0604,-0.1767,1.7629,-0.17,1.57,0.12,-11.01,-1232.2,-728.8
28.816,-0.0478,-0.182,1.7629,-0.17,1.57,0.43,-11.01,-1056.6,-731.2
28.885,-0.0432,-0.1671,1.7629,-0.17,1.57,-0.43,-11.01,-1400.2,-734.4
28.953,-0.0474,-0.1589,1.7629,-0.17,1.57,-0.9,-11.01,-1371.6,-737.4
29.022,-0.0487,-0.1612,1.7629,-0.17,1.57,-0.76,-11.01,-1163.3,-739.9
29.091,-0.0485,-0.1537,1.7629,-0.17,1.57,-1.19,-11.01,-1368.4,-742.7
29.16,-0.0588,-0.1451,1.7629,-0.17,1.57,-1.68,-11.01,-1399.4,-746.1
29.228,-0.0453,-0.1631,1.7629,-0.17,1.57,-0.66,-11.01,-1060.2,-747.6
29.297,-0.049,-0.1613,1.7629,-0.17,1.57,-0.76,-11.01,-1251.6,-749.9
29.366,-0.0466,-0.1577,1.7629,-0.17,1.57,-0.97,-11.01,-1293.9,-752.5
29.436,-0.0477,-0.1418,1.7629,-0.17,1.57,-1.87,-11.01,-1523.1,-756.4
29.505,-0.0663,-0.1346,1.7629,-0.17,1.57,-2.29,-11.01,-1397.6,-758.7
29.574,-0.069,-0.1409,1.7629,-0.17,1.57,-1.93,-11.01,-1128.5,-761.6
29.643,-0.0586,-0.1372,1.7629,-0.17,1.57,-2.14,-11.01,-1334.8,-763.5
29.71,-0.0647,-0.1456,1.7629,-0.17,1.57,-1.66,-11.01,-1075.6,-765.9
29.779,-0.0569,-0.1522,1.7629,-0.17,1.57,-1.28,-11.01,-1104.5,-768.3
29.847,-0.0587,-0.1429,1.7629,-0.17,1.57,-1.81,-11.01,-1430.7,-770.9
29.916,-0.0624,-0.1418,1.7629,-0.17,1.57,-1.87,-11.01,-1283.2,-773.1
29.985,-0.0474,-0.1463,1.7629,-0.17,1.57,-1.62,-11.01,-1169.0,-775.5
30.054,-0.0593,-0.1596,1.7629,-0.17,1.57,-0.85,-11.01,-935.5,-778.0
30.122,-0.0636,-0.1592,1.7629,-0.17,1.57,-0.88,-11.01,-1245.6,-779.8
30.191,-0.0607,-0.1632,1.7629,-0.17,1.57,-0.65,-11.01,-1149.8,-782.2
30.26,-0.0546,-0.1664,1.7629,-0.17,1.57,-0.47,-11.01,-1160.9,-784.8
30.331,-0.0575,-0.1891,1.7629,-0.17,1.57,0.83,-11.01,-808.0,-785.8
30.399,-0.0665,-0.205,1.7629,-0.17,1.57,1.75,-11.01,-741.9,-787.4
30.467,-0.0555,-0.2053,1.7629,-0.17,1.57,1.76,-11.01,-1081.8,-790.4
30.537,-0.0445,-0.1938,1.7629,-0.17,1.57,1.1,-11.01,-1386.6,-792.9
30.607,-0.0489,-0.2047,1.7629,-0.17,1.57,1.73,-11.01,-1040.3,-794.8
30.675,-0.0664,-0.1997,1.7629,-0.17,1.57,1.44,-11.01,-1258.0,-797.0
30.744,-0.0657,-0.2111,1.7629,-0.17,1.57,2.09,-11.01,-915.1,-799.3
30.813,-0.0643,-0.1985,1.7629,-0.17,1.57,1.37,-11.01,-1262.4,-802.4
30.883,-0.0719,-0.1972,1.7629,-0.17,1.57,1.3,-11.01,-1181.4,-804.1
30.951,-0.0749,-0.1913,1.7629,-0.17,1.57,0.96,-11.01,-1287.0,-807.3
31.017,-0.0776,-0.1913,1.7629,-0.17,1.57,0.96,-11.01,-1164.7,-809.4
31.084,-0.0776,-0.1715,1.7629,-0.17,1.57,-0.17,-11.01,-1496.4,-812.9
31.15,-0.0714,-0.185,1.7629,-0.17,1.57,0.6,-11.01,-1166.3,-814.3
31.215,-0.0616,-0.1849,1.7629,-0.17,1.57,0.59,-11.01,-1178.7,-817.3
31.281,-0.0661,-0.172,1.7629,-0.17,1.57,-0.15,-11.01,-1446.8,-819.0
31.348,-0.0644,-0.1646,1.7629,-0.17,1.57,-0.57,-11.01,-1356.9,-821.7
31.413,-0.0584,-0.1582,1.7629,-0.17,1.57,-0.94,-11.01,-1349.6,-824.6
31.479,-0.061,-0.15,1.7629,-0.17,1.57,-1.4,-11.01,-1396.2,-827.0
31.545,-0.0625,-0.1448,1.7629,-0.17,1.57,-1.7,-11.01,-1350.5,-829.4
31.611,-0.0582,-0.1575,1.7629,-0.17,1.57,-0.98,-11.01,-1020.9,-831.3
31.677,-0.0543,-0.1579,1.7629,-0.17,1.57,-0.95,-11.01,-1217.9,-833.0
31.744,-0.0579,-0.1639,1.7629,-0.17,1.57,-0.61,-11.0,-1085.4,-834.5
31.81,-0.0414,-0.1778,1.7629,-0.17,1.57,0.19,-11.01,-849.4,-837.1
31.876,-0.0426,-0.1929,1.7629,-0.17,1.57,1.05,-11.01,-768.9,-838.2
31.942,-0.0497,-0.1866,1.7629,-0.17,1.57,0.69,-11.01,-1099.1,-840.6
32.009,-0.0548,-0.1747,1.7629,-0.17,1.57,0.01,-11.01,-1425.6,-843.4
32.076,-0.0469,-0.1676,1.763,-0.17,1.57,-0.39,-11.01,-1348.1,-846.6
32.142,-0.0422,-0.1834,1.7629,-0.17,1.57,0.51,-11.01,-1017.9,-847.1
32.208,-0.051,-0.1628,1.7629,-0.17,1.57,-0.67,-11.01,-1350.2,-850.2
32.275,-0.0696,-0.2107,1.7629,-0.17,1.57,2.07,-11.01,-1018.4,-850.3
32.34,-0.069,-0.2211,1.7629,-0.17,1.57,2.67,-11.01,-835.4,-852.0
32.407,-0.0784,-0.2105,1.7629,-0.17,1.57,2.06,-11.01,-1167.2,-854.7
32.473,-0.087,-0.209,1.7629,-0.17,1.57,1.98,-11.01,-1158.6,-856.6
32.539,-0.0867,-0.2187,1.7629,-0.17,1.57,2.53,-11.01,-851.1,-858.5
32.605,-0.0663,-0.2051,1.7629,-0.17,1.57,1.75,-11.01,-1183.3,-861.0
32.672,-0.0573,-0.1844,1.7629,-0.17,1.57,0.56,-11.01,-1515.5,-864.6
32.739,-0.0444,-0.2042,1.7629,-0.17,1.57,1.7,-11.01,-1180.1,-865.2
32.805,-0.04,-0.1986,1.7629,-0.17,1.57,1.38,-11.01,-1255.2,-867.8
32.872,-0.0451,-0.2052,1.7629,-0.17,1.57,1.76,-11.01,-960.3,-870.0
32.938,-0.0316,-0.1776,1.7629,-0.17,1.57,0.18,-11.01,-1292.6,-872.6
33.004,-0.0164,-0.1581,1.7629,-0.17,1.57,-0.94,-11.01,-1566.0,-876.3
33.071,-0.0102,-0.164,1.7629,-0.17,1.57,-0.6,-11.01,-1231.1,-878.1
33.138,-0.0315,-0.1843,1.7629,-0.17,1.57,0.56,-11.01,-898.3,-878.9
33.204,-0.0357,-0.2319,1.7629,-0.17,1.57,3.28,-11.01,-568.6,-879.1
33.27,-0.0398,-0.2014,1.7629,-0.17,1.57,1.54,-11.01,-900.9,-882.2
33.336,-0.0523,-0.1975,1.7629,-0.17,1.57,1.32,-11.01,-1212.4,-884.8
33.403,-0.0448,-0.1855,1.7629,-0.17,1.57,0.63,-11.01,-1388.8,-887.2
33.469,-0.0414,-0.1847,1.763,-0.17,1.57,0.58,-11.01,-1168.6,-889.7
33.536,-0.0463,-0.1897,1.7629,-0.17,1.57,0.87,-11.01,-1024.5,-891.1
33.602,-0.065,-0.2022,1.7629,-0.17,1.57,1.59,-11.01,-779.0,-892.7
33.668,-0.0607,-0.2097,1.763,-0.17,1.57,2.01,-11.01,-910.3,-895.0
33.735,-0.0532,-0.1797,1.763,-0.17,1.57,0.29,-11.01,-1244.3,-897.9
33.803,-0.0294,-0.1826,1.7629,-0.17,1.57,0.46,-11.01,-1083.9,-899.4
33.872,-0.0442,-0.1722,1.763,-0.17,1.57,-0.13,-11.01,-1365.9,-902.5
33.941,-0.0651,-0.1709,1.7629,-0.17,1.57,-0.21,-11.01,-1196.7,-904.3
34.011,-0.0549,-0.1653,1.763,-0.17,1.57,-0.53,-11.01,-1289.4,-907.1
34.082,-0.0728,-0.1579,1.7629,-0.17,1.57,-0.95,-11.01,-1331.8,-909.0
34.154,-0.0958,-0.1468,1.7629,-0.17,1.57,-1.59,-11.01,-1412.8,-911.9
34.223,-0.0705,-0.1557,1.7629,-0.17,1.57,-1.08,-11.01,-1068.0,-913.3
34.293,-0.0606,-0.1716,1.7629,-0.17,1.57,-0.17,-11.01,-782.0,-915.0
34.364,-0.0648,-0.1594,1.7629,-0.17,1.57,-0.87,-11.01,-1132.8,-917.5
34.433,-0.0683,-0.1651,1.7629,-0.17,1.57,-0.54,-11.01,-1061.2,-919.6
34.504,-0.0775,-0.1678,1.7629,-0.17,1.57,-0.39,-11.01,-1125.4,-921.5
34.574,-0.0794,-0.1674,1.7629,-0.17,1.57,-0.41,-11.01,-1188.4,-923.4
34.644,-0.0757,-0.1671,1.7629,-0.17,1.57,-0.43,-11.01,-1189.4,-925.6
34.714,-0.0757,-0.1745,1.7629,-0.17,1.57,-0.0,-11.0,-1004.7,-927.3
34.785,-0.0593,-0.1659,1.7629,-0.17,1.57,-0.49,-11.0,-1343.1,-929.9
34.855,-0.0612,-0.1623,1.7629,-0.17,1.57,-0.7,-11.01,-1261.4,-932.3
34.925,-0.0641,-0.1717,1.7629,-0.17,1.57,-0.16,-11.01,-965.6,-933.8
34.998,-0.0529,-0.159,1.7629,-0.17,1.57,-0.89,-11.01,-1326.4,-936.4
35.068,-0.0647,-0.1555,1.7629,-0.17,1.57,-1.09,-11.01,-1273.0,-939.1
35.137,-0.06,-0.1561,1.7629,-0.17,1.57,-1.06,-11.01,-1192.1,-940.4
35.208,-0.0628,-0.1618,1.7629,-0.17,1.57,-0.73,-11.01,-1076.2,-942.7
35.278,-0.0564,-0.1423,1.7629,-0.17,1.57,-1.85,-11.01,-1425.6,-945.2
35.348,-0.0467,-0.1582,1.7629,-0.17,1.57,-0.94,-11.01,-1072.9,-946.6
35.419,-0.0511,-0.1479,1.7629,-0.17,1.57,-1.53,-11.01,-1409.4,-949.2
35.489,-0.0544,-0.165,1.7629,-0.17,1.57,-0.55,-11.01,-1059.6,-951.2
35.56,-0.0538,-0.1619,1.7629,-0.17,1.57,-0.72,-11.01,-1260.6,-952.5
35.63,-0.0494,-0.1617,1.7629,-0.17,1.57,-0.74,-11.01,-1207.0,-954.8
35.699,-0.0592,-0.1584,1.7629,-0.17,1.57,-0.93,-11.01,-1272.3,-956.7
35.771,-0.0665,-0.1855,1.7629,-0.17,1.57,0.63,-11.01,-913.9,-958.1
35.841,-0.0626,-0.1894,1.7629,-0.17,1.57,0.85,-11.01,-1067.4,-960.1
35.913,-0.0704,-0.182,1.7629,-0.17,1.57,0.43,-11.01,-1303.9,-962.2
35.985,-0.0638,-0.1816,1.7629,-0.17,1.57,0.41,-11.01,-1171.7,-964.5
36.055,-0.069,-0.1794,1.7629,-0.17,1.57,0.28,-11.01,-1213.5,-966.3
36.123,-0.0648,-0.1849,1.7629,-0.17,1.57,0.6,-11.01,-1030.3,-968.1
36.192,-0.0609,-0.1882,1.7629,-0.17,1.57,0.78,-11.01,-1079.3,-970.0
36.271,-0.0673,-0.1825,1.7629,-0.17,1.57,0.46,-11.01,-1258.6,-972.4
36.34,-0.0759,-0.1856,1.7629,-0.17,1.57,0.64,-11.01,-1085.8,-974.1
36.409,-0.0712,-0.1792,1.7629,-0.17,1.57,0.27,-11.01,-1291.4,-976.5
36.478,-0.0722,-0.1781,1.7629,-0.17,1.57,0.21,-11.01,-1188.6,-978.5
36.547,-0.0602,-0.1763,1.7629,-0.17,1.57,0.1,-11.01,-1205.0,-980.2
36.614,-0.0485,-0.1783,1.7629,-0.17,1.57,0.22,-11.01,-1121.2,-982.3
36.68,-0.0426,-0.1807,1.7629,-0.17,1.57,0.35,-11.01,-1107.5,-984.0
36.746,-0.0456,-0.1761,1.7629,-0.17,1.57,0.09,-11.01,-1263.3,-986.1
36.812,-0.042,-0.1673,1.7629,-0.17,1.57,-0.41,-11.01,-1357.8,-988.4
36.879,-0.0452,-0.1602,1.7629,-0.17,1.57,-0.82,-11.01,-1340.1,-990.1
36.944,-0.0498,-0.1449,1.7629,-0.17,1.57,-1.7,-11.01,-1511.9,-992.8
37.011,-0.0584,-0.1576,1.7629,-0.17,1.57,-0.97,-11.01,-1179.2,-994.1
37.078,-0.0651,-0.1545,1.7629,-0.17,1.57,-1.15,-11.01,-1272.6,-995.7
37.15,-0.0569,-0.1655,1.7629,-0.17,1.57,-0.52,-11.0,-955.7,-997.4
37.219,-0.0618,-0.1773,1.7629,-0.17,1.57,0.16,-11.01,-888.0,-999.1
37.287,-0.0625,-0.1758,1.7629,-0.17,1.57,0.07,-11.01,-1204.7,-1001.4
37.357,-0.0547,-0.1617,1.7629,-0.17,1.57,-0.74,-11.01,-1456.1,-1003.4
37.433,-0.0563,-0.159,1.7629,-0.17,1.57,-0.89,-11.01,-1251.5,-1005.4
37.508,-0.0483,-0.1598,1.7629,-0.17,1.57,-0.84,-11.01,-1189.5,-1007.9
37.575,-0.0606,-0.1635,1.7629,-0.17,1.57,-0.63,-11.01,-1115.8,-1009.4
37.641,-0.0609,-0.1648,1.7629,-0.17,1.57,-0.56,-11.01,-1168.0,-1011.1
37.707,-0.0578,-0.1647,1.7629,-0.17,1.57,-0.56,-11.01,-1199.2,-1013.2
37.773,-0.0582,-0.1641,1.7629,-0.17,1.57,-0.6,-11.01,-1210.8,-1014.8
37.84,-0.068,-0.1693,1.7629,-0.17,1.57,-0.3,-11.01,-1073.4,-1016.2
37.907,-0.062,-0.1571,1.7629,-0.17,1.57,-1.0,-11.01,-1404.6,-1018.9
37.973,-0.071,-0.1602,1.7629,-0.17,1.57,-0.82,-11.01,-1137.3,-1020.4
38.039,-0.0827,-0.1698,1.7629,-0.17,1.57,-0.27,-11.01,-964.7,-1021.6
38.107,-0.0722,-0.1723,1.7629,-0.17,1.57,-0.13,-11.01,-1131.7,-1023.4
38.173,-0.0825,-0.1738,1.7629,-0.17,1.57,-0.04,-11.01,-1149.5,-1025.0
38.24,-0.0873,-0.1746,1.7629,-0.17,1.57,0.01,-11.01,-1164.0,-1027.0
38.306,-0.0667,-0.1639,1.7629,-0.17,1.57,-0.61,-11.01,-1410.2,-1029.3
38.372,-0.0623,-0.1663,1.7629,-0.17,1.57,-0.47,-11.01,-1143.4,-1031.1
38.438,-0.052,-0.1686,1.7629,-0.17,1.57,-0.34,-11.01,-1143.7,-1032.5
38.505,-0.0617,-0.1697,1.7629,-0.17,1.57,-0.27,-11.01,-1165.7,-1034.1
38.572,-0.0431,-0.1714,1.7629,-0.17,1.57,-0.18,-11.01,-1151.6,-1036.0
38.638,-0.0352,-0.1734,1.7629,-0.17,1.57,-0.07,-11.01,-1142.0,-1037.7
38.704,-0.0374,-0.1705,1.7629,-0.17,1.57,-0.23,-11.01,-1250.0,-1039.2
38.77,-0.0323,-0.1638,1.7629,-0.17,1.57,-0.61,-11.01,-1334.5,-1041.8
38.836,-0.0307,-0.1629,1.7629,-0.17,1.57,-0.67,-11.01,-1223.0,-1043.5
38.904,-0.0246,-0.1514,1.7629,-0.17,1.57,-1.33,-11.01,-1440.1,-1045.4
38.971,-0.0299,-0.1583,1.7629,-0.17,1.57,-0.93,-11.01,-1103.3,-1047.1
39.039,-0.0428,-0.1647,1.7629,-0.17,1.57,-0.56,-11.01,-1061.4,-1048.4
39.106,-0.0512,-0.1667,1.7629,-0.17,1.57,-0.45,-11.01,-1159.5,-1050.3
39.174,-0.0528,-0.1686,1.7629,-0.17,1.57,-0.34,-11.01,-1156.3,-1051.8
39.24,-0.0535,-0.1602,1.7629,-0.17,1.57,-0.82,-11.01,-1377.3,-1054.3
39.306,-0.0661,-0.1658,1.7629,-0.17,1.57,-0.5,-11.01,-1076.1,-1055.4
39.374,-0.0494,-0.175,1.7629,-0.17,1.57,0.03,-11.01,-978.6,-1057.4
39.441,-0.0548,-0.1757,1.7629,-0.17,1.57,0.07,-11.01,-1169.4,-1058.6
39.506,-0.0496,-0.1757,1.7629,-0.17,1.57,0.07,-11.01,-1184.1,-1060.5
39.573,-0.0364,-0.1723,1.7629,-0.17,1.57,-0.13,-11.01,-1262.2,-1062.3
39.639,-0.0375,-0.1698,1.7629,-0.17,1.57,-0.27,-11.01,-1247.0,-1064.2
39.706,-0.0368,-0.166,1.7629,-0.17,1.57,-0.49,-11.01,-1278.9,-1065.8
39.772,-0.0463,-0.1658,1.7629,-0.17,1.57,-0.5,-11.01,-1208.6,-1067.7
39.838,-0.0404,-0.1647,1.7629,-0.17,1.57,-0.56,-11.01,-1227.5,-1069.4
39.904,-0.054,-0.1671,1.7629,-0.17,1.57,-0.42,-11.01,-1149.5,-1070.9
39.97,-0.0534,-0.1705,1.7629,-0.17,1.57,-0.23,-11.01,-1121.0,-1072.8
40.037,-0.0545,-0.1619,1.7629,-0.17,1.57,-0.72,-11.01,-1378.0,-1074.6
40.103,-0.0652,-0.1678,1.7629,-0.17,1.57,-0.38,-11.01,-1069.6,-1076.4
40.169,-0.0665,-0.1728,1.7629,-0.17,1.57,-0.1,-11.01,-1080.6,-1077.6
40.235,-0.0649,-0.1622,1.7629,-0.17,1.57,-0.71,-11.01,-1410.9,-1079.8
40.301,-0.0639,-0.1557,1.7629,-0.17,1.57,-1.08,-11.01,-1352.7,-1081.5
