time,roll,pitch,yaw,rp_rpm,ry_rpm,err_p,err_y,mp_rpm,my_rpm
0.041,-0.0542,0.0626,0.0007,-0.43,0.0,-28.33,0.17,-298.4,164.1
0.107,-0.0532,0.0597,0.0006,-0.42,0.01,-27.75,0.5,-630.6,220.8
0.174,-0.0548,0.0574,0.0006,-0.42,0.02,-27.2,0.83,-963.4,258.8
0.241,-0.0601,0.0609,0.0006,-0.41,0.02,-26.98,1.17,-1300.0,299.8
0.307,-0.0545,0.0631,0.0006,-0.4,0.03,-26.7,1.5,-1400.4,337.9
0.373,-0.0644,0.0655,0.0006,-0.4,0.03,-26.43,1.83,-1419.2,378.1
0.44,-0.0629,0.0748,0.0006,-0.39,0.04,-26.56,2.17,-1562.3,417.9
0.511,-0.0611,0.0753,0.0006,-0.38,0.04,-26.16,2.52,-1428.5,460.8
0.58,-0.0572,0.0782,0.0006,-0.37,0.05,-25.92,2.87,-1486.1,504.0
0.649,-0.0602,0.0794,0.0006,-0.37,0.06,-25.58,3.21,-1475.6,545.7
0.719,-0.051,0.0794,0.0006,-0.36,0.06,-25.18,3.56,-1468.8,587.4
0.79,-0.0611,0.086,0.0006,-0.35,0.07,-25.17,3.91,-1595.6,633.1
0.862,-0.0509,0.0862,0.0006,-0.35,0.08,-24.78,4.27,-1512.7,654.4
0.933,-0.046,0.079,0.0006,-0.34,0.08,-23.99,4.63,-1398.7,676.0
1.004,-0.0425,0.0692,0.0006,-0.33,0.09,-23.07,4.98,-1353.7,696.5
1.074,-0.0599,0.0769,0.0006,-0.33,0.09,-23.16,5.34,-1656.5,717.8
1.145,-0.0584,0.0758,0.0006,-0.32,0.1,-22.76,5.69,-1537.8,736.4
1.215,-0.0487,0.0781,0.0006,-0.32,0.11,-22.56,6.04,-1607.3,756.1
1.285,-0.037,0.0741,0.0006,-0.31,0.11,-22.02,6.39,-1519.2,773.9
1.355,-0.0406,0.0699,0.0006,-0.31,0.12,-21.48,6.74,-1526.3,792.8
1.425,-0.0366,0.0834,0.0006,-0.3,0.12,-21.97,7.09,-1810.3,811.6
1.495,-0.0322,0.0758,0.0006,-0.3,0.13,-21.27,7.44,-1511.8,828.3
1.566,-0.042,0.0602,0.0006,-0.29,0.14,-20.13,7.79,-1376.2,845.7
1.636,-0.0506,0.056,0.0006,-0.29,0.14,-19.65,8.14,-1569.9,863.5
1.706,-0.0346,0.0328,0.0006,-0.28,0.15,-18.1,8.49,-1222.8,879.7
1.775,-0.0351,0.0353,0.0006,-0.28,0.15,-18.04,8.84,-1571.2,897.6
1.845,-0.047,0.026,0.0006,-0.28,0.16,-17.32,9.19,-1491.8,913.6
1.915,-0.0433,0.0112,0.0006,-0.27,0.17,-16.31,9.54,-1398.1,929.5
1.985,-0.0477,0.0039,0.0006,-0.27,0.17,-15.74,9.89,-1524.9,945.5
2.055,-0.0534,-0.0078,0.0006,-0.27,0.18,-14.94,10.24,-1453.0,960.9
2.125,-0.048,-0.0252,0.0007,-0.27,0.19,-13.83,10.59,-1343.8,976.1
2.196,-0.0491,-0.0333,0.0006,-0.26,0.19,-13.27,10.94,-1505.3,992.3
2.267,-0.0528,-0.0373,0.0006,-0.26,0.2,-12.97,11.3,-1578.0,1007.4
2.337,-0.0613,-0.0529,0.0006,-0.26,0.2,-12.02,11.65,-1381.8,1021.9
2.408,-0.058,-0.0875,0.0006,-0.26,0.21,-10.0,12.01,-1027.1,1036.3
2.479,-0.0551,-0.105,0.0006,-0.26,0.22,-8.99,12.36,-1298.2,1050.3
2.549,-0.0451,-0.1411,0.0006,-0.26,0.22,-6.92,12.71,-947.4,1064.0
2.619,-0.0557,-0.1698,0.0006,-0.26,0.23,-5.3,13.06,-962.2,1076.6
2.69,-0.0587,-0.1775,0.0006,-0.26,0.23,-4.9,13.41,-1316.8,1088.9
2.76,-0.0602,-0.2005,0.0006,-0.26,0.24,-3.64,13.76,-1063.3,1102.4
2.83,-0.055,-0.216,0.0006,-0.27,0.25,-2.84,14.11,-1204.2,1114.6
2.899,-0.0612,-0.2376,0.0006,-0.27,0.25,-1.7,14.46,-1042.2,1126.4
2.969,-0.0534,-0.2488,0.0006,-0.27,0.26,-1.18,14.81,-1251.8,1138.2
3.039,-0.0639,-0.2566,0.0006,-0.27,0.27,-0.87,15.16,-1312.3,1149.7
3.109,-0.0679,-0.2765,0.0006,-0.27,0.27,0.12,15.51,-1040.7,1162.4
3.179,-0.0671,-0.2934,0.0006,-0.28,0.28,0.92,15.86,-1085.2,1172.9
3.249,-0.0676,-0.3003,0.0006,-0.28,0.28,1.12,16.21,-1285.1,1183.7
3.319,-0.0571,-0.3069,0.0006,-0.28,0.29,1.29,16.56,-1286.5,1195.7
3.389,-0.0507,-0.3104,0.0006,-0.29,0.3,1.27,16.91,-1347.1,1206.7
3.459,-0.0609,-0.3218,0.0106,-0.29,0.3,1.68,16.69,-1185.5,1133.6
3.529,-0.0634,-0.341,0.0143,-0.3,0.31,2.52,16.82,-994.4,1181.6
3.599,-0.0535,-0.3414,0.0158,-0.3,0.31,2.27,17.09,-1345.2,1204.7
3.668,-0.0438,-0.3478,0.0163,-0.31,0.32,2.35,17.41,-1268.3,1221.3
3.739,-0.0464,-0.3506,0.0165,-0.31,0.33,2.21,17.75,-1338.0,1234.1
3.81,-0.0465,-0.3413,0.0165,-0.32,0.33,1.35,18.11,-1561.2,1246.3
3.88,-0.0585,-0.3455,0.0165,-0.32,0.34,1.27,18.45,-1340.3,1258.8
3.95,-0.0694,-0.3437,0.0165,-0.33,0.34,0.82,18.8,-1455.2,1269.8
4.02,-0.0712,-0.3391,0.0165,-0.34,0.35,0.21,19.15,-1516.6,1281.1
4.09,-0.0681,-0.3277,0.0164,-0.34,0.36,-0.81,19.51,-1644.5,1292.8
4.161,-0.0625,-0.334,0.0164,-0.35,0.36,-0.83,19.86,-1364.7,1305.4
4.231,-0.068,-0.3249,0.0263,-0.36,0.37,-1.74,19.64,-1634.9,1237.7
4.3,-0.0712,-0.3167,0.0301,-0.36,0.38,-2.6,19.77,-1645.2,1283.0
4.37,-0.0573,-0.2976,0.0315,-0.37,0.38,-4.09,20.04,-1826.7,1307.3
4.442,-0.0361,-0.2946,0.032,-0.38,0.39,-4.68,20.37,-1616.9,1325.7
4.512,-0.0271,-0.2823,0.0421,-0.38,0.39,-5.81,20.15,-1778.1,1261.5
4.578,-0.0409,-0.2689,0.0459,-0.39,0.4,-6.97,20.26,-1832.7,1305.5
4.644,-0.0619,-0.2559,0.0473,-0.4,0.41,-8.12,20.51,-1852.7,1330.4
4.71,-0.0625,-0.2448,0.0577,-0.4,0.41,-9.16,20.24,-1852.4,1266.9
4.776,-0.0617,-0.264,0.0616,-0.41,0.42,-8.47,20.35,-1522.7,1316.8
4.842,-0.0601,-0.2517,0.073,-0.42,0.42,-9.58,20.03,-1852.9,1256.7
4.908,-0.0682,-0.2123,0.0772,-0.43,0.43,-12.26,20.11,-2000.0,1308.2
4.974,-0.0698,-0.2091,0.0888,-0.43,0.43,-12.85,19.78,-1852.4,1257.1
5.04,-0.083,-0.2279,0.1029,-0.44,0.44,-12.19,19.3,-1522.7,1228.2
5.106,-0.0684,-0.2477,0.1083,-0.45,0.45,-11.47,19.33,-1472.5,1290.2
5.172,-0.0693,-0.24,0.1202,-0.46,0.45,-12.33,18.97,-1802.1,1233.7
5.237,-0.0858,-0.2454,0.1246,-0.46,0.46,-12.42,19.05,-1736.9,1290.3
5.303,-0.0733,-0.2376,0.1361,-0.47,0.46,-13.28,18.72,-1945.2,1233.0
5.369,-0.0871,-0.2049,0.1503,-0.48,0.47,-15.56,18.24,-2000.0,1201.0
5.436,-0.0932,-0.2136,0.1555,-0.48,0.47,-15.47,18.27,-1944.7,1271.1
5.502,-0.0879,-0.2233,0.1674,-0.49,0.48,-15.31,17.92,-1768.3,1216.9
5.568,-0.0997,-0.2405,0.1817,-0.5,0.49,-14.71,17.43,-1652.8,1186.2
5.634,-0.1037,-0.2413,0.187,-0.5,0.49,-15.06,17.46,-1904.1,1250.1
5.7,-0.1072,-0.2654,0.1988,-0.51,0.5,-14.05,17.11,-1573.9,1197.4
5.766,-0.0895,-0.2821,0.213,-0.52,0.5,-13.46,16.62,-1657.0,1164.2
5.832,-0.0984,-0.2858,0.2183,-0.52,0.51,-13.62,16.65,-1857.5,1229.3
5.897,-0.1011,-0.3073,0.2301,-0.53,0.51,-12.74,16.3,-1579.8,1175.3
5.963,-0.098,-0.3149,0.2444,-0.54,0.52,-12.65,15.82,-1795.1,1141.7
6.029,-0.0985,-0.2901,0.2596,-0.54,0.53,-14.41,15.27,-2000.0,1117.9
6.095,-0.0705,-0.3002,0.2651,-0.55,0.53,-14.15,15.28,-1803.1,1194.5
6.161,-0.0737,-0.3181,0.277,-0.55,0.54,-13.44,14.93,-1682.0,1139.3
6.227,-0.0733,-0.3593,0.2913,-0.56,0.54,-11.38,14.45,-1352.4,1108.8
6.293,-0.0725,-0.3596,0.2965,-0.56,0.55,-11.66,14.47,-1682.1,1172.1
6.359,-0.057,-0.3719,0.3083,-0.57,0.55,-11.23,14.13,-1733.0,1116.4
6.425,-0.058,-0.3958,0.3126,-0.57,0.56,-10.13,14.22,-1531.8,1174.1
6.491,-0.0533,-0.4042,0.3239,-0.58,0.57,-9.9,13.89,-1768.1,1111.9
6.557,-0.0418,-0.4313,0.338,-0.58,0.57,-8.58,13.42,-1446.4,1079.9
6.622,-0.0402,-0.4482,0.3432,-0.58,0.58,-7.84,13.45,-1599.5,1144.4
6.688,-0.0578,-0.4623,0.3548,-0.59,0.58,-7.24,13.11,-1633.5,1087.4
6.754,-0.0641,-0.4784,0.3591,-0.59,0.59,-6.51,13.2,-1584.8,1143.4
6.82,-0.0688,-0.488,0.3705,-0.6,0.6,-6.14,12.87,-1678.0,1082.9
6.886,-0.0611,-0.4817,0.3746,-0.6,0.6,-6.67,12.97,-1916.0,1137.4
6.952,-0.0656,-0.4889,0.3859,-0.6,0.61,-6.4,12.65,-1721.0,1079.8
7.018,-0.0783,-0.4603,0.39,-0.6,0.61,-8.17,12.74,-2000.0,1133.6
7.084,-0.0649,-0.4696,0.4013,-0.6,0.62,-7.75,12.42,-1720.9,1078.6
7.15,-0.0751,-0.4898,0.4054,-0.61,0.62,-6.7,12.52,-1526.2,1134.1
7.216,-0.0873,-0.4997,0.4167,-0.61,0.63,-6.21,12.2,-1677.1,1072.7
7.281,-0.0526,-0.5073,0.4208,-0.61,0.64,-5.84,12.3,-1704.7,1127.5
7.347,-0.0457,-0.4759,0.4222,-0.61,0.64,-7.68,12.55,-2000.0,1153.5
7.413,-0.0643,-0.4772,0.4325,-0.61,0.65,-7.65,12.29,-1834.6,1089.1
7.479,-0.0641,-0.4754,0.4362,-0.61,0.65,-7.76,12.4,-1878.0,1140.4
7.545,-0.0682,-0.4932,0.4474,-0.61,0.66,-6.74,12.09,-1570.8,1081.6
7.611,-0.0848,-0.514,0.4515,-0.61,0.66,-5.53,12.19,-1487.7,1134.3
7.677,-0.0634,-0.4986,0.4529,-0.61,0.67,-6.37,12.44,-1817.5,1159.1
7.743,-0.0715,-0.5157,0.4632,-0.61,0.68,-5.34,12.18,-1545.4,1094.6
7.81,-0.073,-0.5202,0.4669,-0.61,0.68,-5.01,12.29,-1732.7,1142.7
7.876,-0.084,-0.5201,0.4682,-0.61,0.69,-4.93,12.55,-1796.4,1168.0
7.942,-0.091,-0.53,0.4784,-0.6,0.69,-4.25,12.3,-1631.9,1102.6
8.008,-0.0998,-0.5166,0.4822,-0.6,0.7,-4.89,12.41,-1962.0,1150.7
8.074,-0.0922,-0.5193,0.4834,-0.6,0.7,-4.6,12.67,-1746.4,1177.4
8.14,-0.1085,-0.529,0.4937,-0.6,0.71,-3.89,12.41,-1623.1,1112.3
8.206,-0.0905,-0.4986,0.4974,-0.59,0.72,-5.46,12.53,-1953.3,1160.3
8.272,-0.0729,-0.4843,0.4987,-0.59,0.72,-6.1,12.78,-2000.0,1188.9
8.338,-0.0789,-0.4878,0.509,-0.59,0.73,-5.7,12.53,-1755.3,1124.9
8.405,-0.0562,-0.4706,0.5128,-0.58,0.73,-6.47,12.64,-2000.0,1174.1
8.471,-0.0505,-0.4483,0.5141,-0.58,0.74,-7.51,12.9,-2000.0,1201.7
8.537,-0.0481,-0.4518,0.5243,-0.58,0.74,-7.07,12.64,-1796.4,1137.5
8.603,-0.0302,-0.437,0.5281,-0.57,0.75,-7.66,12.76,-2000.0,1187.3
8.669,-0.0471,-0.4173,0.5294,-0.57,0.76,-8.51,13.01,-2000.0,1214.3
8.734,-0.045,-0.4121,0.5397,-0.56,0.76,-8.53,12.75,-1940.6,1149.3
8.8,-0.0255,-0.3766,0.5435,-0.56,0.77,-10.27,12.86,-2000.0,1200.8
8.866,-0.034,-0.3811,0.5547,-0.55,0.77,-9.7,12.55,-1940.8,1143.5
8.932,-0.0544,-0.3718,0.5589,-0.54,0.78,-9.92,12.64,-2000.0,1197.9
8.998,-0.0436,-0.3775,0.5603,-0.54,0.79,-9.26,12.89,-1819.4,1225.6
9.064,-0.0613,-0.3949,0.5706,-0.53,0.79,-7.92,12.62,-1623.6,1159.1
9.13,-0.0399,-0.3946,0.5745,-0.53,0.8,-7.59,12.74,-1877.2,1208.7
9.196,-0.0461,-0.3998,0.5857,-0.52,0.8,-6.94,12.42,-1790.2,1151.0
9.262,-0.0281,-0.3856,0.5898,-0.51,0.81,-7.38,12.52,-2000.0,1204.8
9.328,-0.0389,-0.3758,0.6012,-0.51,0.81,-7.57,12.19,-2000.0,1148.0
9.397,-0.0312,-0.3812,0.6055,-0.5,0.82,-6.85,12.29,-1799.2,1204.5
9.464,-0.0458,-0.3656,0.6168,-0.49,0.83,-7.36,11.98,-2000.0,1148.3
9.532,-0.0642,-0.387,0.621,-0.49,0.83,-5.73,12.08,-1744.0,1202.8
9.603,-0.0668,-0.3964,0.6325,-0.48,0.84,-4.76,11.77,-1712.2,1149.6
9.672,-0.0587,-0.404,0.6367,-0.47,0.84,-3.9,11.88,-1719.7,1200.9
9.743,-0.0461,-0.3945,0.6481,-0.46,0.85,-4.0,11.58,-1947.9,1148.8
9.814,-0.0306,-0.3841,0.6523,-0.46,0.86,-4.16,11.7,-1963.5,1201.3
9.883,-0.0507,-0.3954,0.6636,-0.45,0.86,-3.08,11.4,-1655.6,1147.4
9.955,-0.0579,-0.4088,0.6677,-0.44,0.87,-1.86,11.51,-1604.5,1199.6
10.025,-0.0371,-0.4137,0.6791,-0.43,0.87,-1.13,11.22,-1710.3,1146.5
10.096,-0.0596,-0.4302,0.6833,-0.43,0.88,0.25,11.33,-1507.8,1197.2
10.166,-0.0542,-0.442,0.6946,-0.42,0.89,1.37,11.03,-1551.0,1143.6
10.236,-0.045,-0.4466,0.6987,-0.41,0.89,2.07,11.15,-1643.8,1194.0
10.306,-0.0396,-0.4529,0.7101,-0.4,0.9,2.86,10.85,-1599.3,1141.2
10.376,-0.0579,-0.4534,0.7142,-0.4,0.91,3.32,10.96,-1673.9,1191.8
10.448,-0.0657,-0.4582,0.7257,-0.39,0.91,4.04,10.66,-1592.6,1140.4
10.519,-0.0599,-0.4565,0.7298,-0.38,0.92,4.36,10.78,-1679.0,1190.3
10.588,-0.0727,-0.4428,0.7311,-0.37,0.92,3.98,11.05,-1849.5,1217.1
10.659,-0.0739,-0.4314,0.7415,-0.37,0.93,3.74,10.81,-1821.3,1156.9
10.729,-0.0738,-0.4026,0.7452,-0.36,0.94,2.49,10.95,-2000.0,1205.5
10.799,-0.0884,-0.4139,0.7564,-0.35,0.94,3.53,10.66,-1711.2,1151.2
10.87,-0.0911,-0.4069,0.7605,-0.35,0.95,3.51,10.77,-1767.8,1202.2
10.94,-0.0904,-0.4173,0.7719,-0.34,0.95,4.48,10.48,-1491.1,1149.0
11.011,-0.1013,-0.4302,0.776,-0.33,0.96,5.58,10.59,-1420.1,1199.6
11.081,-0.0925,-0.4293,0.7874,-0.33,0.97,5.88,10.29,-1627.8,1145.5
11.152,-0.0909,-0.4412,0.7915,-0.32,0.97,6.9,10.41,-1399.4,1196.4
11.221,-0.0712,-0.4324,0.7929,-0.32,0.98,6.72,10.68,-1720.6,1222.2
11.292,-0.0926,-0.4367,0.8032,-0.31,0.99,7.27,10.44,-1510.9,1161.5
11.362,-0.0824,-0.4308,0.807,-0.3,0.99,7.23,10.57,-1662.6,1208.0
11.432,-0.0696,-0.4236,0.8182,-0.3,1.0,7.1,10.28,-1683.8,1153.2
11.501,-0.0511,-0.4123,0.8223,-0.3,1.0,6.72,10.39,-1749.1,1204.2
11.572,-0.0395,-0.3887,0.8337,-0.29,1.01,5.62,10.09,-1927.9,1150.8
11.642,-0.0445,-0.3988,0.8378,-0.29,1.02,6.43,10.21,-1574.7,1204.0
11.712,-0.0486,-0.4039,0.8392,-0.28,1.02,6.94,10.48,-1497.5,1229.7
11.782,-0.0405,-0.3833,0.8495,-0.28,1.03,5.96,10.24,-1846.0,1166.2
11.852,-0.0322,-0.3685,0.8533,-0.28,1.03,5.3,10.37,-1822.5,1215.7
11.923,-0.0312,-0.3701,0.8645,-0.27,1.04,5.56,10.08,-1584.8,1160.7
11.993,-0.0344,-0.3636,0.8686,-0.27,1.05,5.33,10.19,-1708.8,1211.9
12.062,-0.0286,-0.3402,0.88,-0.27,1.05,4.12,9.89,-1957.9,1155.8
12.132,-0.0343,-0.3321,0.8841,-0.27,1.06,3.76,10.0,-1767.6,1210.2
12.204,-0.033,-0.3168,0.8956,-0.26,1.07,2.98,9.71,-1873.3,1156.2
12.275,-0.0589,-0.3599,0.8997,-0.26,1.07,5.52,9.82,-1519.4,1209.7
12.345,-0.0685,-0.3601,0.911,-0.26,1.08,5.58,9.53,-1613.1,1150.7
12.416,-0.0549,-0.3631,0.9152,-0.26,1.08,5.79,9.64,-1566.6,1203.3
12.486,-0.0562,-0.3663,0.9266,-0.26,1.09,5.99,9.34,-1559.4,1147.9
12.557,-0.0566,-0.3696,0.9308,-0.26,1.1,6.17,9.46,-1555.0,1200.1
12.627,-0.0656,-0.378,0.9421,-0.26,1.1,6.63,9.16,-1458.9,1143.9
12.697,-0.0603,-0.3537,0.9462,-0.26,1.11,5.19,9.27,-1808.4,1195.4
12.767,-0.0517,-0.3392,0.9576,-0.26,1.11,4.3,8.97,-1845.5,1140.2
12.837,-0.048,-0.3162,0.9617,-0.27,1.12,2.9,9.08,-1983.3,1194.2
12.908,-0.0316,-0.327,0.9731,-0.27,1.13,3.41,8.78,-1629.1,1139.6
12.978,-0.0467,-0.3235,0.9773,-0.27,1.13,3.09,8.9,-1729.7,1192.2
13.049,-0.0561,-0.3287,0.9886,-0.27,1.14,3.24,8.6,-1602.6,1135.1
13.12,-0.0672,-0.326,0.9927,-0.27,1.14,2.93,8.72,-1724.9,1188.7
13.19,-0.069,-0.3228,0.9942,-0.28,1.15,2.57,8.99,-1742.5,1215.9
13.26,-0.0647,-0.3056,1.0044,-0.28,1.16,1.39,8.75,-1949.4,1149.2
13.331,-0.0602,-0.3056,1.0082,-0.29,1.16,1.17,8.89,-1733.6,1200.7
13.401,-0.0709,-0.2927,1.0194,-0.29,1.17,0.21,8.6,-1922.9,1141.3
13.472,-0.0682,-0.3123,1.0235,-0.29,1.18,1.09,8.71,-1571.4,1196.6
13.541,-0.0727,-0.3231,1.0348,-0.3,1.18,1.45,8.42,-1578.0,1137.0
13.612,-0.0678,-0.3308,1.039,-0.3,1.19,1.61,8.53,-1625.4,1190.4
13.682,-0.0626,-0.3271,1.0504,-0.31,1.19,1.11,8.23,-1797.6,1132.1
13.752,-0.06,-0.3258,1.0545,-0.31,1.2,0.73,8.34,-1775.6,1186.0
13.823,-0.0803,-0.3235,1.0559,-0.32,1.21,0.27,8.62,-1800.5,1213.4
13.894,-0.0815,-0.3165,1.0662,-0.32,1.21,-0.46,8.38,-1878.4,1146.8
13.964,-0.0839,-0.3213,1.07,-0.33,1.22,-0.53,8.51,-1726.5,1197.3
14.034,-0.0478,-0.3222,1.0812,-0.34,1.22,-0.84,8.22,-1789.7,1137.7
14.104,-0.0503,-0.321,1.0853,-0.34,1.23,-1.27,8.34,-1827.7,1190.9
14.175,-0.0612,-0.3411,1.0966,-0.35,1.24,-0.5,8.04,-1509.2,1134.5
14.245,-0.05,-0.3264,1.1008,-0.36,1.24,-1.73,8.16,-1860.0,1185.1
14.316,-0.0461,-0.3067,1.1022,-0.36,1.25,-3.26,8.43,-2000.0,1212.7
14.387,-0.0702,-0.3298,1.1126,-0.37,1.26,-2.35,8.19,-1740.7,1150.1
14.458,-0.0603,-0.3453,1.1164,-0.38,1.26,-1.88,8.33,-1627.3,1197.5
14.525,-0.0385,-0.3517,1.1274,-0.38,1.27,-1.91,8.03,-1752.0,1133.7
14.591,-0.042,-0.3895,1.1314,-0.39,1.27,-0.14,8.13,-1421.5,1189.7
14.657,-0.053,-0.3985,1.1428,-0.4,1.28,-0.03,7.81,-1674.2,1124.5
14.723,-0.0637,-0.4016,1.1469,-0.41,1.28,-0.26,7.9,-1767.5,1178.4
14.79,-0.0716,-0.4022,1.1484,-0.41,1.29,-0.64,8.15,-1810.9,1205.0
14.856,-0.0746,-0.4122,1.1587,-0.42,1.3,-0.48,7.89,-1670.7,1135.9
14.922,-0.0684,-0.3997,1.1625,-0.43,1.3,-1.61,8.0,-2000.0,1184.2
14.988,-0.0886,-0.4032,1.1638,-0.44,1.31,-1.82,8.26,-1795.9,1211.3
15.055,-0.0974,-0.4062,1.1741,-0.44,1.31,-2.07,8.0,-1809.0,1141.6
15.122,-0.076,-0.4053,1.1779,-0.45,1.32,-2.54,8.12,-1872.6,1191.0
15.188,-0.0941,-0.4182,1.1891,-0.46,1.33,-2.22,7.81,-1669.6,1130.9
15.254,-0.0573,-0.4177,1.1932,-0.46,1.33,-2.66,7.91,-1871.6,1183.0
15.321,-0.0667,-0.4229,1.1947,-0.47,1.34,-2.77,8.16,-1796.1,1209.4
15.388,-0.0899,-0.4458,1.205,-0.48,1.34,-1.87,7.9,-1505.0,1142.6
15.454,-0.0779,-0.4258,1.2088,-0.49,1.35,-3.42,8.01,-1836.2,1187.3
15.521,-0.0792,-0.4302,1.22,-0.49,1.35,-3.57,7.7,-1824.3,1130.1
15.587,-0.0875,-0.4495,1.2241,-0.5,1.36,-2.85,7.8,-1587.5,1183.8
15.654,-0.0906,-0.4505,1.2256,-0.51,1.37,-3.18,8.05,-1863.7,1207.1
15.72,-0.1009,-0.466,1.2359,-0.51,1.37,-2.67,7.79,-1641.6,1140.2
15.786,-0.0801,-0.4514,1.2397,-0.52,1.38,-3.88,7.9,-1974.4,1186.4
15.853,-0.0649,-0.4502,1.241,-0.53,1.38,-4.31,8.16,-1915.1,1213.0
15.919,-0.0644,-0.4642,1.2513,-0.53,1.39,-3.86,7.9,-1690.7,1145.7
15.985,-0.0672,-0.4467,1.2551,-0.54,1.39,-5.21,8.01,-2000.0,1191.6
16.051,-0.0704,-0.4574,1.2564,-0.54,1.4,-4.93,8.27,-1763.6,1218.9
16.117,-0.0412,-0.4402,1.2667,-0.55,1.41,-6.24,8.01,-2000.0,1148.3
16.183,-0.0648,-0.4391,1.2705,-0.55,1.41,-6.61,8.12,-1958.5,1199.4
16.25,-0.0537,-0.4616,1.2817,-0.56,1.42,-5.62,7.81,-1627.0,1142.0
16.316,-0.0804,-0.4766,1.2858,-0.56,1.42,-5.05,7.9,-1705.3,1192.2
16.382,-0.0541,-0.4767,1.2873,-0.57,1.43,-5.32,8.15,-1919.5,1215.7
16.448,-0.0635,-0.4907,1.2976,-0.57,1.44,-4.78,7.89,-1713.7,1150.3
16.514,-0.0669,-0.4895,1.3014,-0.58,1.44,-5.09,8.0,-1932.3,1196.4
16.58,-0.0491,-0.4625,1.3028,-0.58,1.45,-6.87,8.26,-2000.0,1219.4
16.646,-0.0524,-0.4968,1.313,-0.59,1.45,-5.13,8.0,-1933.8,1158.5
16.712,-0.0508,-0.4718,1.3168,-0.59,1.46,-6.77,8.11,-2000.0,1200.4
16.778,-0.0192,-0.4919,1.3181,-0.59,1.46,-5.8,8.36,-1922.6,1228.3
16.844,-0.0278,-0.4782,1.3285,-0.6,1.47,-6.77,8.1,-2000.0,1159.3
16.91,-0.0524,-0.5028,1.3323,-0.6,1.48,-5.51,8.22,-1789.6,1209.9
16.976,-0.0731,-0.4949,1.3435,-0.6,1.48,-6.11,7.9,-2000.0,1148.8
17.042,-0.0497,-0.5049,1.3477,-0.6,1.49,-5.66,7.99,-1789.5,1201.6
17.107,-0.0603,-0.5057,1.3491,-0.61,1.49,-5.72,8.24,-1917.7,1225.4
17.173,-0.0384,-0.4907,1.3594,-0.61,1.5,-6.67,7.98,-2000.0,1159.6
17.239,-0.0476,-0.4889,1.3632,-0.61,1.5,-6.86,8.09,-1973.9,1209.0
17.305,-0.0399,-0.4845,1.3745,-0.61,1.51,-7.17,7.77,-2000.0,1151.4
17.371,-0.0783,-0.4841,1.3786,-0.61,1.52,-7.23,7.86,-1962.7,1203.2
17.437,-0.1064,-0.4901,1.3801,-0.61,1.52,-6.91,8.11,-1871.4,1228.7
17.503,-0.0693,-0.492,1.3904,-0.61,1.53,-6.81,7.85,-1925.7,1163.8
17.568,-0.0711,-0.5125,1.3942,-0.61,1.53,-5.63,7.96,-1632.9,1211.9
17.634,-0.0529,-0.5131,1.3955,-0.61,1.54,-5.57,8.21,-1917.2,1233.2
17.7,-0.0495,-0.5026,1.4058,-0.61,1.54,-6.13,7.95,-2000.0,1168.8
17.766,-0.0352,-0.5021,1.4096,-0.61,1.55,-6.09,8.06,-1941.3,1216.5
17.832,-0.0582,-0.5123,1.411,-0.61,1.56,-5.43,8.32,-1781.9,1240.6
17.898,-0.0562,-0.4935,1.4212,-0.61,1.56,-6.42,8.06,-2000.0,1175.2
17.964,-0.0696,-0.5228,1.4251,-0.6,1.57,-4.62,8.17,-1781.4,1224.7
18.03,-0.0526,-0.5337,1.4363,-0.6,1.57,-3.87,7.85,-1737.9,1167.5
18.095,-0.0681,-0.5503,1.4404,-0.6,1.58,-2.78,7.95,-1623.5,1216.0
18.161,-0.0373,-0.5492,1.4419,-0.6,1.58,-2.68,8.19,-1878.3,1238.7
18.227,-0.0523,-0.5587,1.4522,-0.59,1.59,-1.96,7.93,-1709.5,1178.1
18.293,-0.0505,-0.5666,1.4561,-0.59,1.6,-1.32,8.04,-1717.1,1222.4
18.359,-0.0322,-0.5609,1.4574,-0.59,1.6,-1.44,8.29,-1908.5,1244.4
18.425,-0.0533,-0.5643,1.4677,-0.58,1.61,-1.02,8.03,-1771.2,1184.7
18.491,-0.0409,-0.5507,1.4715,-0.58,1.61,-1.57,8.15,-2000.0,1228.4
18.557,-0.0558,-0.5528,1.4728,-0.57,1.62,-1.2,8.4,-1788.1,1252.6
18.623,-0.0696,-0.5542,1.4831,-0.57,1.63,-0.86,8.14,-1788.7,1192.1
18.688,-0.0736,-0.5514,1.4869,-0.56,1.63,-0.74,8.25,-1843.1,1236.2
18.754,-0.0939,-0.5617,1.4882,-0.56,1.64,0.13,8.5,-1629.6,1259.4
18.82,-0.106,-0.5683,1.4985,-0.55,1.64,0.81,8.24,-1667.7,1199.1
18.886,-0.1062,-0.5576,1.5023,-0.55,1.65,0.51,8.35,-1917.8,1242.1
18.952,-0.1166,-0.5594,1.5136,-0.54,1.65,0.93,8.04,-1731.1,1190.7
19.018,-0.0979,-0.52,1.5177,-0.54,1.66,-0.99,8.13,-2000.0,1236.9
19.084,-0.0786,-0.5206,1.5192,-0.53,1.67,-0.62,8.38,-1776.4,1264.6
19.15,-0.0823,-0.5217,1.5295,-0.53,1.67,-0.2,8.11,-1759.2,1204.4
19.216,-0.0625,-0.4917,1.5333,-0.52,1.68,-1.56,8.22,-2000.0,1248.5
19.282,-0.0543,-0.4815,1.5446,-0.51,1.68,-1.77,7.91,-1945.4,1196.4
19.348,-0.0535,-0.4713,1.5487,-0.51,1.69,-1.98,8.0,-1948.0,1245.8
19.416,-0.0528,-0.4298,1.5602,-0.5,1.69,-3.96,7.69,-2000.0,1193.8
19.483,-0.061,-0.4458,1.5644,-0.49,1.7,-2.65,7.78,-1957.5,1245.8
19.553,-0.0503,-0.4396,1.5759,-0.48,1.71,-2.58,7.47,-1903.9,1194.5
19.623,-0.073,-0.4492,1.5801,-0.48,1.71,-1.61,7.58,-1672.4,1243.5
19.693,-0.0446,-0.4593,1.5915,-0.47,1.72,-0.6,7.28,-1642.7,1192.0
19.762,-0.0458,-0.4438,1.6056,-0.46,1.72,-1.06,6.82,-1991.1,1161.0
19.833,-0.0562,-0.4484,1.6108,-0.45,1.73,-0.35,6.87,-1717.3,1221.2
19.904,-0.0572,-0.4502,1.6226,-0.45,1.74,0.19,6.55,-1745.4,1172.9
19.974,-0.0759,-0.4354,1.6269,-0.44,1.74,-0.22,6.66,-1967.3,1222.4
20.044,-0.0687,-0.4477,1.6383,-0.43,1.75,0.93,6.35,-1617.3,1171.8
20.114,-0.0634,-0.4402,1.6424,-0.42,1.76,0.94,6.47,-1852.1,1220.1
20.184,-0.0499,-0.4294,1.6538,-0.42,1.76,0.76,6.17,-1899.8,1167.8
20.254,-0.0441,-0.4032,1.6679,-0.41,1.77,-0.31,5.71,-2000.0,1135.9
20.325,-0.0639,-0.3993,1.6731,-0.4,1.77,-0.09,5.76,-1829.1,1198.4
20.397,-0.0425,-0.427,1.6849,-0.39,1.78,1.93,5.45,-1471.8,1150.3
20.468,-0.0544,-0.4263,1.6891,-0.39,1.79,2.32,5.56,-1736.2,1199.5
20.538,-0.0614,-0.4407,1.7005,-0.38,1.79,3.57,5.26,-1482.4,1146.5
20.608,-0.0556,-0.4487,1.7145,-0.37,1.8,4.43,4.8,-1561.8,1114.9
20.678,-0.0407,-0.4604,1.7197,-0.36,1.8,5.51,4.86,-1475.0,1175.0
20.75,-0.0268,-0.438,1.7315,-0.36,1.81,4.64,4.54,-1833.8,1122.7
20.821,-0.0311,-0.4319,1.7357,-0.35,1.82,4.68,4.65,-1754.5,1176.0
20.891,-0.052,-0.4247,1.7371,-0.34,1.82,4.64,4.92,-1772.0,1202.9
20.962,-0.0553,-0.4077,1.7474,-0.34,1.83,4.04,4.69,-1906.8,1139.6
21.032,-0.0723,-0.3886,1.7611,-0.33,1.84,3.3,4.26,-1949.4,1103.5
21.102,-0.0807,-0.3822,1.7661,-0.32,1.84,3.28,4.32,-1788.9,1165.0
21.172,-0.0669,-0.3851,1.7777,-0.32,1.85,3.78,4.0,-1649.0,1111.3
21.242,-0.0519,-0.3859,1.782,-0.31,1.85,4.15,4.11,-1672.6,1165.1
21.313,-0.0585,-0.4175,1.7934,-0.31,1.86,6.27,3.81,-1320.5,1110.7
21.384,-0.0505,-0.4137,1.7975,-0.3,1.87,6.34,3.93,-1673.8,1160.3
21.454,-0.0492,-0.4009,1.7989,-0.3,1.87,5.89,4.2,-1819.5,1186.9
21.524,-0.0388,-0.4062,1.8092,-0.29,1.88,6.45,3.96,-1549.1,1122.4
21.594,-0.0155,-0.4104,1.8129,-0.29,1.88,6.94,4.1,-1553.5,1170.5
21.665,-0.0207,-0.4141,1.8242,-0.29,1.89,7.38,3.81,-1551.2,1113.3
21.736,-0.0286,-0.4054,1.8282,-0.28,1.9,7.1,3.93,-1734.2,1163.8
21.806,-0.038,-0.4075,1.8395,-0.28,1.9,7.41,3.63,-1571.1,1106.4
21.877,-0.0471,-0.4039,1.8437,-0.28,1.91,7.39,3.75,-1654.7,1159.1
21.948,-0.056,-0.406,1.845,-0.27,1.92,7.67,4.03,-1563.3,1186.4
22.017,-0.0726,-0.3979,1.8553,-0.27,1.92,7.34,3.79,-1719.3,1119.0
22.087,-0.0664,-0.3874,1.859,-0.27,1.93,6.86,3.92,-1760.6,1168.2
22.158,-0.0727,-0.3918,1.8603,-0.27,1.93,7.22,4.2,-1535.2,1194.5
22.228,-0.0535,-0.3963,1.8706,-0.26,1.94,7.56,3.96,-1524.5,1128.0
22.298,-0.0452,-0.3852,1.8743,-0.26,1.95,6.99,4.1,-1764.9,1175.4
22.368,-0.0605,-0.3873,1.8756,-0.26,1.95,7.16,4.38,-1569.0,1201.4
22.438,-0.06,-0.3878,1.8859,-0.26,1.96,7.21,4.14,-1592.7,1134.9
22.509,-0.0625,-0.363,1.8896,-0.26,1.96,5.8,4.28,-1944.3,1182.1
22.579,-0.0658,-0.3466,1.8909,-0.26,1.97,4.85,4.55,-1877.6,1208.6
22.649,-0.0572,-0.3396,1.8912,-0.26,1.98,4.41,4.88,-1762.8,1226.1
22.719,-0.0559,-0.3009,1.9012,-0.26,1.98,2.15,4.67,-2000.0,1155.0
22.789,-0.0658,-0.3048,1.9048,-0.26,1.99,2.3,4.81,-1763.2,1205.3
22.859,-0.0658,-0.3223,1.916,-0.27,1.99,3.21,4.52,-1432.4,1146.6
22.93,-0.0585,-0.3117,1.9201,-0.27,2.0,2.5,4.63,-1783.4,1196.8
23.0,-0.0773,-0.3142,1.9215,-0.27,2.01,2.51,4.9,-1684.0,1224.1
23.07,-0.0805,-0.3061,1.9319,-0.27,2.01,1.9,4.66,-1843.7,1156.8
23.14,-0.0871,-0.3239,1.9357,-0.28,2.02,2.76,4.79,-1493.2,1207.1
23.21,-0.0803,-0.3402,1.9469,-0.28,2.03,3.51,4.5,-1457.4,1148.0
23.28,-0.083,-0.3476,1.9511,-0.28,2.03,3.74,4.61,-1593.6,1199.1
23.351,-0.0792,-0.3306,1.9525,-0.29,2.04,2.54,4.88,-1946.2,1223.8
23.421,-0.0734,-0.3331,1.9629,-0.29,2.04,2.46,4.64,-1696.0,1159.6
23.492,-0.0674,-0.3374,1.9667,-0.29,2.05,2.45,4.78,-1674.5,1208.2
23.563,-0.0561,-0.3137,1.9779,-0.3,2.06,0.83,4.49,-2000.0,1147.9
23.633,-0.0608,-0.3425,1.982,-0.3,2.06,2.2,4.6,-1680.3,1203.3
23.704,-0.0858,-0.3469,1.9835,-0.31,2.07,2.15,4.87,-1687.0,1227.2
23.775,-0.0896,-0.3361,1.9939,-0.31,2.07,1.22,4.64,-1907.2,1160.9
23.844,-0.0684,-0.3292,1.9976,-0.32,2.08,0.5,4.77,-1875.9,1209.4
23.915,-0.0729,-0.3163,2.0089,-0.33,2.09,-0.57,4.47,-1973.4,1150.4
23.985,-0.0745,-0.3216,2.013,-0.33,2.09,-0.62,4.59,-1743.2,1204.0
24.055,-0.0874,-0.3323,2.0244,-0.34,2.1,-0.36,4.29,-1662.3,1146.0
24.125,-0.0801,-0.3399,2.0286,-0.35,2.11,-0.3,4.4,-1709.0,1198.6
24.195,-0.0819,-0.3524,2.04,-0.35,2.11,0.04,4.1,-1633.1,1140.9
24.266,-0.0788,-0.3236,2.0441,-0.36,2.12,-2.01,4.21,-1984.1,1191.0
24.336,-0.0786,-0.3505,2.0555,-0.37,2.12,-0.87,3.91,-1633.0,1137.2
24.412,-0.0735,-0.3544,2.0599,-0.37,2.13,-1.09,4.04,-1790.7,1189.6
24.483,-0.0671,-0.3592,2.0711,-0.38,2.14,-1.23,3.75,-1779.3,1132.2
24.549,-0.0507,-0.3486,2.0751,-0.39,2.14,-2.23,3.85,-2000.0,1182.3
24.615,-0.0519,-0.37,2.0864,-0.39,2.15,-1.41,3.53,-1674.3,1122.0
24.681,-0.0535,-0.3666,2.0906,-0.4,2.15,-2.01,3.63,-1910.0,1175.0
24.747,-0.0447,-0.3681,2.1019,-0.41,2.16,-2.33,3.31,-1850.8,1113.5
24.814,-0.0637,-0.3808,2.1061,-0.42,2.17,-2.01,3.4,-1686.8,1170.0
24.88,-0.0496,-0.3825,2.1174,-0.42,2.17,-2.33,3.08,-1851.5,1106.5
24.946,-0.0497,-0.3984,2.1216,-0.43,2.18,-1.84,3.17,-1638.0,1163.5
25.012,-0.0647,-0.4165,2.133,-0.44,2.18,-1.21,2.85,-1587.4,1101.6
25.078,-0.051,-0.4162,2.1372,-0.44,2.19,-1.65,2.94,-1868.5,1154.8
25.145,-0.0719,-0.4046,2.1485,-0.45,2.19,-2.72,2.62,-2000.0,1091.4
25.211,-0.0801,-0.4096,2.1527,-0.46,2.2,-2.85,2.71,-1821.9,1149.4
25.278,-0.0783,-0.3968,2.1641,-0.47,2.21,-4.0,2.4,-2000.0,1085.5
25.344,-0.0844,-0.4163,2.1682,-0.47,2.21,-3.29,2.49,-1743.9,1144.6
25.41,-0.0643,-0.4109,2.1796,-0.48,2.22,-4.01,2.17,-1986.3,1079.1
25.477,-0.0788,-0.4339,2.1837,-0.49,2.22,-3.09,2.27,-1652.4,1138.4
25.543,-0.0699,-0.4485,2.195,-0.49,2.23,-2.65,1.95,-1681.8,1074.4
25.608,-0.0837,-0.4304,2.1992,-0.5,2.23,-4.07,2.04,-2000.0,1127.2
25.674,-0.0791,-0.4487,2.2105,-0.51,2.24,-3.4,1.72,-1681.2,1067.7
25.74,-0.0554,-0.4505,2.2147,-0.51,2.25,-3.67,1.81,-1887.8,1122.3
25.807,-0.071,-0.4603,2.2161,-0.52,2.25,-3.48,2.06,-1775.6,1150.1
25.873,-0.0721,-0.4826,2.2264,-0.53,2.26,-2.56,1.8,-1559.8,1079.6
25.938,-0.0743,-0.4633,2.2302,-0.53,2.26,-4.01,1.91,-1889.2,1126.1
26.004,-0.0622,-0.481,2.2315,-0.54,2.27,-3.34,2.17,-1651.3,1155.1
26.07,-0.0641,-0.4624,2.2417,-0.55,2.28,-4.74,1.91,-1979.9,1078.8
26.136,-0.0743,-0.4739,2.2455,-0.55,2.28,-4.39,2.02,-1765.2,1133.4
26.202,-0.0712,-0.4695,2.2468,-0.56,2.29,-4.95,2.28,-1993.3,1156.7
26.268,-0.0667,-0.4444,2.2471,-0.56,2.29,-6.69,2.59,-2000.0,1170.9
26.333,-0.0535,-0.4437,2.257,-0.57,2.3,-7.01,2.35,-1984.6,1098.0
26.399,-0.0672,-0.4624,2.2607,-0.57,2.3,-6.21,2.47,-1703.3,1149.3
26.465,-0.0664,-0.4233,2.2619,-0.58,2.31,-8.71,2.72,-2000.0,1168.5
26.531,-0.0808,-0.4504,2.2722,-0.58,2.32,-7.4,2.47,-1703.3,1103.4
26.596,-0.098,-0.4263,2.276,-0.58,2.32,-9.0,2.58,-2000.0,1148.5
26.662,-0.0926,-0.4271,2.2773,-0.59,2.33,-9.17,2.83,-2000.0,1176.2
26.728,-0.0919,-0.4465,2.2777,-0.59,2.33,-8.26,3.14,-1745.0,1192.8
26.794,-0.0846,-0.4598,2.2876,-0.59,2.34,-7.69,2.9,-1822.5,1118.7
26.859,-0.0735,-0.4427,2.2912,-0.6,2.34,-8.84,3.02,-2000.0,1163.7
26.925,-0.0511,-0.451,2.2925,-0.6,2.35,-8.52,3.27,-1910.3,1190.1
26.991,-0.0392,-0.4268,2.3028,-0.6,2.36,-10.04,3.01,-2000.0,1116.6
27.057,-0.0142,-0.4386,2.3066,-0.6,2.36,-9.49,3.12,-1910.3,1170.2
27.123,-0.038,-0.4437,2.3079,-0.61,2.37,-9.3,3.38,-1972.0,1193.9
27.189,-0.0413,-0.4674,2.3182,-0.61,2.37,-8.03,3.12,-1688.8,1126.2
27.254,-0.0644,-0.4752,2.3221,-0.61,2.38,-7.65,3.23,-1908.1,1172.8
27.321,-0.0357,-0.5053,2.3234,-0.61,2.38,-5.99,3.48,-1577.9,1198.2
27.386,-0.0488,-0.507,2.3238,-0.61,2.39,-5.93,3.79,-1907.6,1209.9
27.452,-0.0263,-0.4919,2.3338,-0.61,2.4,-6.81,3.55,-2000.0,1138.5
27.519,-0.0413,-0.472,2.3374,-0.61,2.4,-7.96,3.67,-2000.0,1185.5
27.585,-0.0144,-0.4654,2.3387,-0.61,2.41,-8.32,3.93,-2000.0,1210.2
27.651,-0.0492,-0.4495,2.349,-0.61,2.41,-9.2,3.67,-2000.0,1142.1
27.717,-0.0543,-0.4579,2.3528,-0.61,2.42,-8.67,3.78,-1924.0,1192.4
27.783,-0.0489,-0.4809,2.3542,-0.61,2.42,-7.29,4.03,-1693.5,1216.9
27.849,-0.0344,-0.448,2.3645,-0.61,2.43,-9.09,3.77,-2000.0,1145.2
27.915,-0.0092,-0.4689,2.3683,-0.6,2.44,-7.8,3.88,-1739.3,1197.9
27.982,-0.0245,-0.4822,2.3697,-0.6,2.44,-6.92,4.14,-1828.1,1220.5
28.048,-0.0118,-0.4905,2.38,-0.6,2.45,-6.31,3.88,-1886.0,1154.3
28.114,-0.0229,-0.4776,2.3838,-0.6,2.45,-6.9,3.99,-2000.0,1199.3
28.18,-0.0237,-0.5145,2.3851,-0.6,2.46,-4.62,4.24,-1833.4,1226.4
28.246,-0.0491,-0.4985,2.3955,-0.59,2.46,-5.36,3.98,-2000.0,1156.9
28.313,-0.0653,-0.5096,2.3993,-0.59,2.47,-4.53,4.09,-1833.9,1205.6
28.379,-0.0844,-0.526,2.4006,-0.58,2.48,-3.38,4.35,-1708.5,1228.8
28.445,-0.0678,-0.5278,2.411,-0.58,2.48,-3.05,4.09,-1907.2,1163.7
28.511,-0.0549,-0.5264,2.4148,-0.58,2.49,-2.89,4.2,-1945.2,1208.9
28.577,-0.0587,-0.5313,2.4161,-0.57,2.49,-2.35,4.46,-1848.3,1232.3
28.643,-0.0388,-0.4807,2.4165,-0.57,2.5,-4.99,4.76,-2000.0,1244.5
28.71,-0.0189,-0.5035,2.4264,-0.56,2.51,-3.4,4.52,-1846.8,1184.2
28.776,-0.0333,-0.4803,2.4301,-0.56,2.51,-4.44,4.64,-2000.0,1224.6
28.842,-0.0617,-0.4917,2.4314,-0.55,2.52,-3.48,4.9,-1846.3,1249.8
28.908,-0.0683,-0.4979,2.4417,-0.55,2.52,-2.81,4.64,-1838.7,1186.3
28.975,-0.0929,-0.5032,2.4456,-0.54,2.53,-2.18,4.75,-1837.6,1230.9
29.041,-0.1088,-0.4951,2.4469,-0.54,2.53,-2.3,5.01,-2000.0,1253.1
29.107,-0.1138,-0.4967,2.4572,-0.53,2.54,-1.86,4.75,-1879.8,1191.3
29.173,-0.0896,-0.5178,2.4611,-0.52,2.55,-0.29,4.86,-1557.2,1237.2
29.239,-0.0848,-0.5299,2.4624,-0.52,2.55,0.76,5.11,-1672.1,1258.5
29.305,-0.059,-0.5137,2.4628,-0.51,2.56,0.2,5.42,-2000.0,1271.6
29.374,-0.0744,-0.5388,2.4728,-0.5,2.56,2.04,5.19,-1661.7,1212.9
29.441,-0.0693,-0.5359,2.4765,-0.5,2.57,2.27,5.31,-1847.6,1251.7
29.514,-0.0594,-0.4896,2.4779,-0.49,2.58,0.04,5.59,-2000.0,1273.2
29.584,-0.0671,-0.489,2.4882,-0.48,2.58,0.44,5.36,-1853.5,1219.7
29.654,-0.0714,-0.494,2.492,-0.47,2.59,1.15,5.49,-1759.6,1261.8
29.726,-0.0804,-0.5166,2.4934,-0.47,2.59,2.89,5.77,-1465.1,1284.6
29.797,-0.0623,-0.5174,2.5038,-0.46,2.6,3.37,5.53,-1766.2,1227.2
29.868,-0.0669,-0.5214,2.5076,-0.45,2.61,4.05,5.67,-1704.9,1268.8
29.938,-0.0689,-0.5388,2.5089,-0.44,2.61,5.48,5.94,-1462.2,1291.0
30.009,-0.061,-0.5308,2.5192,-0.44,2.62,5.47,5.71,-1817.9,1234.2
30.082,-0.0608,-0.4986,2.5231,-0.43,2.63,4.08,5.85,-2000.0,1275.1
30.151,-0.0443,-0.4803,2.5244,-0.42,2.63,3.47,6.12,-1996.1,1299.3
30.222,-0.0315,-0.4594,2.5247,-0.41,2.64,2.71,6.45,-2000.0,1315.2
30.293,-0.0424,-0.4459,2.5347,-0.4,2.64,2.38,6.23,-1951.1,1257.0
30.363,-0.0198,-0.4282,2.5384,-0.4,2.65,1.8,6.37,-2000.0,1298.3
30.435,-0.0248,-0.4026,2.5497,-0.39,2.66,0.76,6.09,-2000.0,1248.0
30.508,-0.043,-0.431,2.5539,-0.38,2.66,2.83,6.21,-1755.7,1296.4
30.577,-0.0265,-0.426,2.5652,-0.37,2.67,2.96,5.91,-1834.3,1243.3
30.648,-0.0501,-0.4214,2.5695,-0.37,2.67,3.1,6.02,-1826.0,1290.4
30.719,-0.0385,-0.4306,2.5809,-0.36,2.68,4.04,5.72,-1613.9,1241.5
30.789,-0.0451,-0.4194,2.5851,-0.35,2.69,3.79,5.83,-1896.1,1286.9
30.86,-0.0388,-0.4227,2.5965,-0.35,2.69,4.36,5.53,-1691.2,1237.0
30.93,-0.0331,-0.4408,2.6007,-0.34,2.7,5.78,5.64,-1430.3,1284.4
31.001,-0.0401,-0.4264,2.6121,-0.33,2.71,5.31,5.34,-1781.4,1232.0
31.073,-0.0484,-0.4267,2.6164,-0.33,2.71,5.69,5.46,-1700.6,1280.2
31.142,-0.0483,-0.439,2.6178,-0.32,2.72,6.73,5.72,-1495.4,1304.7
31.212,-0.0662,-0.4375,2.6281,-0.32,2.72,6.97,5.48,-1695.1,1245.5
31.282,-0.0567,-0.4194,2.6319,-0.31,2.73,6.24,5.62,-1928.5,1288.1
31.353,-0.0446,-0.4151,2.6432,-0.31,2.74,6.3,5.32,-1745.7,1237.5
31.424,-0.0498,-0.4161,2.6473,-0.3,2.74,6.64,5.44,-1662.6,1284.6
31.495,-0.0564,-0.4215,2.6587,-0.3,2.75,7.22,5.14,-1583.9,1233.9
31.565,-0.0864,-0.4248,2.6628,-0.29,2.75,7.66,5.26,-1604.5,1280.1
31.635,-0.0761,-0.4152,2.6742,-0.29,2.76,7.35,4.95,-1791.0,1227.7
31.706,-0.0747,-0.4266,2.6784,-0.28,2.77,8.22,5.07,-1461.6,1276.7
31.775,-0.0522,-0.4285,2.6798,-0.28,2.77,8.53,5.34,-1598.3,1300.2
31.846,-0.0438,-0.4264,2.6902,-0.28,2.78,8.6,5.09,-1654.0,1240.4
31.916,-0.0363,-0.437,2.694,-0.27,2.79,9.37,5.23,-1437.4,1285.0
31.987,-0.0295,-0.4347,2.7052,-0.27,2.79,9.39,4.94,-1633.1,1232.6
32.058,-0.0371,-0.4088,2.7094,-0.27,2.8,8.04,5.06,-1969.9,1277.9
32.128,-0.0302,-0.3856,2.7108,-0.27,2.8,6.82,5.33,-1963.1,1303.3
32.199,-0.0471,-0.3741,2.7211,-0.26,2.81,6.25,5.09,-1826.2,1244.1
32.269,-0.0585,-0.3799,2.7249,-0.26,2.82,6.66,5.22,-1572.8,1289.4
32.339,-0.0513,-0.4009,2.7361,-0.26,2.82,7.92,4.93,-1285.7,1237.3
32.409,-0.0441,-0.3915,2.7402,-0.26,2.83,7.41,5.04,-1633.6,1282.0
32.478,-0.0287,-0.3711,2.7516,-0.26,2.83,6.26,4.74,-1940.6,1227.8
32.549,-0.0363,-0.3873,2.7558,-0.26,2.84,7.19,4.85,-1587.6,1279.4
32.619,-0.056,-0.389,2.7572,-0.26,2.85,7.26,5.12,-1617.9,1303.0
32.688,-0.0454,-0.358,2.7675,-0.26,2.85,5.44,4.87,-1964.8,1239.8
32.759,-0.0545,-0.3429,2.7714,-0.26,2.86,4.52,5.01,-1902.7,1287.2
32.829,-0.0665,-0.3527,2.7826,-0.27,2.86,5.0,4.72,-1551.8,1234.4
32.898,-0.0562,-0.3507,2.7867,-0.27,2.87,4.78,4.83,-1728.5,1281.7
32.968,-0.0577,-0.3268,2.7881,-0.27,2.88,3.3,5.09,-2000.0,1305.4
33.038,-0.0678,-0.3232,2.7984,-0.27,2.88,2.95,4.85,-1791.7,1244.6
33.108,-0.0819,-0.3295,2.8022,-0.27,2.89,3.16,4.98,-1651.4,1291.3
33.178,-0.073,-0.3384,2.8135,-0.28,2.9,3.5,4.69,-1605.9,1235.9
33.247,-0.0608,-0.3232,2.8176,-0.28,2.9,2.44,4.8,-1954.8,1283.3
33.318,-0.0636,-0.3289,2.819,-0.28,2.91,2.55,5.07,-1680.1,1309.5
33.388,-0.0713,-0.3429,2.8294,-0.29,2.91,3.13,4.83,-1543.5,1248.1
33.458,-0.074,-0.345,2.8331,-0.29,2.92,3.01,4.96,-1722.1,1292.3
33.527,-0.0714,-0.3521,2.8344,-0.3,2.93,3.16,5.24,-1648.5,1315.7
33.597,-0.0829,-0.3256,2.8447,-0.3,2.93,1.37,5.0,-1996.9,1251.4
33.668,-0.071,-0.3311,2.8485,-0.31,2.94,1.4,5.13,-1715.9,1299.2
33.738,-0.0649,-0.3263,2.8498,-0.31,2.94,0.82,5.41,-1868.6,1322.0
33.807,-0.0614,-0.3217,2.8601,-0.32,2.95,0.24,5.16,-1878.8,1259.5
33.878,-0.0745,-0.3447,2.8639,-0.32,2.96,1.23,5.3,-1527.8,1306.6
33.947,-0.0702,-0.3504,2.8751,-0.33,2.96,1.22,5.0,-1723.3,1250.2
34.018,-0.0564,-0.3592,2.8793,-0.34,2.97,1.37,5.12,-1680.5,1298.6
34.088,-0.0529,-0.363,2.8807,-0.34,2.97,1.22,5.39,-1754.1,1322.2
34.157,-0.0694,-0.3727,2.8911,-0.35,2.98,1.41,5.14,-1667.7,1261.2
34.227,-0.0708,-0.3754,2.8949,-0.35,2.99,1.18,5.27,-1771.9,1305.0
34.297,-0.0756,-0.3682,2.9061,-0.36,2.99,0.37,4.98,-1917.7,1250.3
34.367,-0.055,-0.38,2.9103,-0.37,3.0,0.64,5.09,-1659.9,1299.7
34.438,-0.053,-0.3919,2.9117,-0.38,3.01,0.91,5.36,-1654.1,1323.4
34.507,-0.058,-0.3834,2.922,-0.38,3.01,0.02,5.12,-1945.3,1260.0
34.576,-0.0618,-0.3896,2.9258,-0.39,3.02,-0.04,5.24,-1753.6,1306.1
34.645,-0.0539,-0.3757,2.937,-0.4,3.02,-1.26,4.94,-2000.0,1249.7
34.714,-0.0662,-0.3714,2.9412,-0.41,3.03,-1.93,5.05,-1932.3,1299.3
34.784,-0.0762,-0.3911,2.9426,-0.41,3.04,-1.24,5.32,-1591.2,1324.9
34.853,-0.0489,-0.3862,2.953,-0.42,3.04,-1.95,5.07,-1939.1,1261.8
34.923,-0.0354,-0.3613,2.9568,-0.43,3.05,-3.82,5.2,-2000.0,1305.3
34.993,-0.0522,-0.3508,2.968,-0.44,3.05,-4.86,4.91,-2000.0,1253.4
35.063,-0.0341,-0.3376,2.9722,-0.44,3.06,-6.05,5.02,-2000.0,1301.2
35.132,-0.0708,-0.3542,2.9835,-0.45,3.07,-5.53,4.72,-1778.4,1249.6
35.203,-0.0299,-0.3696,2.9877,-0.46,3.07,-5.09,4.83,-1758.1,1298.2
35.272,-0.0435,-0.3759,2.9991,-0.47,3.08,-5.16,4.52,-1879.7,1244.0
35.341,-0.0627,-0.394,3.0033,-0.47,3.08,-4.55,4.63,-1709.5,1293.0
35.411,-0.0753,-0.3959,3.0147,-0.48,3.09,-4.87,4.33,-1934.8,1238.7
35.482,-0.0765,-0.4237,3.0189,-0.49,3.1,-3.7,4.44,-1583.0,1288.7
35.552,-0.0452,-0.425,3.0303,-0.5,3.1,-4.05,4.14,-1927.8,1233.8
35.621,-0.0456,-0.4251,3.0344,-0.5,3.11,-4.45,4.25,-1952.0,1281.8
35.692,-0.0764,-0.4124,3.0458,-0.51,3.11,-5.58,3.95,-2000.0,1228.7
35.762,-0.0528,-0.4246,3.0499,-0.52,3.12,-5.28,4.06,-1817.8,1278.8
35.831,-0.0612,-0.4484,3.0613,-0.52,3.13,-4.3,3.76,-1629.3,1226.4
35.902,-0.0226,-0.4561,3.0655,-0.53,3.13,-4.24,3.87,-1857.2,1272.8
35.972,-0.0555,-0.4574,3.0669,-0.54,3.14,-4.53,4.14,-1943.8,1295.8
36.042,-0.0676,-0.4821,3.0772,-0.54,3.15,-3.47,3.9,-1598.8,1237.9
36.111,-0.041,-0.4844,3.081,-0.55,3.15,-3.67,4.03,-1912.8,1278.7
36.182,-0.0423,-0.5167,3.0922,-0.55,3.16,-2.15,3.74,-1562.4,1229.9
36.251,-0.0311,-0.5368,3.0963,-0.56,3.16,-1.32,3.85,-1618.3,1272.9
36.321,-0.0429,-0.524,3.0977,-0.57,3.17,-2.36,4.12,-1967.3,1292.7
36.391,-0.0598,-0.5521,3.108,-0.57,3.18,-1.04,3.88,-1618.1,1238.7
36.461,-0.0445,-0.5502,3.1118,-0.57,3.18,-1.42,4.01,-1911.0,1277.0
36.531,-0.0641,-0.5395,3.1131,-0.58,3.19,-2.3,4.29,-2000.0,1298.0
36.601,-0.0652,-0.5554,3.1233,-0.58,3.19,-1.62,4.05,-1686.2,1243.4
36.67,-0.0486,-0.5386,3.1271,-0.59,3.2,-2.81,4.18,-2000.0,1281.4
36.74,-0.0627,-0.5246,3.1284,-0.59,3.21,-3.82,4.46,-2000.0,1303.8
36.81,-0.0764,-0.5291,3.1387,-0.59,3.21,-3.76,4.22,-1865.7,1248.8
36.881,-0.0879,-0.5189,3.1425,-0.6,3.22,-4.52,4.35,-2000.0,1289.0
36.95,-0.0855,-0.5393,3.1537,-0.6,3.22,-3.51,4.06,-1710.0,1241.4
37.021,-0.0559,-0.527,3.1579,-0.6,3.23,-4.35,4.17,-2000.0,1282.9
37.091,-0.0737,-0.5339,3.1593,-0.61,3.24,-4.08,4.44,-1836.0,1306.9
37.161,-0.0375,-0.5485,3.1696,-0.61,3.24,-3.35,4.2,-1713.2,1251.6
37.231,-0.0458,-0.5235,3.1734,-0.61,3.25,-4.87,4.33,-2000.0,1289.3
37.301,-0.0256,-0.5257,3.1747,-0.61,3.26,-4.8,4.61,-1904.7,1313.3
37.37,-0.0345,-0.5146,3.185,-0.61,3.26,-5.48,4.36,-2000.0,1255.1
37.44,-0.0579,-0.5439,3.1888,-0.61,3.27,-3.83,4.5,-1728.6,1299.9
37.51,-0.0308,-0.549,3.1901,-0.61,3.27,-3.55,4.77,-1839.0,1318.1
37.58,-0.0699,-0.5392,3.2004,-0.61,3.28,-4.1,4.53,-2000.0,1261.7
37.65,-0.0623,-0.5239,3.2042,-0.61,3.29,-4.94,4.66,-2000.0,1302.5
37.721,-0.076,-0.5209,3.2055,-0.61,3.29,-5.06,4.94,-1967.3,1324.8
37.791,-0.0806,-0.5374,3.2158,-0.61,3.3,-4.04,4.7,-1691.4,1271.5
37.861,-0.0486,-0.5076,3.2196,-0.61,3.3,-5.66,4.84,-2000.0,1308.2
37.932,-0.082,-0.5283,3.2209,-0.6,3.31,-4.37,5.11,-1686.3,1332.9
38.003,-0.0474,-0.5367,3.2313,-0.6,3.32,-3.75,4.88,-1793.2,1277.9
38.073,-0.0582,-0.5467,3.235,-0.6,3.32,-3.03,5.01,-1752.8,1317.1
38.144,-0.0304,-0.547,3.2363,-0.6,3.33,-2.85,5.29,-1875.7,1336.9
38.214,-0.0181,-0.53,3.2467,-0.59,3.33,-3.64,5.05,-2000.0,1282.0
38.284,-0.0444,-0.5596,3.2504,-0.59,3.34,-1.75,5.18,-1749.4,1325.0
38.353,-0.0571,-0.5646,3.2517,-0.59,3.35,-1.25,5.45,-1775.3,1342.8
38.424,-0.0332,-0.5346,3.2621,-0.58,3.35,-2.73,5.22,-2000.0,1288.1
38.495,-0.0488,-0.5492,3.2659,-0.58,3.36,-1.64,5.35,-1778.7,1330.9
38.565,-0.0357,-0.5273,3.2771,-0.57,3.37,-2.64,5.06,-2000.0,1280.8
38.635,-0.0212,-0.5027,3.2813,-0.57,3.37,-3.76,5.17,-2000.0,1324.7
38.706,-0.0365,-0.5036,3.2828,-0.56,3.38,-3.41,5.44,-1865.9,1348.9
38.776,-0.0585,-0.526,3.2931,-0.56,3.38,-1.82,5.2,-1524.1,1296.4
38.846,-0.0461,-0.5064,3.2969,-0.55,3.39,-2.62,5.33,-1874.5,1333.4
38.917,-0.0605,-0.5367,3.3082,-0.55,3.4,-0.54,5.04,-1520.9,1290.2
38.988,-0.0438,-0.5323,3.3124,-0.54,3.4,-0.44,5.15,-1867.7,1329.2
39.058,-0.0447,-0.5051,3.3138,-0.53,3.41,-1.64,5.42,-2000.0,1350.8
39.128,-0.0551,-0.4986,3.3242,-0.53,3.41,-1.64,5.18,-1915.3,1299.0
39.199,-0.0586,-0.4924,3.328,-0.52,3.42,-1.61,5.31,-1911.3,1339.4
39.269,-0.0447,-0.4693,3.3392,-0.51,3.43,-2.54,5.02,-2000.0,1290.7
39.34,-0.0203,-0.4761,3.3434,-0.51,3.43,-1.75,5.14,-1773.3,1336.1
39.413,-0.0217,-0.4675,3.3549,-0.5,3.44,-1.82,4.84,-1940.4,1290.3
39.482,-0.0529,-0.4556,3.3689,-0.49,3.45,-2.09,4.39,-1990.8,1260.6
39.548,-0.045,-0.4636,3.374,-0.49,3.45,-1.24,4.43,-1709.3,1313.8
39.614,-0.0431,-0.4832,3.3857,-0.48,3.46,0.29,4.09,-1486.5,1266.0
39.68,-0.0381,-0.4772,3.39,-0.47,3.46,0.35,4.17,-1817.2,1311.2
39.746,-0.0635,-0.4848,3.4015,-0.46,3.47,1.19,3.84,-1659.6,1261.5
39.813,-0.0514,-0.4518,3.4057,-0.46,3.47,-0.29,3.93,-1990.9,1305.7
39.879,-0.0638,-0.4524,3.417,-0.45,3.48,0.16,3.61,-1783.7,1256.7
39.945,-0.047,-0.4258,3.4212,-0.44,3.49,-0.95,3.7,-2000.0,1302.1
40.011,-0.0462,-0.4263,3.4326,-0.44,3.49,-0.51,3.38,-1799.7,1251.0
40.077,-0.0827,-0.4388,3.4367,-0.43,3.5,0.63,3.47,-1596.2,1299.6
40.143,-0.0594,-0.4225,3.4481,-0.42,3.5,0.1,3.15,-1927.4,1244.6
40.209,-0.0732,-0.4205,3.4523,-0.41,3.51,0.4,3.25,-1818.0,1293.8
40.275,-0.0531,-0.4081,3.4636,-0.41,3.51,0.1,2.93,-1965.3,1239.3
40.342,-0.039,-0.4073,3.4678,-0.4,3.52,0.47,3.02,-1801.5,1288.8
40.408,-0.0616,-0.4264,3.4792,-0.39,3.53,1.97,2.7,-1470.3,1236.4
40.475,-0.0481,-0.4044,3.4833,-0.39,3.53,1.11,2.79,-1804.2,1282.0
40.541,-0.0506,-0.3958,3.4947,-0.38,3.54,1.01,2.47,-1900.2,1228.4
40.607,-0.0743,-0.4346,3.4988,-0.37,3.54,3.62,2.57,-1570.0,1280.7
40.673,-0.0709,-0.4147,3.5102,-0.36,3.55,2.86,2.25,-1900.8,1221.4
40.74,-0.073,-0.4169,3.5144,-0.36,3.56,3.37,2.34,-1699.2,1272.2
40.806,-0.0562,-0.404,3.5158,-0.35,3.56,2.99,2.59,-1919.2,1295.9
40.872,-0.0696,-0.3888,3.5261,-0.35,3.57,2.48,2.33,-1959.6,1231.9
40.938,-0.0844,-0.4015,3.5298,-0.34,3.57,3.56,2.44,-1629.4,1279.7
41.004,-0.0909,-0.3928,3.541,-0.33,3.58,3.4,2.13,-1855.4,1221.2
41.07,-0.0904,-0.4308,3.5451,-0.33,3.58,5.91,2.23,-1525.2,1273.7
41.135,-0.0894,-0.4225,3.5565,-0.32,3.59,5.75,1.91,-1800.5,1214.3
41.202,-0.0824,-0.4261,3.5607,-0.32,3.6,6.26,2.0,-1612.6,1264.7
41.268,-0.0515,-0.4282,3.572,-0.31,3.6,6.68,1.68,-1623.6,1209.2
41.334,-0.0628,-0.4326,3.5762,-0.31,3.61,7.22,1.77,-1573.9,1258.9
41.4,-0.0697,-0.4354,3.5875,-0.3,3.61,7.65,1.45,-1588.7,1202.5
41.466,-0.0565,-0.4441,3.5917,-0.3,3.62,8.41,1.54,-1468.3,1252.6
41.532,-0.0395,-0.4455,3.5931,-0.29,3.62,8.73,1.79,-1580.5,1276.4
41.598,-0.0436,-0.4447,3.6034,-0.29,3.63,8.92,1.53,-1608.7,1212.0
41.664,-0.0459,-0.4284,3.6072,-0.29,3.64,8.2,1.64,-1850.2,1256.5
41.73,-0.0523,-0.4402,3.6085,-0.28,3.64,9.08,1.9,-1520.0,1282.1
41.796,-0.0528,-0.4351,3.6187,-0.28,3.65,8.97,1.64,-1668.5,1215.7
41.861,-0.0406,-0.4278,3.6225,-0.28,3.65,8.72,1.76,-1705.9,1261.3
41.927,-0.0578,-0.4267,3.6238,-0.27,3.66,8.81,2.01,-1605.1,1284.8
41.993,-0.0567,-0.4131,3.634,-0.27,3.66,8.16,1.75,-1805.6,1218.4
42.059,-0.0724,-0.4172,3.6378,-0.27,3.67,8.52,1.86,-1522.7,1266.1
42.125,-0.0496,-0.4094,3.6391,-0.27,3.68,8.18,2.12,-1718.0,1288.4
42.191,-0.035,-0.3978,3.6494,-0.27,3.68,7.6,1.86,-1783.2,1222.8
42.257,-0.051,-0.4054,3.6532,-0.26,3.69,8.11,1.97,-1469.1,1270.3
42.323,-0.0584,-0.3971,3.6545,-0.26,3.69,7.69,2.23,-1732.0,1292.4
42.389,-0.0599,-0.3831,3.6648,-0.26,3.7,6.92,1.97,-1829.6,1226.1
42.455,-0.0597,-0.3789,3.6686,-0.26,3.7,6.7,2.08,-1690.8,1273.7
42.521,-0.0566,-0.3674,3.6699,-0.26,3.71,6.05,2.34,-1810.9,1296.7
42.587,-0.0457,-0.3724,3.6801,-0.26,3.72,6.32,2.08,-1554.8,1231.6
42.653,-0.0558,-0.3637,3.6839,-0.26,3.72,5.79,2.19,-1777.9,1277.1
42.719,-0.0599,-0.3504,3.6852,-0.26,3.73,4.98,2.44,-1859.1,1300.4
42.784,-0.0492,-0.3263,3.6955,-0.26,3.73,3.54,2.18,-2000.0,1233.0
42.85,-0.0418,-0.3162,3.6994,-0.27,3.74,2.87,2.29,-1860.1,1281.4
42.916,-0.0289,-0.3165,3.7106,-0.27,3.75,2.79,1.98,-1715.6,1222.7
42.982,-0.0385,-0.3,3.7147,-0.27,3.75,1.73,2.07,-1972.2,1273.0
43.048,-0.039,-0.3163,3.7261,-0.27,3.76,2.54,1.75,-1643.1,1216.6
43.114,-0.0371,-0.3079,3.7303,-0.27,3.76,1.91,1.84,-1865.1,1266.7
43.18,-0.0562,-0.2941,3.7417,-0.28,3.77,0.95,1.52,-1957.6,1207.8
43.246,-0.0371,-0.3065,3.7459,-0.28,3.77,1.48,1.61,-1626.4,1261.9
43.312,-0.0531,-0.322,3.7474,-0.28,3.78,2.18,1.85,-1505.9,1287.3
43.378,-0.0511,-0.319,3.7577,-0.29,3.79,1.79,1.59,-1802.5,1218.2
43.444,-0.0624,-0.3408,3.7615,-0.29,3.79,2.82,1.7,-1472.8,1268.1
43.51,-0.069,-0.3495,3.7727,-0.3,3.8,3.08,1.39,-1602.7,1207.3
43.576,-0.0638,-0.3458,3.7769,-0.3,3.8,2.61,1.48,-1799.8,1257.8
43.642,-0.0712,-0.3577,3.7883,-0.3,3.81,3.03,1.16,-1554.6,1199.9
43.707,-0.0603,-0.3408,3.7924,-0.31,3.81,1.78,1.25,-1884.3,1250.2
43.773,-0.0536,-0.3515,3.7939,-0.31,3.82,2.11,1.49,-1598.1,1277.3
43.839,-0.0466,-0.3808,3.8042,-0.32,3.83,3.48,1.23,-1269.5,1211.3
43.905,-0.049,-0.3719,3.808,-0.33,3.83,2.66,1.34,-1599.2,1255.6
43.971,-0.0537,-0.3656,3.8093,-0.33,3.84,1.97,1.6,-1856.4,1279.9
44.037,-0.0558,-0.3834,3.8196,-0.34,3.84,2.65,1.34,-1524.7,1214.4
44.103,-0.0603,-0.3846,3.8234,-0.34,3.85,2.38,1.45,-1740.7,1260.4
44.169,-0.0605,-0.3513,3.8247,-0.35,3.85,0.11,1.71,-2000.0,1281.4
44.235,-0.0577,-0.3586,3.835,-0.36,3.86,0.17,1.45,-1741.7,1216.6
44.301,-0.0701,-0.349,3.8388,-0.36,3.87,-0.75,1.56,-1957.1,1263.2
44.369,-0.0717,-0.353,3.8401,-0.37,3.87,-0.91,1.82,-1778.7,1287.8
44.438,-0.0779,-0.3715,3.8505,-0.38,3.88,-0.26,1.57,-1554.7,1224.6
44.504,-0.0779,-0.3557,3.8542,-0.38,3.88,-1.56,1.69,-1887.8,1267.2
44.575,-0.0807,-0.3582,3.8656,-0.39,3.89,-1.84,1.4,-1825.2,1213.3
44.645,-0.08,-0.378,3.8697,-0.4,3.9,-1.13,1.51,-1563.9,1263.3
44.715,-0.0738,-0.4026,3.8711,-0.41,3.9,-0.15,1.77,-1466.8,1287.7
44.784,-0.0512,-0.406,3.8815,-0.41,3.91,-0.39,1.53,-1786.4,1223.3
44.854,-0.0336,-0.3922,3.8852,-0.42,3.91,-1.61,1.66,-2000.0,1267.3
44.923,-0.0134,-0.3905,3.8865,-0.43,3.92,-2.14,1.93,-1890.8,1291.3
44.994,-0.011,-0.3967,3.8969,-0.44,3.93,-2.23,1.69,-1790.8,1229.5
45.064,0.007,-0.377,3.9007,-0.44,3.93,-3.8,1.83,-2000.0,1272.4
45.135,-0.0202,-0.3632,3.912,-0.45,3.94,-5.04,1.54,-2000.0,1217.7
45.205,-0.0384,-0.3881,3.916,-0.46,3.94,-4.05,1.65,-1745.1,1269.4
45.275,-0.032,-0.3871,3.9175,-0.47,3.95,-4.54,1.92,-1937.1,1290.9
45.346,-0.0608,-0.3906,3.9279,-0.47,3.96,-4.78,1.68,-1888.4,1229.3
45.416,-0.0341,-0.4053,3.9316,-0.48,3.96,-4.36,1.81,-1734.7,1275.2
45.488,-0.0635,-0.4055,3.933,-0.49,3.97,-4.79,2.1,-1933.1,1296.4
45.557,-0.0713,-0.4298,3.9432,-0.5,3.98,-3.8,1.85,-1587.9,1236.1
45.626,-0.059,-0.4312,3.947,-0.5,3.98,-4.12,1.98,-1906.6,1278.2
45.695,-0.0459,-0.4077,3.9582,-0.51,3.99,-5.87,1.69,-2000.0,1221.5
45.766,-0.0765,-0.4147,3.9624,-0.52,3.99,-5.87,1.8,-1877.5,1272.4
45.836,-0.0709,-0.3931,3.9639,-0.52,4.0,-7.5,2.07,-2000.0,1293.8
45.906,-0.0823,-0.4092,3.9742,-0.53,4.01,-6.94,1.82,-1881.3,1235.3
45.976,-0.0591,-0.4156,3.978,-0.54,4.01,-6.95,1.96,-1909.1,1279.3
46.047,-0.0668,-0.4266,3.9794,-0.54,4.02,-6.67,2.23,-1847.0,1301.6
46.117,-0.0671,-0.4314,3.9897,-0.55,4.02,-6.74,1.99,-1927.2,1239.9
46.187,-0.0833,-0.4191,3.9935,-0.55,4.03,-7.78,2.13,-2000.0,1282.6
46.257,-0.0867,-0.4379,4.0047,-0.56,4.04,-7.02,1.84,-1798.0,1232.3
46.327,-0.0541,-0.443,4.0089,-0.57,4.04,-7.02,1.95,-1933.9,1277.1
46.398,-0.0796,-0.4529,4.0103,-0.57,4.05,-6.74,2.22,-1870.4,1300.6
46.467,-0.0686,-0.4695,4.0206,-0.58,4.06,-6.07,1.97,-1768.2,1241.5
46.537,-0.0552,-0.4475,4.0244,-0.58,4.06,-7.58,2.1,-2000.0,1281.1
46.607,-0.0517,-0.4705,4.0257,-0.58,4.07,-6.51,2.38,-1769.2,1306.8
46.677,-0.0279,-0.4624,4.0361,-0.59,4.07,-7.2,2.13,-2000.0,1244.3
46.746,-0.0387,-0.4536,4.0398,-0.59,4.08,-7.91,2.26,-2000.0,1287.2
46.816,-0.0769,-0.4878,4.0412,-0.59,4.09,-6.14,2.54,-1774.1,1312.1
46.886,-0.0652,-0.5044,4.0515,-0.6,4.09,-5.37,2.3,-1760.2,1252.5
46.957,-0.0768,-0.5208,4.0553,-0.6,4.1,-4.58,2.43,-1744.5,1293.4
47.027,-0.061,-0.5329,4.0566,-0.6,4.1,-4.03,2.71,-1789.4,1313.6
47.098,-0.0476,-0.5115,4.067,-0.61,4.11,-5.38,2.47,-2000.0,1254.0
47.168,-0.0516,-0.5126,4.0707,-0.61,4.12,-5.41,2.6,-1955.1,1297.7
47.238,-0.0597,-0.5375,4.072,-0.61,4.12,-4.07,2.88,-1607.1,1320.1
47.308,-0.0573,-0.5083,4.0823,-0.61,4.13,-5.8,2.64,-1955.5,1258.3
47.377,-0.0974,-0.5294,4.0861,-0.61,4.13,-4.64,2.77,-1671.2,1303.9
47.447,-0.0796,-0.542,4.0874,-0.61,4.14,-3.94,3.04,-1774.0,1323.7
47.517,-0.0557,-0.5175,4.0878,-0.61,4.15,-5.35,3.37,-2000.0,1334.4
47.587,-0.0639,-0.5051,4.0978,-0.61,4.15,-6.05,3.15,-2000.0,1277.4
47.658,-0.0711,-0.5205,4.1015,-0.61,4.16,-5.13,3.29,-1765.9,1319.0
47.728,-0.071,-0.5056,4.1027,-0.61,4.17,-5.93,3.57,-2000.0,1337.4
47.798,-0.0933,-0.4984,4.1131,-0.61,4.17,-6.27,3.33,-2000.0,1282.2
47.869,-0.0787,-0.5198,4.1169,-0.61,4.18,-4.95,3.46,-1711.2,1324.8
47.939,-0.0627,-0.4911,4.1182,-0.6,4.18,-6.48,3.74,-2000.0,1341.9
48.009,-0.0595,-0.4985,4.1286,-0.6,4.19,-5.93,3.49,-1879.5,1289.2
48.079,-0.0825,-0.4939,4.1324,-0.6,4.2,-6.05,3.63,-2000.0,1328.8
48.148,-0.0621,-0.5056,4.1337,-0.6,4.2,-5.21,3.9,-1808.8,1350.3
48.219,-0.0516,-0.4819,4.1441,-0.59,4.21,-6.39,3.66,-2000.0,1293.7
48.291,-0.0847,-0.5006,4.1479,-0.59,4.21,-5.11,3.8,-1808.3,1337.0
48.362,-0.0611,-0.5227,4.1492,-0.59,4.22,-3.62,4.08,-1633.3,1357.0
48.431,-0.0517,-0.5089,4.1595,-0.58,4.23,-4.18,3.83,-1980.3,1299.7
48.502,-0.0539,-0.5143,4.1633,-0.58,4.23,-3.62,3.97,-1859.1,1341.4
48.573,-0.0452,-0.5025,4.1747,-0.57,4.24,-4.02,3.68,-2000.0,1293.2
48.643,-0.0701,-0.5129,4.1788,-0.57,4.24,-3.14,3.79,-1778.3,1336.8
48.713,-0.0521,-0.5275,4.1802,-0.56,4.25,-2.01,4.06,-1696.7,1358.0
48.783,-0.0369,-0.4966,4.1906,-0.56,4.26,-3.47,3.81,-2000.0,1301.4
48.853,-0.0487,-0.4979,4.1944,-0.55,4.26,-3.07,3.94,-1895.7,1343.9
48.924,-0.0646,-0.5099,4.1958,-0.55,4.27,-2.04,4.22,-1731.5,1365.1
48.995,-0.0869,-0.5184,4.2061,-0.54,4.28,-1.2,3.98,-1762.5,1312.0
49.066,-0.0938,-0.541,4.2099,-0.53,4.28,0.46,4.12,-1516.4,1351.3
49.136,-0.0717,-0.537,4.2112,-0.53,4.29,0.6,4.39,-1866.4,1369.2
49.206,-0.042,-0.5223,4.2215,-0.52,4.29,0.14,4.15,-2000.0,1315.9
49.276,-0.0343,-0.5064,4.2253,-0.51,4.3,-0.38,4.28,-2000.0,1355.2
49.345,-0.0273,-0.4722,4.2267,-0.51,4.31,-1.94,4.55,-2000.0,1375.7
49.417,-0.0262,-0.452,4.2371,-0.5,4.31,-2.68,4.32,-2000.0,1324.8
49.488,-0.0602,-0.4584,4.2408,-0.49,4.32,-1.9,4.46,-1794.3,1365.2
49.554,-0.0324,-0.4776,4.2519,-0.48,4.32,-0.4,4.15,-1560.0,1314.9
49.62,-0.0484,-0.4834,4.2561,-0.48,4.33,0.33,4.24,-1749.7,1357.0
49.686,-0.0426,-0.4751,4.2675,-0.47,4.34,0.26,3.92,-1944.5,1306.4
49.752,-0.0534,-0.4766,4.2717,-0.46,4.34,0.75,4.01,-1801.6,1352.1
49.818,-0.0317,-0.4662,4.2732,-0.46,4.35,0.57,4.26,-1963.9,1373.5
49.885,-0.0643,-0.4507,4.2835,-0.45,4.35,0.1,4.0,-2000.0,1316.6
49.951,-0.0794,-0.4696,4.2874,-0.44,4.36,1.6,4.11,-1704.8,1360.1
50.018,-0.0873,-0.4663,4.2986,-0.43,4.36,1.83,3.79,-1842.9,1307.8
50.084,-0.0898,-0.4778,4.3028,-0.43,4.37,2.9,3.89,-1601.6,1353.0
50.15,-0.1199,-0.4684,4.3042,-0.42,4.38,2.78,4.14,-1904.7,1373.8
50.217,-0.1088,-0.4877,4.3146,-0.41,4.38,4.3,3.88,-1573.3,1318.7
50.283,-0.0888,-0.4786,4.3184,-0.41,4.39,4.19,3.99,-1870.3,1357.4
50.349,-0.0908,-0.4876,4.3297,-0.4,4.39,5.12,3.67,-1580.9,1308.5
50.415,-0.088,-0.4828,4.3338,-0.39,4.4,5.24,3.77,-1785.6,1351.1
50.481,-0.1016,-0.5038,4.3452,-0.38,4.41,6.85,3.45,-1453.9,1303.7
50.548,-0.098,-0.5305,4.3494,-0.38,4.41,8.77,3.54,-1141.9,1347.4
50.613,-0.0784,-0.5163,4.3509,-0.37,4.42,8.34,3.78,-1471.1,1366.0
50.679,-0.082,-0.5081,4.3612,-0.36,4.42,8.25,3.52,-1757.1,1309.9
50.745,-0.0734,-0.5236,4.365,-0.36,4.43,9.51,3.63,-1428.4,1352.8
50.811,-0.0661,-0.5065,4.3663,-0.35,4.43,8.9,3.88,-1757.6,1371.3
50.877,-0.0566,-0.5043,4.3766,-0.34,4.44,9.13,3.62,-1635.8,1315.5
50.943,-0.0404,-0.4784,4.3804,-0.34,4.45,7.99,3.74,-1965.1,1354.7
51.009,-0.0593,-0.4744,4.3817,-0.33,4.45,8.1,3.99,-1680.3,1377.7
51.075,-0.0739,-0.4626,4.392,-0.33,4.46,7.76,3.73,-1799.2,1318.7
51.141,-0.0648,-0.4368,4.3958,-0.32,4.46,6.6,3.84,-2000.0,1360.3
51.207,-0.0429,-0.4303,4.3972,-0.32,4.47,6.53,4.1,-1744.8,1383.1
51.273,-0.057,-0.3997,4.4075,-0.31,4.47,5.08,3.84,-2000.0,1323.0
51.339,-0.0469,-0.4016,4.4112,-0.31,4.48,5.47,3.95,-1746.3,1367.6
51.405,-0.0315,-0.3751,4.4225,-0.3,4.49,4.22,3.64,-2000.0,1312.7
51.472,-0.0467,-0.4009,4.4266,-0.3,4.49,5.95,3.73,-1725.4,1362.4
51.538,-0.0518,-0.3807,4.428,-0.29,4.5,5.04,3.98,-1962.6,1382.6
51.603,-0.0301,-0.3821,4.4384,-0.29,4.5,5.35,3.71,-1651.6,1323.1
51.669,-0.0464,-0.3815,4.4422,-0.29,4.51,5.53,3.83,-1678.9,1366.7
51.735,-0.0353,-0.3679,4.4534,-0.28,4.51,4.95,3.51,-1877.7,1312.1
51.801,-0.0433,-0.3662,4.4576,-0.28,4.52,5.03,3.6,-1708.2,1359.5
51.867,-0.0671,-0.3813,4.469,-0.28,4.53,6.07,3.28,-1406.9,1308.1
51.933,-0.0485,-0.3693,4.4732,-0.27,4.53,5.53,3.37,-1736.5,1353.0
52.0,-0.0466,-0.3661,4.4747,-0.27,4.54,5.49,3.62,-1719.0,1377.4
52.067,-0.0367,-0.3638,4.4851,-0.27,4.54,5.47,3.36,-1708.4,1316.7
52.133,-0.0442,-0.3553,4.4888,-0.27,4.55,5.09,3.47,-1806.0,1360.2
52.198,-0.044,-0.3572,4.5,-0.26,4.56,5.29,3.16,-1649.5,1306.2
52.264,-0.0339,-0.3385,4.5042,-0.26,4.56,4.28,3.25,-1963.5,1351.8
52.33,-0.0511,-0.3375,4.5155,-0.26,4.57,4.28,2.93,-1717.5,1299.3
52.396,-0.0579,-0.342,4.5198,-0.26,4.57,4.57,3.02,-1630.5,1347.5
52.462,-0.0544,-0.3481,4.5311,-0.26,4.58,4.94,2.7,-1597.1,1294.1
52.528,-0.0691,-0.3484,4.5353,-0.26,4.58,4.96,2.78,-1686.7,1341.4
52.594,-0.0564,-0.3449,4.5368,-0.26,4.59,4.74,3.03,-1750.3,1365.2
52.66,-0.0483,-0.3496,4.5471,-0.26,4.6,4.98,2.77,-1621.8,1302.9
52.726,-0.0406,-0.3429,4.5509,-0.26,4.6,4.55,2.88,-1801.1,1347.2
52.791,-0.0466,-0.3309,4.5621,-0.26,4.61,3.79,2.57,-1891.4,1290.9
52.857,-0.0679,-0.3219,4.5663,-0.27,4.61,3.19,2.66,-1865.3,1339.8
52.923,-0.0733,-0.3321,4.5776,-0.27,4.62,3.68,2.34,-1568.5,1285.4
52.989,-0.0867,-0.329,4.5819,-0.27,4.62,3.38,2.42,-1780.9,1333.4
53.055,-0.0831,-0.3245,4.5833,-0.27,4.63,2.99,2.67,-1810.8,1357.9
53.121,-0.0734,-0.3209,4.5937,-0.27,4.64,2.64,2.41,-1807.2,1294.0
53.186,-0.0872,-0.3167,4.5974,-0.28,4.64,2.23,2.52,-1826.5,1340.0
53.253,-0.0653,-0.3082,4.6086,-0.28,4.65,1.56,2.21,-1901.3,1283.0
53.318,-0.0588,-0.2937,4.6127,-0.28,4.65,0.53,2.3,-2000.0,1331.8
53.384,-0.0887,-0.3351,4.6241,-0.29,4.66,2.7,1.98,-1672.2,1279.4
53.45,-0.0941,-0.3208,4.6283,-0.29,4.66,1.65,2.07,-1981.9,1325.0
53.516,-0.079,-0.3349,4.6397,-0.3,4.67,2.22,1.75,-1652.8,1270.9
53.582,-0.0886,-0.3451,4.6439,-0.3,4.68,2.55,1.84,-1620.9,1320.4
53.648,-0.0747,-0.3564,4.6552,-0.31,4.68,2.93,1.52,-1595.5,1265.4
53.714,-0.0498,-0.3552,4.6594,-0.31,4.69,2.58,1.61,-1792.6,1313.1
53.78,-0.0653,-0.3751,4.6608,-0.32,4.69,3.43,1.85,-1462.9,1338.8
53.846,-0.0583,-0.3667,4.6712,-0.32,4.7,2.64,1.59,-1794.2,1272.9
53.912,-0.0656,-0.3869,4.675,-0.33,4.7,3.48,1.71,-1464.5,1320.0
53.979,-0.0621,-0.3967,4.6763,-0.33,4.71,3.72,1.96,-1604.7,1342.0
54.044,-0.0626,-0.4202,4.6865,-0.34,4.72,4.73,1.7,-1339.3,1279.1
54.11,-0.0636,-0.4274,4.6903,-0.34,4.72,4.79,1.82,-1617.2,1321.9
54.176,-0.0736,-0.4231,4.6916,-0.35,4.73,4.19,2.07,-1802.5,1343.2
54.242,-0.0578,-0.4243,4.7019,-0.36,4.73,3.9,1.81,-1726.0,1280.7
54.308,-0.0587,-0.4279,4.7057,-0.36,4.74,3.73,1.93,-1694.7,1325.0
54.379,-0.0614,-0.4168,4.7071,-0.37,4.75,2.69,2.2,-1911.2,1346.1
54.446,-0.0769,-0.4362,4.7174,-0.38,4.75,3.4,1.95,-1574.0,1288.3
54.517,-0.0822,-0.4287,4.7212,-0.38,4.76,2.55,2.08,-1867.1,1329.8
54.588,-0.0857,-0.4145,4.7225,-0.39,4.76,1.31,2.36,-1975.7,1351.3
54.657,-0.0703,-0.4118,4.7329,-0.4,4.77,0.73,2.11,-1841.2,1292.6
54.728,-0.0511,-0.404,4.7366,-0.41,4.78,-0.15,2.25,-1925.0,1335.5
54.798,-0.0612,-0.4103,4.7479,-0.41,4.78,-0.23,1.96,-1742.3,1284.7
54.868,-0.0319,-0.3919,4.752,-0.42,4.79,-1.72,2.07,-2000.0,1328.3
54.939,-0.034,-0.3937,4.7534,-0.43,4.79,-2.06,2.34,-1843.8,1353.4
55.01,-0.0545,-0.4116,4.7638,-0.44,4.8,-1.48,2.11,-1608.8,1296.0
55.08,-0.044,-0.4379,4.7676,-0.45,4.81,-0.42,2.24,-1452.4,1338.0
55.152,-0.0354,-0.4272,4.7789,-0.45,4.81,-1.48,1.95,-1811.1,1284.5
55.222,-0.0469,-0.4189,4.783,-0.46,4.82,-2.39,2.06,-1977.0,1329.7
55.291,-0.0464,-0.4265,4.7943,-0.47,4.83,-2.38,1.76,-1774.4,1279.5
55.361,-0.0303,-0.4072,4.7985,-0.48,4.83,-3.92,1.87,-2000.0,1323.7
55.432,-0.0451,-0.4175,4.8,-0.48,4.84,-3.76,2.14,-1771.7,1349.0
55.504,-0.0648,-0.4158,4.8103,-0.49,4.84,-4.29,1.91,-1937.2,1290.6
55.573,-0.0653,-0.4433,4.8141,-0.5,4.85,-3.13,2.04,-1589.3,1334.3
55.643,-0.0436,-0.4301,4.8253,-0.5,4.86,-4.29,1.75,-1939.3,1279.0
55.715,-0.059,-0.4406,4.8295,-0.51,4.86,-4.1,1.86,-1780.9,1326.5
55.784,-0.0569,-0.4489,4.8409,-0.52,4.87,-4.01,1.56,-1804.3,1275.7
55.855,-0.0345,-0.4253,4.8451,-0.53,4.87,-5.75,1.67,-2000.0,1318.9
55.926,-0.0475,-0.4073,4.8565,-0.53,4.88,-7.16,1.37,-2000.0,1269.6
55.996,-0.0737,-0.4349,4.8607,-0.54,4.89,-5.94,1.49,-1829.0,1318.8
56.067,-0.0655,-0.4517,4.8621,-0.54,4.89,-5.33,1.76,-1726.5,1340.7
56.138,-0.0491,-0.4244,4.8724,-0.55,4.9,-7.24,1.52,-2000.0,1279.8
56.209,-0.0482,-0.4423,4.8762,-0.56,4.91,-6.55,1.66,-1739.6,1325.2
56.279,-0.0366,-0.4347,4.8874,-0.56,4.91,-7.29,1.37,-2000.0,1271.7
56.351,-0.0351,-0.4309,4.8916,-0.57,4.92,-7.82,1.49,-2000.0,1317.5
56.421,-0.0704,-0.4361,4.9029,-0.57,4.92,-7.8,1.19,-1933.6,1267.9
56.491,-0.0498,-0.4379,4.907,-0.58,4.93,-7.97,1.3,-1981.7,1313.0
56.561,-0.0454,-0.4157,4.9185,-0.58,4.94,-9.49,1.0,-2000.0,1259.5
56.631,-0.0165,-0.415,4.9227,-0.59,4.94,-9.77,1.1,-2000.0,1307.7
56.7,-0.0685,-0.429,4.934,-0.59,4.95,-9.19,0.81,-1859.4,1258.8
56.77,-0.0349,-0.4307,4.9382,-0.59,4.95,-9.29,0.91,-2000.0,1303.1
56.84,-0.055,-0.435,4.9495,-0.6,4.96,-9.23,0.61,-1985.2,1252.7
56.91,-0.0479,-0.4527,4.9636,-0.6,4.97,-8.38,0.15,-1799.3,1225.1
56.979,-0.0812,-0.4686,4.9689,-0.6,4.97,-7.62,0.2,-1810.7,1280.3
57.05,-0.0379,-0.4646,4.9807,-0.6,4.98,-7.98,-0.12,-2000.0,1231.1
57.12,-0.0473,-0.4594,4.985,-0.61,4.98,-8.4,-0.02,-2000.0,1278.3
57.19,-0.0747,-0.4862,4.9963,-0.61,4.99,-6.96,-0.32,-1738.4,1231.4
57.261,-0.05,-0.4727,5.0104,-0.61,5.0,-7.8,-0.77,-2000.0,1198.5
57.331,-0.0748,-0.459,5.0156,-0.61,5.0,-8.65,-0.72,-2000.0,1254.0
57.401,-0.0731,-0.4547,5.0274,-0.61,5.01,-8.93,-1.04,-2000.0,1205.5
57.472,-0.0767,-0.4727,5.0317,-0.61,5.02,-7.92,-0.94,-1798.9,1256.3
57.542,-0.054,-0.4808,5.0431,-0.61,5.02,-7.45,-1.24,-1915.9,1204.1
57.612,-0.0926,-0.4846,5.0472,-0.61,5.03,-7.21,-1.13,-1966.9,1250.4
57.682,-0.0755,-0.5077,5.0586,-0.61,5.03,-5.84,-1.43,-1683.8,1201.2
57.752,-0.09,-0.5176,5.0628,-0.61,5.04,-5.22,-1.32,-1851.8,1245.8
57.822,-0.0617,-0.5002,5.0742,-0.61,5.05,-6.14,-1.62,-2000.0,1190.9
57.893,-0.0714,-0.4959,5.0882,-0.61,5.05,-6.28,-2.07,-2000.0,1163.5
57.963,-0.0836,-0.5504,5.0933,-0.6,5.06,-3.04,-2.01,-1692.8,1226.9
58.033,-0.0549,-0.5324,5.1051,-0.6,5.06,-3.94,-2.34,-2000.0,1168.3
58.102,-0.0766,-0.5068,5.1093,-0.6,5.07,-5.26,-2.23,-2000.0,1215.4
58.173,-0.0559,-0.5062,5.1107,-0.6,5.08,-5.12,-1.96,-1976.8,1242.4
58.243,-0.0879,-0.5248,5.121,-0.59,5.08,-3.86,-2.2,-1699.3,1184.9
58.313,-0.0459,-0.5292,5.1247,-0.59,5.09,-3.4,-2.06,-1879.4,1225.4
58.384,-0.0768,-0.5259,5.136,-0.58,5.09,-3.36,-2.35,-1972.2,1172.0
58.454,-0.0778,-0.5682,5.14,-0.58,5.1,-0.7,-2.23,-1619.2,1223.7
58.524,-0.0395,-0.5481,5.1514,-0.58,5.11,-1.6,-2.53,-1968.2,1163.7
58.595,-0.0396,-0.5525,5.1555,-0.57,5.11,-1.07,-2.41,-1824.8,1212.6
58.665,-0.0223,-0.5243,5.1569,-0.57,5.12,-2.4,-2.15,-2000.0,1231.0
58.735,-0.0555,-0.5234,5.1672,-0.56,5.13,-2.15,-2.38,-1909.4,1174.7
58.805,-0.0514,-0.534,5.1709,-0.56,5.13,-1.23,-2.25,-1738.2,1218.4
58.875,-0.0331,-0.5188,5.1722,-0.55,5.14,-1.77,-1.97,-2000.0,1236.8
58.946,-0.0288,-0.5322,5.1825,-0.54,5.14,-0.65,-2.21,-1717.8,1181.1
59.016,-0.0289,-0.5298,5.1863,-0.54,5.15,-0.44,-2.07,-1889.9,1220.6
59.086,-0.0516,-0.5514,5.1875,-0.53,5.16,1.16,-1.79,-1541.0,1245.2
59.156,-0.0647,-0.567,5.1977,-0.52,5.16,2.43,-2.03,-1571.0,1186.4
59.226,-0.0459,-0.5432,5.2015,-0.52,5.17,1.45,-1.9,-1921.5,1221.9
59.296,-0.0568,-0.5226,5.2028,-0.51,5.17,0.66,-1.62,-2000.0,1244.2
59.371,-0.0483,-0.5271,5.2033,-0.5,5.18,1.35,-1.27,-1752.9,1260.3
59.444,-0.049,-0.5386,5.2131,-0.5,5.19,2.43,-1.47,-1626.4,1203.5
59.512,-0.0625,-0.5461,5.2167,-0.49,5.19,3.27,-1.33,-1654.6,1241.0
59.582,-0.0653,-0.5596,5.2179,-0.48,5.2,4.46,-1.05,-1532.7,1262.1
59.651,-0.0552,-0.5346,5.2183,-0.47,5.21,3.46,-0.73,-1879.0,1271.4
59.722,-0.0377,-0.4952,5.2282,-0.47,5.21,1.64,-0.94,-2000.0,1209.7
59.792,-0.0306,-0.4887,5.2319,-0.46,5.22,1.7,-0.81,-1885.0,1252.6
59.862,-0.0615,-0.496,5.2332,-0.45,5.22,2.55,-0.53,-1662.4,1275.3
59.931,-0.057,-0.476,5.2335,-0.44,5.23,1.84,-0.2,-2000.0,1287.1
60.002,-0.0401,-0.4432,5.2435,-0.44,5.24,0.41,-0.42,-2000.0,1223.7
60.073,-0.0405,-0.4542,5.2472,-0.43,5.24,1.48,-0.28,-1843.9,1269.1
60.143,-0.0741,-0.486,5.2485,-0.42,5.25,3.74,-0.0,-1493.9,1291.7
60.214,-0.0568,-0.4833,5.2588,-0.41,5.25,4.03,-0.24,-1763.9,1230.8
60.284,-0.0767,-0.4696,5.2626,-0.41,5.26,3.68,-0.11,-1912.7,1270.7
60.354,-0.0803,-0.4837,5.2639,-0.4,5.27,4.92,0.17,-1563.8,1294.8
60.424,-0.0732,-0.4732,5.2743,-0.39,5.27,4.74,-0.08,-1847.6,1233.1
60.494,-0.056,-0.4305,5.278,-0.38,5.28,2.72,0.06,-2000.0,1273.5
60.564,-0.0565,-0.3937,5.2894,-0.38,5.29,1.03,-0.24,-2000.0,1218.7
60.633,-0.0455,-0.3981,5.2936,-0.37,5.29,1.68,-0.13,-1879.4,1269.2
60.703,-0.0568,-0.3826,5.3049,-0.36,5.3,1.2,-0.43,-1979.8,1215.1
60.774,-0.069,-0.3895,5.3091,-0.35,5.3,1.99,-0.32,-1671.6,1264.2
60.845,-0.0505,-0.3991,5.3206,-0.35,5.31,2.93,-0.63,-1612.7,1210.9
60.914,-0.0579,-0.4035,5.3249,-0.34,5.32,3.55,-0.52,-1673.6,1257.7
60.984,-0.0579,-0.4022,5.3363,-0.34,5.32,3.84,-0.82,-1747.9,1204.0
61.054,-0.0371,-0.3988,5.3405,-0.33,5.33,4.0,-0.72,-1774.2,1251.0
61.125,-0.0468,-0.3834,5.352,-0.32,5.33,3.46,-1.02,-1937.8,1196.2
61.195,-0.0732,-0.3919,5.3561,-0.32,5.34,4.28,-0.91,-1598.7,1247.1
61.266,-0.0849,-0.4079,5.3676,-0.31,5.35,5.52,-1.21,-1453.2,1193.9
61.336,-0.0849,-0.4021,5.3718,-0.31,5.35,5.48,-1.1,-1776.2,1239.3
61.407,-0.0752,-0.397,5.3831,-0.3,5.36,5.48,-1.4,-1764.6,1186.0
