time,roll,pitch,yaw,rp_rpm,ry_rpm,err_p,err_y,mp_rpm,my_rpm
0.04,-0.055,0.0395,-0.0019,-0.43,0.0,-27.01,0.31,-295.8,260.7
0.107,-0.0507,0.041,-0.002,-0.42,0.01,-26.68,0.65,-628.5,237.6
0.174,-0.0508,0.0416,-0.002,-0.42,0.02,-26.29,0.99,-966.3,278.2
0.243,-0.053,0.0586,-0.002,-0.41,0.02,-26.84,1.33,-1308.2,317.7
0.31,-0.0526,0.0591,-0.0019,-0.4,0.03,-26.45,1.66,-1643.3,355.7
0.377,-0.0566,0.0523,-0.002,-0.4,0.03,-25.65,2.0,-1491.8,398.5
0.444,-0.0587,0.0396,-0.002,-0.39,0.04,-24.52,2.33,-1346.6,437.2
0.51,-0.0503,0.0363,-0.002,-0.38,0.04,-23.93,2.66,-1550.8,479.5
0.576,-0.0466,0.0432,-0.002,-0.37,0.05,-23.93,2.99,-1764.6,519.5
0.643,-0.0465,0.0516,-0.002,-0.37,0.06,-24.03,3.33,-1810.9,562.3
0.709,-0.0435,0.0673,-0.002,-0.36,0.06,-24.55,3.66,-1966.5,601.9
0.776,-0.0475,0.0842,-0.002,-0.35,0.07,-25.14,3.99,-2000.0,639.1
0.842,-0.0506,0.1184,-0.002,-0.35,0.07,-26.74,4.33,-2000.0,659.6
0.908,-0.0601,0.1055,-0.002,-0.34,0.08,-25.64,4.65,-1991.5,675.0
0.975,-0.0646,0.0769,-0.002,-0.34,0.09,-23.66,4.99,-1658.6,695.1
1.042,-0.0553,0.0668,-0.002,-0.33,0.09,-22.74,5.32,-1547.1,716.2
1.108,-0.0545,0.0646,-0.002,-0.32,0.1,-22.29,5.66,-1704.9,734.7
1.174,-0.0527,0.0711,-0.0021,-0.32,0.1,-22.35,5.99,-1881.1,753.8
1.241,-0.0496,0.0798,-0.0021,-0.31,0.11,-22.54,6.32,-1936.9,771.3
1.308,-0.0537,0.0689,-0.002,-0.31,0.11,-21.62,6.66,-1603.6,787.7
1.375,-0.0562,0.08,-0.002,-0.3,0.12,-21.98,6.99,-1937.5,805.6
1.441,-0.0492,0.0799,-0.002,-0.3,0.13,-21.71,7.32,-1820.8,822.1
1.508,-0.0442,0.066,-0.002,-0.29,0.13,-20.66,7.65,-1551.9,838.6
1.575,-0.044,0.0383,-0.002,-0.29,0.14,-18.84,7.99,-1216.3,855.8
1.642,-0.0272,0.0354,-0.002,-0.29,0.14,-18.44,8.32,-1548.8,872.3
1.709,-0.0274,0.0318,-0.002,-0.28,0.15,-18.03,8.66,-1721.5,887.7
1.775,-0.0315,0.0095,-0.002,-0.28,0.15,-16.56,8.99,-1388.8,904.0
1.842,-0.0318,0.0037,-0.002,-0.28,0.16,-16.05,9.32,-1649.2,919.3
1.909,-0.0375,0.0072,-0.002,-0.27,0.17,-16.09,9.66,-1835.7,935.6
1.977,-0.036,0.0013,-0.002,-0.27,0.17,-15.61,10.0,-1668.6,950.2
2.043,-0.0443,-0.0014,-0.002,-0.27,0.18,-15.33,10.33,-1734.2,964.8
2.109,-0.0464,-0.0133,-0.0019,-0.27,0.18,-14.54,10.66,-1546.5,979.1
2.177,-0.0501,-0.0312,-0.0019,-0.27,0.19,-13.42,10.99,-1397.4,993.6
2.243,-0.0523,-0.0509,-0.0019,-0.26,0.2,-12.21,11.33,-1319.7,1008.5
2.309,-0.07,-0.0786,-0.0019,-0.26,0.2,-10.57,11.65,-1046.3,1021.5
2.376,-0.0587,-0.0949,-0.0019,-0.26,0.21,-9.59,11.99,-1328.1,1035.2
2.442,-0.0617,-0.1304,-0.0019,-0.26,0.21,-7.53,12.32,-995.9,1048.6
2.508,-0.0578,-0.1493,-0.0019,-0.26,0.22,-6.44,12.65,-1145.1,1060.3
2.574,-0.0597,-0.1515,-0.0019,-0.26,0.22,-6.33,12.98,-1475.3,1073.1
2.641,-0.0488,-0.1575,-0.0019,-0.26,0.23,-6.01,13.31,-1466.1,1085.9
2.707,-0.0601,-0.1699,-0.0019,-0.26,0.24,-5.35,13.64,-1307.3,1098.8
2.774,-0.0594,-0.2156,-0.0019,-0.26,0.24,-2.79,13.97,-976.0,1111.3
2.84,-0.0799,-0.217,-0.0019,-0.27,0.25,-2.79,14.31,-1308.9,1121.0
2.906,-0.081,-0.2369,-0.0018,-0.27,0.25,-1.75,14.64,-977.3,1133.0
2.973,-0.0674,-0.2577,-0.0019,-0.27,0.26,-0.67,14.97,-858.3,1144.3
3.04,-0.0654,-0.2707,-0.0018,-0.27,0.27,-0.06,15.3,-1092.7,1154.3
3.108,-0.067,-0.3324,-0.0018,-0.27,0.27,3.33,15.64,-755.7,1166.6
3.174,-0.0722,-0.3212,-0.0018,-0.28,0.28,2.52,15.97,-1086.4,1171.5
3.241,-0.068,-0.3333,-0.0017,-0.28,0.28,3.03,16.3,-958.7,1183.9
3.311,-0.0451,-0.349,-0.0017,-0.28,0.29,3.73,16.66,-821.0,1195.3
3.383,-0.0377,-0.3581,-0.0018,-0.29,0.3,4.02,17.02,-1024.8,1206.0
3.455,-0.0352,-0.3683,0.0082,-0.29,0.3,4.36,16.81,-971.9,1135.5
3.526,-0.0429,-0.3806,0.012,-0.3,0.31,4.8,16.94,-876.2,1180.7
3.597,-0.0504,-0.3664,0.0134,-0.3,0.31,3.71,17.22,-1232.3,1204.0
3.669,-0.0396,-0.3698,0.0139,-0.31,0.32,3.61,17.55,-1195.7,1223.3
3.74,-0.06,-0.3929,0.0141,-0.31,0.33,4.63,17.89,-839.7,1236.3
3.811,-0.0738,-0.3878,0.0141,-0.32,0.33,4.02,18.25,-1191.2,1246.1
3.88,-0.0602,-0.3803,0.014,-0.32,0.34,3.26,18.6,-1453.2,1257.9
3.951,-0.0518,-0.3756,0.014,-0.33,0.34,2.65,18.95,-1412.8,1270.0
4.021,-0.0593,-0.3766,0.014,-0.34,0.35,2.35,19.3,-1299.4,1281.9
4.092,-0.06,-0.3543,0.014,-0.34,0.36,0.7,19.66,-1654.8,1292.8
4.164,-0.0666,-0.3583,0.014,-0.35,0.36,0.55,20.01,-1307.0,1306.4
4.233,-0.0621,-0.3485,0.014,-0.36,0.37,-0.4,20.36,-1627.1,1317.2
4.304,-0.065,-0.3291,0.014,-0.36,0.38,-1.9,20.72,-1834.8,1328.6
4.375,-0.0553,-0.3054,0.0139,-0.37,0.38,-3.67,21.08,-1953.9,1342.1
4.445,-0.0597,-0.2797,0.0239,-0.38,0.39,-5.56,20.86,-2000.0,1279.4
4.516,-0.0581,-0.2452,0.0276,-0.38,0.39,-7.96,21.0,-2000.0,1326.6
4.589,-0.0549,-0.2262,0.029,-0.39,0.4,-9.48,21.28,-2000.0,1352.9
4.66,-0.0363,-0.2157,0.0295,-0.4,0.41,-10.52,21.61,-1962.3,1370.1
4.731,-0.0247,-0.1969,0.0396,-0.41,0.41,-12.04,21.39,-2000.0,1309.3
4.802,-0.0263,-0.2009,0.0434,-0.41,0.42,-12.25,21.53,-1797.8,1355.1
4.874,-0.0393,-0.1724,0.0548,-0.42,0.43,-14.33,21.23,-2000.0,1302.1
4.945,-0.0222,-0.1434,0.0591,-0.43,0.43,-16.44,21.34,-2000.0,1350.8
5.016,-0.0191,-0.1274,0.0706,-0.44,0.44,-17.8,21.04,-2000.0,1303.4
5.087,-0.0485,-0.1055,0.0849,-0.45,0.44,-19.5,20.57,-2000.0,1275.0
5.157,-0.0391,-0.0971,0.0902,-0.45,0.45,-20.42,20.62,-2000.0,1336.1
5.229,-0.0533,-0.0999,0.1022,-0.46,0.46,-20.71,20.29,-2000.0,1289.5
5.3,-0.0391,-0.103,0.1165,-0.47,0.46,-20.97,19.82,-2000.0,1262.5
5.369,-0.0506,-0.1212,0.1319,-0.48,0.47,-20.36,19.29,-1890.9,1242.7
5.44,-0.0221,-0.0923,0.1375,-0.48,0.47,-22.44,19.32,-2000.0,1305.4
5.511,-0.0534,-0.1265,0.1496,-0.49,0.48,-20.9,18.98,-1893.9,1261.5
5.581,-0.0413,-0.1587,0.1639,-0.5,0.49,-19.48,18.52,-1673.1,1233.2
5.653,-0.05,-0.1639,0.1793,-0.51,0.49,-19.59,17.99,-2000.0,1211.8
5.723,-0.0719,-0.1919,0.1948,-0.51,0.5,-18.39,17.45,-1738.2,1196.0
5.794,-0.044,-0.2204,0.2006,-0.52,0.51,-17.16,17.47,-1706.3,1262.0
5.863,-0.0557,-0.2488,0.2125,-0.53,0.51,-15.91,17.14,-1668.1,1211.4
5.933,-0.0472,-0.2709,0.2268,-0.53,0.52,-15.02,16.67,-1763.6,1181.2
6.004,-0.0372,-0.28,0.2422,-0.54,0.52,-14.86,16.15,-1975.8,1159.5
6.074,-0.0525,-0.295,0.2577,-0.55,0.53,-14.35,15.61,-1878.4,1143.1
6.145,-0.0652,-0.3363,0.2635,-0.55,0.54,-12.32,15.63,-1525.2,1211.9
6.217,-0.0588,-0.375,0.2755,-0.56,0.54,-10.44,15.3,-1328.8,1160.6
6.286,-0.0694,-0.3866,0.2897,-0.56,0.55,-10.08,14.83,-1676.2,1126.9
6.357,-0.0708,-0.4189,0.3048,-0.57,0.55,-8.53,14.32,-1392.0,1108.7
6.429,-0.0708,-0.439,0.3105,-0.57,0.56,-7.67,14.35,-1609.5,1171.9
6.499,-0.0502,-0.4514,0.3223,-0.58,0.57,-7.23,14.03,-1727.9,1121.0
6.57,-0.0471,-0.4777,0.3265,-0.58,0.57,-5.97,14.14,-1419.7,1174.1
6.642,-0.0305,-0.5281,0.3379,-0.59,0.58,-3.32,13.85,-1059.4,1121.3
6.712,-0.0378,-0.5479,0.342,-0.59,0.59,-2.41,13.97,-1409.9,1164.1
6.785,-0.0501,-0.5562,0.3534,-0.59,0.59,-2.14,13.67,-1625.8,1111.1
6.855,-0.0417,-0.5807,0.3574,-0.6,0.6,-0.92,13.8,-1273.8,1159.9
6.925,-0.0334,-0.6008,0.3587,-0.6,0.6,0.07,14.07,-1277.9,1181.8
6.996,-0.0323,-0.614,0.369,-0.6,0.61,0.67,13.84,-1409.2,1120.9
7.066,-0.0449,-0.6306,0.3726,-0.6,0.62,1.5,13.98,-1284.6,1164.1
7.136,-0.0558,-0.6438,0.3738,-0.61,0.62,2.15,14.26,-1325.1,1184.6
7.209,-0.0515,-0.6453,0.3742,-0.61,0.63,2.14,14.6,-1559.7,1198.3
7.281,-0.0792,-0.6411,0.3741,-0.61,0.64,1.83,14.97,-1663.5,1211.8
7.352,-0.0861,-0.6565,0.3739,-0.61,0.64,2.66,15.34,-1306.2,1223.7
7.422,-0.0795,-0.644,0.3735,-0.61,0.65,1.91,15.71,-1658.7,1234.1
7.494,-0.0808,-0.6219,0.3734,-0.61,0.65,0.63,16.08,-1963.5,1247.0
7.564,-0.07,-0.6166,0.3731,-0.61,0.66,0.34,16.44,-1697.2,1261.7
7.634,-0.0548,-0.6059,0.3729,-0.61,0.67,-0.25,16.81,-1802.1,1273.3
7.705,-0.0592,-0.5878,0.3726,-0.61,0.67,-1.24,17.17,-1941.1,1286.7
7.774,-0.0645,-0.5647,0.3726,-0.61,0.68,-2.49,17.53,-2000.0,1300.1
7.845,-0.0694,-0.5444,0.3723,-0.61,0.68,-3.57,17.89,-2000.0,1315.5
7.915,-0.0754,-0.5299,0.3722,-0.6,0.69,-4.3,18.25,-1960.0,1329.0
7.985,-0.0903,-0.5077,0.3819,-0.6,0.7,-5.45,18.05,-2000.0,1274.3
8.059,-0.0776,-0.4905,0.3856,-0.6,0.7,-6.29,18.2,-2000.0,1318.5
8.131,-0.0472,-0.4506,0.3869,-0.6,0.71,-8.41,18.49,-2000.0,1344.1
8.199,-0.0767,-0.4348,0.3972,-0.59,0.72,-9.14,18.24,-2000.0,1290.6
8.265,-0.0828,-0.4024,0.401,-0.59,0.72,-10.81,18.35,-2000.0,1336.7
8.331,-0.0918,-0.3941,0.4023,-0.59,0.73,-11.09,18.61,-2000.0,1362.6
8.397,-0.1159,-0.3704,0.4126,-0.58,0.73,-12.23,18.34,-2000.0,1305.0
8.464,-0.0792,-0.3483,0.4165,-0.58,0.74,-13.26,18.46,-2000.0,1353.0
8.531,-0.0988,-0.3265,0.4278,-0.58,0.74,-14.27,18.14,-2000.0,1304.0
8.6,-0.0901,-0.3042,0.4321,-0.57,0.75,-15.27,18.25,-2000.0,1355.8
8.667,-0.0608,-0.3055,0.4434,-0.57,0.76,-14.93,17.93,-2000.0,1305.1
8.734,-0.0492,-0.2644,0.4477,-0.56,0.76,-16.99,18.02,-2000.0,1357.4
8.801,-0.0186,-0.2502,0.4591,-0.56,0.77,-17.5,17.7,-2000.0,1308.0
8.869,-0.0673,-0.2507,0.4734,-0.55,0.77,-17.16,17.22,-2000.0,1281.3
8.935,-0.0352,-0.2351,0.4786,-0.54,0.78,-17.73,17.25,-2000.0,1342.0
9.001,-0.0312,-0.2486,0.4905,-0.54,0.79,-16.63,16.9,-2000.0,1292.2
9.069,-0.0373,-0.2349,0.5048,-0.53,0.79,-17.07,16.42,-2000.0,1268.6
9.135,-0.0382,-0.2449,0.52,-0.53,0.8,-16.14,15.88,-2000.0,1248.4
9.202,-0.0656,-0.2241,0.5256,-0.52,0.8,-16.97,15.89,-2000.0,1316.3
9.268,-0.036,-0.2284,0.5376,-0.51,0.81,-16.35,15.54,-2000.0,1267.0
9.335,-0.0701,-0.2408,0.552,-0.51,0.81,-15.26,15.05,-1944.2,1240.2
9.401,-0.0716,-0.2307,0.5672,-0.5,0.82,-15.46,14.51,-2000.0,1221.3
9.468,-0.068,-0.2421,0.5827,-0.49,0.83,-14.41,13.95,-1953.6,1205.3
9.534,-0.078,-0.2346,0.5884,-0.49,0.83,-14.45,13.95,-2000.0,1275.5
9.6,-0.045,-0.2422,0.6004,-0.48,0.84,-13.61,13.6,-2000.0,1225.2
9.666,-0.0645,-0.2517,0.6147,-0.47,0.84,-12.66,13.11,-1960.2,1196.8
9.732,-0.0508,-0.2712,0.6298,-0.47,0.85,-11.13,12.58,-1751.4,1177.1
9.799,-0.0654,-0.2942,0.6453,-0.46,0.86,-9.41,12.02,-1639.9,1159.0
9.865,-0.0883,-0.2827,0.661,-0.45,0.86,-9.65,11.45,-1973.7,1143.9
9.932,-0.0842,-0.3078,0.6767,-0.44,0.87,-7.8,10.89,-1642.5,1128.0
9.998,-0.0517,-0.3124,0.6824,-0.44,0.87,-7.11,10.89,-1915.5,1200.1
10.064,-0.0682,-0.3377,0.6943,-0.43,0.88,-5.25,10.54,-1583.7,1148.2
10.13,-0.0444,-0.3558,0.7086,-0.42,0.88,-3.79,10.05,-1575.5,1117.2
10.197,-0.0489,-0.3944,0.7237,-0.41,0.89,-1.17,9.52,-1245.1,1095.3
10.263,-0.0332,-0.4087,0.7392,-0.41,0.9,0.06,8.96,-1521.7,1075.5
10.329,-0.0243,-0.4377,0.7449,-0.4,0.9,2.13,8.97,-1189.9,1147.0
10.395,-0.0522,-0.4563,0.7567,-0.39,0.91,3.6,8.62,-1284.4,1093.4
10.461,-0.0608,-0.4742,0.7708,-0.39,0.91,5.03,8.14,-1236.8,1062.1
10.528,-0.0758,-0.4752,0.7761,-0.38,0.92,5.49,8.18,-1571.9,1126.5
10.595,-0.0715,-0.4876,0.7877,-0.37,0.92,6.59,7.84,-1304.2,1073.1
10.661,-0.0779,-0.4917,0.7919,-0.37,0.93,7.21,7.93,-1465.9,1127.6
10.727,-0.08,-0.4931,0.8032,-0.36,0.94,7.66,7.62,-1504.6,1069.1
10.794,-0.0662,-0.5063,0.8072,-0.35,0.94,8.79,7.72,-1174.2,1124.4
10.86,-0.06,-0.5047,0.8185,-0.35,0.95,9.06,7.4,-1504.4,1064.1
10.927,-0.0671,-0.5194,0.8226,-0.34,0.95,10.26,7.5,-1170.5,1119.2
10.993,-0.0613,-0.5136,0.8239,-0.33,0.96,10.27,7.76,-1503.2,1145.3
11.059,-0.0667,-0.5256,0.8341,-0.33,0.97,11.29,7.51,-1172.5,1079.3
11.126,-0.0669,-0.4984,0.8377,-0.32,0.97,10.06,7.63,-1504.8,1127.0
11.192,-0.0654,-0.4985,0.839,-0.32,0.98,10.37,7.89,-1400.5,1154.8
11.258,-0.073,-0.4819,0.8393,-0.31,0.98,9.72,8.21,-1732.7,1171.7
11.324,-0.0824,-0.489,0.849,-0.31,0.99,10.41,7.98,-1402.0,1102.7
11.391,-0.062,-0.4673,0.8527,-0.3,0.99,9.44,8.1,-1734.2,1149.1
11.457,-0.0561,-0.4918,0.8538,-0.3,1.0,11.11,8.37,-1402.6,1177.0
11.524,-0.064,-0.4786,0.8541,-0.29,1.01,10.6,8.68,-1649.9,1190.7
11.59,-0.0738,-0.4733,0.854,-0.29,1.01,10.53,9.02,-1491.9,1205.5
11.656,-0.0787,-0.4575,0.8638,-0.29,1.02,9.84,8.79,-1720.8,1133.9
11.723,-0.0778,-0.4334,0.8674,-0.28,1.02,8.66,8.92,-1899.6,1182.0
11.789,-0.0853,-0.4354,0.8686,-0.28,1.03,8.97,9.18,-1566.5,1208.9
11.855,-0.0832,-0.4037,0.8689,-0.28,1.03,7.32,9.49,-1896.7,1225.1
11.921,-0.055,-0.377,0.8688,-0.27,1.04,5.95,9.83,-2000.0,1240.4
11.988,-0.0443,-0.3502,0.8787,-0.27,1.05,4.55,9.59,-2000.0,1169.2
12.054,-0.0395,-0.3354,0.8822,-0.27,1.05,3.83,9.72,-1886.3,1219.4
12.12,-0.0504,-0.3188,0.8835,-0.27,1.06,2.98,9.98,-1943.1,1244.3
12.187,-0.0498,-0.3067,0.8839,-0.27,1.06,2.38,10.29,-1889.3,1261.8
12.256,-0.0292,-0.2806,0.8939,-0.26,1.07,0.96,10.06,-2000.0,1193.2
12.324,-0.0516,-0.2837,0.8976,-0.26,1.08,1.19,10.19,-1792.3,1241.9
12.393,-0.0243,-0.2402,0.9088,-0.26,1.08,-1.26,9.9,-2000.0,1183.0
12.463,-0.0494,-0.2147,0.913,-0.26,1.09,-2.7,10.0,-2000.0,1237.7
12.53,-0.0616,-0.2076,0.9242,-0.26,1.09,-3.1,9.69,-1989.4,1178.9
12.596,-0.0851,-0.2018,0.9284,-0.26,1.1,-3.46,9.78,-1986.9,1233.3
12.662,-0.0523,-0.1885,0.9398,-0.26,1.1,-4.25,9.46,-2000.0,1173.1
12.728,-0.0422,-0.1976,0.9441,-0.26,1.11,-3.78,9.55,-1799.3,1229.4
12.795,-0.0645,-0.1767,0.9554,-0.26,1.12,-5.05,9.23,-2000.0,1168.2
12.861,-0.0697,-0.1781,0.9597,-0.27,1.12,-5.05,9.32,-1944.5,1225.1
12.928,-0.0761,-0.1657,0.9711,-0.27,1.13,-5.87,9.0,-2000.0,1163.9
12.994,-0.0443,-0.1784,0.9852,-0.27,1.13,-5.26,8.52,-1854.8,1129.6
13.061,-0.052,-0.1902,0.9905,-0.27,1.14,-4.72,8.55,-1784.2,1197.8
13.13,-0.0321,-0.1876,1.0023,-0.28,1.15,-5.02,8.22,-2000.0,1142.6
13.2,-0.0558,-0.1733,1.0167,-0.28,1.15,-6.02,7.75,-2000.0,1110.0
13.271,-0.0609,-0.2032,1.022,-0.28,1.16,-4.51,7.8,-1883.7,1180.2
13.343,-0.0523,-0.1582,1.0338,-0.29,1.16,-7.31,7.48,-2000.0,1122.8
13.413,-0.0536,-0.1878,1.0481,-0.29,1.17,-5.84,7.01,-1892.3,1091.8
13.484,-0.0712,-0.1849,1.0533,-0.29,1.18,-6.26,7.07,-2000.0,1159.0
13.555,-0.0468,-0.2254,1.0651,-0.3,1.18,-4.2,6.75,-1759.4,1104.5
13.625,-0.0605,-0.2416,1.0793,-0.3,1.19,-3.55,6.29,-1753.9,1068.1
13.695,-0.0771,-0.2815,1.0944,-0.31,1.2,-1.56,5.77,-1404.5,1044.9
13.766,-0.0559,-0.3174,1.1,-0.31,1.2,0.18,5.8,-1247.9,1117.7
13.841,-0.0486,-0.3339,1.1121,-0.32,1.21,0.79,5.49,-1622.8,1063.6
13.911,-0.0698,-0.367,1.1261,-0.33,1.21,2.35,5.03,-1274.8,1027.8
13.981,-0.0751,-0.4081,1.1313,-0.33,1.22,4.35,5.09,-920.7,1096.5
14.052,-0.0711,-0.4125,1.143,-0.34,1.23,4.24,4.77,-1273.2,1035.3
14.122,-0.0709,-0.4363,1.1472,-0.34,1.23,5.24,4.88,-1308.7,1094.6
14.193,-0.0568,-0.4737,1.1586,-0.35,1.24,7.0,4.58,-957.7,1034.7
14.263,-0.0603,-0.5052,1.1627,-0.36,1.24,8.41,4.7,-933.4,1088.5
14.333,-0.0782,-0.5179,1.1641,-0.37,1.25,8.75,4.97,-1284.6,1112.4
14.403,-0.0761,-0.53,1.1743,-0.37,1.26,9.03,4.73,-1392.8,1044.1
14.474,-0.0617,-0.5723,1.1781,-0.38,1.26,11.03,4.87,-1035.5,1096.1
14.545,-0.0578,-0.5758,1.1793,-0.39,1.27,10.81,5.16,-1388.9,1115.7
14.615,-0.0731,-0.5671,1.1795,-0.39,1.28,9.89,5.49,-1735.9,1131.0
14.685,-0.0692,-0.5683,1.1794,-0.4,1.28,9.53,5.85,-1565.0,1145.1
14.757,-0.0696,-0.5679,1.1793,-0.41,1.29,9.06,6.22,-1603.4,1156.7
14.829,-0.0756,-0.5632,1.179,-0.42,1.29,8.34,6.59,-1695.1,1168.1
14.9,-0.0775,-0.5689,1.1787,-0.43,1.3,8.23,6.96,-1502.0,1180.4
14.97,-0.074,-0.5656,1.1785,-0.43,1.31,7.6,7.33,-1684.5,1189.8
15.04,-0.0649,-0.5507,1.1783,-0.44,1.31,6.3,7.69,-1912.3,1199.9
15.11,-0.0525,-0.5696,1.1781,-0.45,1.32,6.94,8.05,-1559.2,1213.6
15.181,-0.0478,-0.5665,1.1879,-0.46,1.32,6.32,7.84,-1702.3,1144.5
15.251,-0.0324,-0.5528,1.1914,-0.46,1.33,5.1,7.99,-1908.7,1187.2
15.322,-0.0526,-0.5411,1.1927,-0.47,1.34,3.99,8.27,-1906.8,1210.7
15.393,-0.0355,-0.5073,1.1931,-0.48,1.34,1.62,8.61,-2000.0,1226.0
15.464,-0.053,-0.4955,1.1931,-0.49,1.35,0.52,8.96,-1998.1,1242.5
15.533,-0.063,-0.4655,1.1931,-0.49,1.36,-1.62,9.31,-2000.0,1253.6
15.604,-0.0477,-0.4308,1.1929,-0.5,1.36,-4.02,9.67,-2000.0,1266.8
15.674,-0.0619,-0.4282,1.2027,-0.51,1.37,-4.58,9.46,-2000.0,1204.2
15.745,-0.0698,-0.4107,1.2064,-0.52,1.37,-5.98,9.6,-2000.0,1247.0
15.815,-0.0982,-0.3667,1.2077,-0.52,1.38,-8.89,9.88,-2000.0,1270.5
15.887,-0.0689,-0.359,1.218,-0.53,1.39,-9.72,9.65,-2000.0,1212.9
15.957,-0.0986,-0.3562,1.2219,-0.54,1.39,-10.25,9.78,-2000.0,1258.6
16.028,-0.0684,-0.3638,1.2233,-0.54,1.4,-10.17,10.05,-2000.0,1283.1
16.101,-0.0856,-0.3329,1.2337,-0.55,1.41,-12.31,9.82,-2000.0,1220.6
16.172,-0.0475,-0.3182,1.2376,-0.55,1.41,-13.48,9.95,-2000.0,1267.1
16.241,-0.0615,-0.3108,1.2489,-0.56,1.42,-14.22,9.65,-2000.0,1212.7
16.312,-0.0614,-0.3238,1.253,-0.56,1.42,-13.79,9.77,-2000.0,1264.9
16.382,-0.0893,-0.3292,1.2644,-0.57,1.43,-13.77,9.46,-2000.0,1208.9
16.453,-0.0532,-0.3343,1.2687,-0.57,1.44,-13.76,9.58,-2000.0,1259.9
16.524,-0.079,-0.3149,1.2801,-0.58,1.44,-15.14,9.27,-2000.0,1204.3
16.594,-0.0447,-0.3149,1.2943,-0.58,1.45,-15.38,8.81,-2000.0,1176.2
16.665,-0.0736,-0.318,1.2996,-0.59,1.45,-15.44,8.86,-2000.0,1237.6
16.735,-0.0748,-0.3419,1.3114,-0.59,1.46,-14.28,8.54,-1928.0,1187.1
16.806,-0.1016,-0.3561,1.3158,-0.59,1.47,-13.66,8.64,-2000.0,1237.9
17.24,-0.1017,-0.3606,1.3858,-0.61,1.5,-14.21,6.8,-2000.0,1144.4
17.311,-0.0919,-0.3795,1.4035,-0.61,1.51,-13.19,6.14,-2000.0,1083.9
17.381,-0.0637,-0.412,1.4096,-0.61,1.52,-11.37,6.14,-1746.0,1163.8
17.453,-0.0971,-0.4502,1.4217,-0.61,1.52,-9.2,5.81,-1587.9,1116.2
17.524,-0.0507,-0.4637,1.436,-0.61,1.53,-8.43,5.35,-1943.4,1085.4
17.595,-0.0357,-0.4897,1.4413,-0.61,1.54,-6.92,5.4,-1719.1,1146.8
17.667,-0.0189,-0.4916,1.453,-0.61,1.54,-6.78,5.09,-2000.0,1095.6
17.737,-0.0517,-0.5401,1.467,-0.61,1.55,-3.94,4.63,-1728.5,1070.2
17.808,-0.0475,-0.5635,1.4722,-0.61,1.55,-2.53,4.68,-1616.6,1126.3
17.879,-0.0472,-0.547,1.484,-0.61,1.56,-3.38,4.37,-1973.4,1072.8
17.948,-0.0608,-0.5637,1.4881,-0.6,1.57,-2.31,4.48,-1715.0,1127.3
18.018,-0.0921,-0.5985,1.4994,-0.6,1.57,-0.19,4.18,-1366.2,1075.7
18.091,-0.0987,-0.6012,1.5037,-0.6,1.58,0.13,4.3,-1731.4,1120.9
18.162,-0.121,-0.6355,1.505,-0.6,1.58,2.26,4.58,-1377.0,1148.5
18.229,-0.1323,-0.6396,1.515,-0.59,1.59,2.68,4.34,-1710.4,1083.4
18.295,-0.1259,-0.6269,1.5187,-0.59,1.6,2.14,4.46,-2000.0,1126.3
18.361,-0.1168,-0.6349,1.5199,-0.59,1.6,2.81,4.73,-1709.0,1151.9
18.428,-0.1144,-0.6617,1.5202,-0.58,1.61,4.56,5.04,-1377.2,1167.2
18.495,-0.086,-0.6603,1.5201,-0.58,1.61,4.72,5.38,-1711.5,1175.7
18.561,-0.0647,-0.6761,1.5199,-0.57,1.62,5.88,5.72,-1379.5,1187.8
18.628,-0.0764,-0.68,1.5197,-0.57,1.63,6.37,6.06,-1585.5,1196.0
18.694,-0.0851,-0.6552,1.5294,-0.56,1.63,5.23,5.84,-1917.0,1131.1
18.76,-0.061,-0.6392,1.533,-0.56,1.64,4.6,5.97,-1979.2,1174.3
18.827,-0.0693,-0.6277,1.5342,-0.55,1.64,4.24,6.23,-1908.4,1197.9
18.893,-0.0764,-0.6173,1.5345,-0.55,1.65,3.96,6.55,-1892.5,1213.7
18.96,-0.0934,-0.6085,1.5345,-0.54,1.65,3.78,6.88,-1866.0,1226.4
19.026,-0.0671,-0.5909,1.5344,-0.54,1.66,3.11,7.22,-2000.0,1237.6
19.092,-0.0763,-0.5898,1.5342,-0.53,1.67,3.4,7.56,-1729.6,1250.1
19.16,-0.1029,-0.6067,1.5341,-0.52,1.67,4.72,7.9,-1392.9,1260.6
19.226,-0.1011,-0.556,1.5339,-0.52,1.68,2.18,8.25,-1725.5,1269.5
19.293,-0.1018,-0.5569,1.5337,-0.51,1.68,2.61,8.59,-1703.6,1284.0
19.36,-0.0894,-0.5437,1.5435,-0.5,1.69,2.24,8.36,-1953.0,1220.7
19.426,-0.1054,-0.5203,1.5471,-0.5,1.7,1.28,8.49,-2000.0,1263.1
19.494,-0.1096,-0.523,1.5484,-0.49,1.7,1.84,8.75,-1795.2,1287.2
19.561,-0.1168,-0.5213,1.5488,-0.48,1.71,2.14,9.07,-1753.6,1301.7
19.628,-0.1145,-0.5042,1.5488,-0.48,1.71,1.57,9.4,-2000.0,1314.1
19.695,-0.119,-0.4976,1.5587,-0.47,1.72,1.61,9.17,-1848.7,1253.1
19.763,-0.1155,-0.4834,1.5624,-0.46,1.72,1.21,9.3,-1981.4,1295.6
19.83,-0.1112,-0.4416,1.5637,-0.45,1.73,-0.77,9.56,-2000.0,1319.0
19.897,-0.1027,-0.4397,1.574,-0.45,1.74,-0.45,9.3,-1982.0,1260.7
19.964,-0.0713,-0.4234,1.5779,-0.44,1.74,-0.97,9.41,-2000.0,1305.5
20.03,-0.0547,-0.3933,1.5892,-0.43,1.75,-2.27,9.1,-2000.0,1252.7
20.097,-0.0496,-0.3651,1.5934,-0.43,1.75,-3.47,9.19,-2000.0,1302.7
20.165,-0.0206,-0.3346,1.6048,-0.42,1.76,-4.8,8.87,-2000.0,1250.9
20.231,-0.0559,-0.3257,1.6091,-0.41,1.77,-4.89,8.96,-2000.0,1301.4
20.298,-0.0408,-0.3092,1.6205,-0.4,1.77,-5.42,8.64,-2000.0,1248.3
20.365,-0.0301,-0.303,1.6248,-0.4,1.78,-5.36,8.73,-2000.0,1299.0
20.432,-0.0506,-0.3018,1.6362,-0.39,1.78,-5.03,8.41,-1978.1,1244.6
20.499,-0.0441,-0.3108,1.6503,-0.38,1.79,-4.11,7.94,-1785.4,1214.2
20.565,-0.0768,-0.3212,1.6556,-0.38,1.79,-3.12,7.97,-1733.1,1274.5
20.632,-0.0475,-0.3093,1.6674,-0.37,1.8,-3.41,7.63,-2000.0,1222.6
20.699,-0.0557,-0.3129,1.6718,-0.36,1.81,-2.82,7.71,-1853.4,1275.9
20.766,-0.0343,-0.3153,1.6832,-0.36,1.81,-2.31,7.39,-1861.7,1220.3
20.833,-0.0543,-0.3038,1.6973,-0.35,1.82,-2.59,6.91,-2000.0,1189.1
20.899,-0.0457,-0.3162,1.7025,-0.34,1.82,-1.53,6.95,-1763.9,1251.6
20.966,-0.0554,-0.3053,1.7143,-0.34,1.83,-1.8,6.61,-2000.0,1197.9
21.033,-0.0727,-0.3219,1.7187,-0.33,1.84,-0.51,6.69,-1740.1,1252.3
21.099,-0.0757,-0.3493,1.7301,-0.33,1.84,1.39,6.37,-1407.6,1195.9
21.169,-0.0757,-0.3545,1.7443,-0.32,1.85,2.01,5.9,-1707.8,1166.1
21.238,-0.0639,-0.362,1.7495,-0.31,1.85,2.76,5.95,-1641.9,1227.2
21.307,-0.0599,-0.3615,1.7613,-0.31,1.86,3.03,5.62,-1777.6,1174.6
21.376,-0.0583,-0.3868,1.7656,-0.3,1.87,4.77,5.72,-1431.4,1228.3
21.445,-0.0625,-0.3898,1.7769,-0.3,1.87,5.21,5.41,-1648.8,1171.9
21.514,-0.0574,-0.3871,1.7811,-0.29,1.88,5.32,5.52,-1746.8,1222.6
21.583,-0.0372,-0.365,1.7924,-0.29,1.88,4.29,5.21,-2000.0,1166.1
21.652,-0.0618,-0.3797,1.7966,-0.29,1.89,5.37,5.32,-1743.5,1220.1
21.721,-0.066,-0.3835,1.8079,-0.28,1.9,5.8,5.02,-1617.4,1163.5
21.79,-0.0691,-0.3928,1.822,-0.28,1.9,6.53,4.56,-1488.0,1131.7
21.861,-0.0653,-0.4019,1.8272,-0.28,1.91,7.23,4.61,-1469.4,1193.6
21.927,-0.0722,-0.4041,1.8288,-0.27,1.91,7.51,4.86,-1589.4,1222.8
21.994,-0.0714,-0.4231,1.8391,-0.27,1.92,8.74,4.59,-1258.2,1156.9
22.06,-0.0628,-0.4133,1.8429,-0.27,1.93,8.3,4.71,-1590.0,1203.7
22.126,-0.0675,-0.4176,1.8541,-0.27,1.93,8.65,4.4,-1503.2,1144.7
22.193,-0.0789,-0.4189,1.8583,-0.27,1.94,8.81,4.5,-1561.7,1196.9
22.26,-0.0774,-0.419,1.8597,-0.26,1.94,8.89,4.75,-1581.0,1223.1
22.327,-0.0707,-0.4198,1.8699,-0.26,1.95,8.99,4.49,-1562.9,1155.7
22.402,-0.0686,-0.4253,1.874,-0.26,1.95,9.35,4.64,-1462.1,1206.4
22.471,-0.0757,-0.4308,1.8751,-0.26,1.96,9.68,4.92,-1441.5,1231.7
22.541,-0.0785,-0.4356,1.8754,-0.26,1.97,9.95,5.25,-1444.0,1246.6
22.609,-0.0894,-0.4214,1.8853,-0.26,1.97,9.12,5.03,-1786.6,1178.1
22.678,-0.0807,-0.4205,1.8889,-0.26,1.98,9.03,5.17,-1588.4,1224.6
22.747,-0.0846,-0.4152,1.8901,-0.26,1.99,8.67,5.44,-1682.5,1248.1
22.816,-0.0789,-0.4006,1.9004,-0.27,1.99,7.76,5.2,-1867.9,1183.2
22.885,-0.0933,-0.4085,1.9041,-0.27,2.0,8.11,5.33,-1522.2,1231.7
22.954,-0.083,-0.3991,1.9054,-0.27,2.0,7.46,5.6,-1789.9,1254.5
23.024,-0.0677,-0.3987,1.9058,-0.27,2.01,7.31,5.93,-1635.4,1270.9
23.094,-0.054,-0.3871,1.9157,-0.27,2.02,6.49,5.71,-1853.4,1204.6
23.165,-0.0528,-0.357,1.9194,-0.28,2.02,4.6,5.85,-2000.0,1249.5
23.236,-0.0549,-0.3425,1.9306,-0.28,2.03,3.57,5.56,-1985.7,1194.5
23.305,-0.0495,-0.3015,1.9347,-0.28,2.03,1.02,5.68,-2000.0,1244.0
23.374,-0.0465,-0.3022,1.9361,-0.29,2.04,0.84,5.94,-1988.9,1272.5
23.445,-0.0374,-0.2929,1.9465,-0.29,2.05,0.07,5.7,-2000.0,1208.3
23.516,-0.0512,-0.2779,1.9503,-0.3,2.05,-1.05,5.84,-2000.0,1255.6
23.588,-0.0568,-0.2882,1.9616,-0.3,2.06,-0.73,5.55,-1768.2,1201.7
23.659,-0.046,-0.2872,1.9757,-0.31,2.06,-1.08,5.1,-1934.6,1167.9
23.73,-0.0657,-0.2921,1.9809,-0.31,2.07,-1.11,5.16,-1847.9,1229.4
23.802,-0.0492,-0.3153,1.9927,-0.32,2.08,-0.1,4.84,-1501.7,1178.7
23.873,-0.0622,-0.3276,1.997,-0.32,2.08,0.27,4.95,-1688.1,1229.6
23.943,-0.0445,-0.3193,2.0084,-0.33,2.09,-0.54,4.64,-2000.0,1171.8
24.013,-0.0386,-0.303,2.0126,-0.33,2.1,-1.83,4.75,-2000.0,1223.8
24.083,-0.056,-0.298,2.0239,-0.34,2.1,-2.48,4.45,-2000.0,1167.6
24.155,-0.07,-0.3118,2.0381,-0.35,2.11,-2.07,4.0,-1757.4,1138.4
24.227,-0.0591,-0.3423,2.0433,-0.35,2.11,-0.72,4.06,-1404.6,1201.3
24.3,-0.0512,-0.3278,2.0551,-0.36,2.12,-1.96,3.75,-1768.0,1145.6
24.37,-0.034,-0.2969,2.0593,-0.37,2.13,-4.13,3.86,-2000.0,1198.2
24.44,-0.0232,-0.3262,2.0707,-0.38,2.13,-2.87,3.56,-1766.0,1144.7
24.511,-0.0336,-0.3415,2.0848,-0.38,2.14,-2.41,3.1,-1758.8,1110.8
24.582,-0.0675,-0.3703,2.09,-0.39,2.15,-1.19,3.16,-1475.3,1175.3
24.653,-0.072,-0.392,2.1017,-0.4,2.15,-0.37,2.84,-1580.3,1120.0
24.724,-0.07,-0.4215,2.106,-0.41,2.16,0.88,2.95,-1380.2,1174.4
24.793,-0.0495,-0.4155,2.1173,-0.41,2.16,0.1,2.65,-1725.1,1112.7
24.863,-0.0571,-0.4133,2.1214,-0.42,2.17,-0.46,2.77,-1984.5,1166.9
24.933,-0.0637,-0.414,2.1228,-0.43,2.18,-0.86,3.04,-1951.8,1193.6
25.003,-0.0726,-0.4166,2.1331,-0.44,2.18,-1.15,2.8,-1932.0,1127.1
25.075,-0.0782,-0.4349,2.1369,-0.44,2.19,-0.55,2.94,-1655.2,1176.9
25.146,-0.0909,-0.4461,2.1481,-0.45,2.19,-0.36,2.65,-1770.3,1118.6
25.216,-0.0695,-0.4619,2.1522,-0.46,2.2,0.11,2.77,-1669.9,1169.4
25.286,-0.0723,-0.465,2.1635,-0.47,2.21,-0.14,2.47,-1891.6,1110.5
25.356,-0.0885,-0.4767,2.1677,-0.48,2.21,0.09,2.58,-1743.2,1163.1
25.427,-0.0832,-0.4817,2.1691,-0.48,2.22,-0.05,2.86,-1857.0,1188.0
25.498,-0.0753,-0.4862,2.1794,-0.49,2.23,-0.22,2.62,-1866.7,1123.6
25.568,-0.0489,-0.4575,2.1831,-0.5,2.23,-2.28,2.76,-2000.0,1167.7
25.638,-0.0469,-0.4697,2.1843,-0.5,2.24,-1.99,3.04,-1867.9,1196.0
25.709,-0.0413,-0.4622,2.1946,-0.51,2.24,-2.82,2.8,-2000.0,1128.9
25.78,-0.0597,-0.4638,2.1984,-0.52,2.25,-3.13,2.94,-1993.2,1177.0
25.852,-0.0592,-0.4794,2.2096,-0.53,2.26,-2.63,2.66,-1758.2,1122.2
25.922,-0.0324,-0.4945,2.2137,-0.53,2.26,-2.14,2.78,-1744.8,1171.4
25.992,-0.0624,-0.4924,2.215,-0.54,2.27,-2.62,3.05,-2000.0,1194.2
26.064,-0.0565,-0.4954,2.2254,-0.54,2.27,-2.82,2.81,-1957.7,1132.0
26.136,-0.0358,-0.4783,2.2292,-0.55,2.28,-4.14,2.95,-2000.0,1176.2
26.207,-0.0646,-0.4784,2.2405,-0.56,2.29,-4.47,2.66,-2000.0,1121.8
26.279,-0.062,-0.4678,2.2446,-0.56,2.29,-5.4,2.79,-2000.0,1171.5
26.35,-0.0685,-0.4953,2.246,-0.57,2.3,-4.13,3.07,-1857.0,1199.5
26.424,-0.0697,-0.4935,2.2564,-0.57,2.31,-4.52,2.84,-2000.0,1135.4
26.494,-0.0791,-0.5221,2.26,-0.58,2.31,-3.16,2.98,-1717.5,1182.5
26.565,-0.0506,-0.5,2.2712,-0.58,2.32,-4.68,2.69,-2000.0,1121.6
26.635,-0.0728,-0.5072,2.2754,-0.59,2.32,-4.5,2.81,-1929.5,1173.8
26.706,-0.0657,-0.5186,2.2768,-0.59,2.33,-4.07,3.08,-1850.5,1198.5
26.778,-0.0647,-0.5134,2.2871,-0.59,2.34,-4.57,2.85,-2000.0,1136.0
26.85,-0.0817,-0.5303,2.2909,-0.6,2.34,-3.79,2.99,-1751.1,1182.6
26.921,-0.0749,-0.5266,2.2922,-0.6,2.35,-4.17,3.27,-2000.0,1203.2
26.992,-0.0969,-0.5622,2.3025,-0.6,2.36,-2.28,3.04,-1717.7,1146.9
27.063,-0.0596,-0.538,2.3063,-0.6,2.36,-3.8,3.18,-2000.0,1184.1
27.133,-0.0843,-0.5272,2.3075,-0.61,2.37,-4.53,3.45,-2000.0,1208.7
27.205,-0.1139,-0.5465,2.3079,-0.61,2.37,-3.51,3.79,-1817.4,1226.0
27.275,-0.0671,-0.5344,2.3178,-0.61,2.38,-4.28,3.57,-2000.0,1159.7
27.346,-0.1051,-0.5356,2.3215,-0.61,2.39,-4.26,3.72,-1988.6,1204.3
27.417,-0.1233,-0.5401,2.3228,-0.61,2.39,-4.04,4.0,-1931.2,1226.4
27.487,-0.113,-0.5415,2.333,-0.61,2.4,-3.97,3.76,-1972.6,1166.3
27.557,-0.0851,-0.5337,2.3368,-0.61,2.4,-4.41,3.9,-2000.0,1208.9
27.629,-0.1,-0.5463,2.3382,-0.61,2.41,-3.67,4.18,-1785.6,1233.0
27.699,-0.0532,-0.5152,2.3484,-0.61,2.42,-5.4,3.94,-2000.0,1169.8
27.769,-0.0856,-0.5303,2.3523,-0.61,2.42,-4.48,4.07,-1784.5,1217.9
27.841,-0.0557,-0.5394,2.3536,-0.61,2.43,-3.87,4.35,-1839.4,1239.3
27.911,-0.0678,-0.5546,2.3639,-0.61,2.44,-2.89,4.11,-1698.6,1181.4
27.981,-0.0403,-0.5497,2.3677,-0.6,2.44,-3.05,4.24,-2000.0,1221.7
28.052,-0.0542,-0.5247,2.369,-0.6,2.45,-4.34,4.52,-2000.0,1243.4
28.122,-0.0855,-0.5407,2.3794,-0.6,2.45,-3.26,4.28,-1973.2,1189.0
28.189,-0.0713,-0.5412,2.3831,-0.59,2.46,-3.07,4.41,-1936.9,1228.8
28.256,-0.0903,-0.5522,2.3843,-0.59,2.47,-2.26,4.66,-1725.9,1251.2
28.322,-0.0455,-0.5576,2.3947,-0.59,2.47,-1.75,4.4,-1806.3,1189.1
28.388,-0.0334,-0.5633,2.3985,-0.58,2.48,-1.21,4.52,-1783.7,1232.8
28.455,-0.0374,-0.5565,2.4097,-0.58,2.48,-1.37,4.21,-1993.2,1178.6
28.521,-0.0468,-0.5641,2.4139,-0.58,2.49,-0.69,4.3,-1723.0,1226.2
28.587,-0.0304,-0.5475,2.4154,-0.57,2.49,-1.39,4.54,-2000.0,1248.0
28.653,-0.0225,-0.5406,2.4257,-0.57,2.5,-1.51,4.28,-1990.3,1188.6
28.72,-0.0567,-0.5403,2.4295,-0.56,2.51,-1.25,4.4,-1872.9,1233.4
28.787,-0.0442,-0.5168,2.4309,-0.56,2.51,-2.3,4.65,-2000.0,1254.9
28.853,-0.0715,-0.5136,2.4412,-0.55,2.52,-2.17,4.4,-1941.8,1195.7
28.92,-0.0573,-0.4908,2.445,-0.55,2.52,-3.16,4.51,-2000.0,1238.8
28.986,-0.0968,-0.4903,2.4563,-0.54,2.53,-2.86,4.2,-1932.3,1185.8
29.053,-0.0584,-0.5102,2.4605,-0.53,2.54,-1.37,4.29,-1596.3,1235.6
29.12,-0.0571,-0.5163,2.4718,-0.53,2.54,-0.67,3.97,-1730.9,1180.8
29.186,-0.0471,-0.5102,2.476,-0.52,2.55,-0.66,4.07,-1941.0,1228.1
29.253,-0.0622,-0.4948,2.4775,-0.52,2.55,-1.17,4.32,-2000.0,1252.2
29.32,-0.0344,-0.4854,2.4879,-0.51,2.56,-1.33,4.05,-2000.0,1191.1
29.386,-0.0592,-0.4868,2.4916,-0.5,2.56,-0.87,4.17,-1817.3,1236.9
29.454,-0.0399,-0.4458,2.503,-0.5,2.57,-2.82,3.86,-2000.0,1179.5
29.52,-0.0702,-0.4574,2.5071,-0.49,2.58,-1.76,3.95,-1823.7,1232.2
29.587,-0.0444,-0.4607,2.5184,-0.48,2.58,-1.17,3.64,-1791.8,1176.7
29.653,-0.0397,-0.481,2.5226,-0.47,2.59,0.4,3.73,-1459.9,1227.0
29.72,-0.0342,-0.481,2.534,-0.47,2.59,0.81,3.41,-1786.7,1170.4
29.786,-0.0589,-0.489,2.5382,-0.46,2.6,1.68,3.5,-1608.0,1220.2
29.853,-0.0472,-0.4749,2.5496,-0.45,2.61,1.29,3.18,-1941.9,1163.9
29.92,-0.0685,-0.487,2.5538,-0.45,2.61,2.4,3.28,-1606.8,1215.8
29.986,-0.0466,-0.4919,2.5552,-0.44,2.62,3.09,3.53,-1615.8,1239.6
30.053,-0.0285,-0.4874,2.5656,-0.43,2.62,3.26,3.27,-1781.9,1176.1
30.119,-0.0238,-0.4959,2.5693,-0.42,2.63,4.16,3.38,-1499.7,1222.2
30.185,-0.0326,-0.4908,2.5806,-0.42,2.63,4.28,3.07,-1758.1,1164.7
30.252,-0.0338,-0.4951,2.5847,-0.41,2.64,4.94,3.17,-1554.6,1214.6
30.318,-0.0442,-0.5062,2.5861,-0.4,2.65,5.99,3.42,-1365.4,1239.2
30.385,-0.0605,-0.5056,2.5965,-0.39,2.65,6.36,3.16,-1596.9,1175.4
30.452,-0.0707,-0.5059,2.6003,-0.39,2.66,6.79,3.28,-1559.7,1221.1
30.519,-0.0812,-0.5048,2.6015,-0.38,2.66,7.13,3.54,-1573.8,1244.2
30.585,-0.0821,-0.509,2.6019,-0.37,2.67,7.76,3.85,-1434.5,1259.1
30.652,-0.0781,-0.4967,2.6119,-0.37,2.67,7.44,3.61,-1768.1,1192.8
30.718,-0.0575,-0.4515,2.6155,-0.36,2.68,5.23,3.73,-2000.0,1234.8
30.785,-0.0456,-0.4513,2.6168,-0.35,2.69,5.59,4.0,-1764.9,1261.4
30.853,-0.031,-0.4502,2.6271,-0.35,2.69,5.9,3.74,-1604.3,1198.7
30.92,-0.0465,-0.4507,2.6309,-0.34,2.7,6.29,3.86,-1558.6,1243.3
30.987,-0.0403,-0.462,2.6322,-0.33,2.7,7.28,4.12,-1278.1,1267.2
31.053,-0.0429,-0.4413,2.6424,-0.33,2.71,6.43,3.86,-1609.4,1200.8
31.119,-0.0429,-0.429,2.6463,-0.32,2.72,6.05,3.98,-1805.3,1247.4
31.188,-0.0374,-0.4204,2.6476,-0.32,2.72,5.88,4.24,-1737.7,1271.8
31.256,-0.0425,-0.4028,2.658,-0.31,2.73,5.18,3.99,-1911.9,1208.9
31.325,-0.055,-0.374,2.6618,-0.31,2.73,3.83,4.12,-2000.0,1254.8
31.396,-0.0756,-0.3664,2.6731,-0.3,2.74,3.68,3.82,-1789.8,1201.9
31.463,-0.0835,-0.3561,2.6772,-0.3,2.75,3.35,3.92,-1855.7,1249.7
31.529,-0.0701,-0.3459,2.6885,-0.29,2.75,3.01,3.61,-1867.3,1191.4
31.596,-0.0894,-0.3303,2.6927,-0.29,2.76,2.35,3.7,-1975.9,1243.3
31.662,-0.0877,-0.3277,2.7041,-0.29,2.76,2.42,3.38,-1758.0,1185.6
31.728,-0.1101,-0.3159,2.7083,-0.28,2.77,1.95,3.47,-1933.0,1237.7
31.796,-0.0782,-0.3313,2.7197,-0.28,2.77,3.02,3.15,-1597.6,1181.3
31.862,-0.0563,-0.3215,2.7238,-0.28,2.78,2.63,3.25,-1886.3,1232.2
31.929,-0.0464,-0.3114,2.7352,-0.27,2.79,2.2,2.93,-1906.3,1173.4
32.003,-0.0402,-0.2713,2.7496,-0.27,2.79,0.06,2.47,-2000.0,1146.2
32.072,-0.0672,-0.2819,2.7547,-0.27,2.8,0.79,2.53,-1933.2,1208.2
32.141,-0.0386,-0.2936,2.7665,-0.27,2.8,1.57,2.2,-1588.9,1152.5
32.21,-0.0441,-0.3054,2.7807,-0.26,2.81,2.33,1.73,-1529.3,1120.4
32.279,-0.0344,-0.3041,2.7959,-0.26,2.82,2.33,1.2,-1773.3,1094.0
32.345,-0.0381,-0.3003,2.8013,-0.26,2.82,2.16,1.22,-1827.9,1163.4
32.412,-0.0527,-0.3125,2.8132,-0.26,2.83,2.89,0.87,-1503.9,1106.0
32.478,-0.0398,-0.3113,2.8175,-0.26,2.83,2.84,0.96,-1766.9,1163.6
32.545,-0.0481,-0.3366,2.8289,-0.26,2.84,4.28,0.64,-1432.8,1103.9
32.611,-0.0692,-0.3446,2.843,-0.26,2.85,4.72,0.17,-1535.1,1065.5
32.678,-0.0481,-0.3459,2.8482,-0.26,2.85,4.76,0.2,-1666.7,1133.3
32.744,-0.027,-0.3557,2.8599,-0.26,2.86,5.27,-0.14,-1479.3,1073.5
32.812,-0.0371,-0.3663,2.8642,-0.27,2.86,5.8,-0.05,-1451.0,1132.8
32.878,-0.048,-0.3609,2.8755,-0.27,2.87,5.4,-0.37,-1774.6,1067.6
32.944,-0.0738,-0.3751,2.8797,-0.27,2.87,6.11,-0.27,-1442.3,1126.7
33.01,-0.0701,-0.3788,2.8909,-0.27,2.88,6.19,-0.59,-1579.0,1060.9
33.081,-0.064,-0.3729,2.8953,-0.27,2.89,5.71,-0.48,-1770.9,1118.5
33.15,-0.037,-0.3807,2.9066,-0.28,2.89,5.99,-0.78,-1511.2,1058.0
33.221,-0.0307,-0.3865,2.9107,-0.28,2.9,6.14,-0.67,-1547.3,1114.2
33.29,-0.0429,-0.3968,2.922,-0.28,2.91,6.52,-0.97,-1444.6,1053.0
33.361,-0.0571,-0.3995,2.9262,-0.29,2.91,6.46,-0.85,-1594.7,1108.1
33.43,-0.0479,-0.4007,2.9275,-0.29,2.92,6.3,-0.58,-1630.6,1135.8
33.501,-0.0413,-0.3885,2.9378,-0.3,2.92,5.34,-0.82,-1888.7,1063.1
33.571,-0.0343,-0.3943,2.9415,-0.3,2.93,5.41,-0.68,-1574.5,1116.2
33.642,-0.0197,-0.3969,2.9428,-0.3,2.94,5.28,-0.4,-1640.8,1142.2
33.713,-0.0368,-0.3786,2.953,-0.31,2.94,3.93,-0.63,-1996.5,1069.9
33.784,-0.0468,-0.3671,2.9567,-0.32,2.95,2.95,-0.49,-1948.8,1121.2
33.854,-0.0627,-0.381,2.9579,-0.32,2.95,3.42,-0.21,-1595.6,1149.1
33.933,-0.0654,-0.3924,2.9685,-0.33,2.96,3.7,-0.42,-1556.1,1084.4
34.002,-0.0779,-0.3874,2.972,-0.33,2.97,3.07,-0.27,-1847.4,1129.3
34.071,-0.085,-0.394,2.9731,-0.34,2.97,3.09,0.01,-1644.7,1155.0
34.14,-0.0735,-0.3958,2.9833,-0.35,2.98,2.82,-0.23,-1740.7,1082.5
34.21,-0.09,-0.3868,2.9872,-0.35,2.99,1.93,-0.1,-1945.0,1132.4
34.279,-0.0871,-0.383,2.9884,-0.36,2.99,1.32,0.17,-1882.3,1158.6
34.346,-0.0942,-0.382,2.9986,-0.37,3.0,0.88,-0.08,-1851.3,1085.2
34.413,-0.0945,-0.405,3.0023,-0.37,3.0,1.81,0.04,-1519.4,1138.7
34.479,-0.0961,-0.3952,3.0036,-0.38,3.01,0.86,0.3,-1852.1,1161.2
34.545,-0.0965,-0.4333,3.0139,-0.39,3.01,2.65,0.04,-1522.0,1092.2
34.611,-0.0747,-0.4024,3.0177,-0.39,3.02,0.47,0.16,-1852.7,1136.6
34.678,-0.0775,-0.4011,3.019,-0.4,3.03,-0.01,0.41,-1885.7,1164.9
34.744,-0.0731,-0.4161,3.0194,-0.41,3.03,0.45,0.72,-1569.7,1182.4
34.81,-0.0947,-0.4114,3.0293,-0.42,3.04,-0.24,0.48,-1901.9,1104.2
34.888,-0.0781,-0.3938,3.0333,-0.42,3.04,-1.73,0.64,-2000.0,1156.1
34.956,-0.0413,-0.39,3.0443,-0.43,3.05,-2.38,0.35,-1994.2,1094.7
35.025,-0.06,-0.387,3.0484,-0.44,3.06,-2.98,0.46,-2000.0,1148.2
35.095,-0.0511,-0.3921,3.0499,-0.45,3.06,-3.13,0.73,-1880.2,1175.1
35.163,-0.0545,-0.3752,3.0602,-0.45,3.07,-4.52,0.48,-2000.0,1102.5
35.229,-0.0321,-0.3735,3.0639,-0.46,3.07,-5.03,0.6,-2000.0,1153.9
35.295,-0.0652,-0.3825,3.0751,-0.47,3.08,-4.92,0.28,-1867.8,1089.3
35.361,-0.076,-0.3844,3.0793,-0.48,3.09,-5.23,0.38,-1996.7,1144.6
35.428,-0.0695,-0.4121,3.0807,-0.48,3.09,-4.04,0.63,-1665.0,1173.5
35.494,-0.0523,-0.4108,3.0911,-0.49,3.1,-4.52,0.36,-1995.2,1098.1
35.56,-0.03,-0.4183,3.0949,-0.5,3.1,-4.48,0.48,-1887.1,1150.4
35.627,-0.0505,-0.4265,3.1062,-0.5,3.11,-4.4,0.16,-1873.9,1087.2
35.693,-0.0455,-0.433,3.1103,-0.51,3.11,-4.41,0.26,-1902.9,1141.4
35.76,-0.0645,-0.4608,3.1117,-0.52,3.12,-3.19,0.51,-1571.1,1169.9
35.827,-0.046,-0.4888,3.1221,-0.52,3.13,-1.96,0.25,-1414.5,1100.0
35.894,-0.0648,-0.4943,3.1259,-0.53,3.13,-2.0,0.37,-1748.9,1146.7
35.96,-0.0553,-0.5104,3.1272,-0.54,3.14,-1.43,0.62,-1632.5,1171.9
36.026,-0.0468,-0.5023,3.1375,-0.54,3.14,-2.23,0.36,-1964.2,1099.5
36.093,-0.0611,-0.5008,3.1413,-0.55,3.15,-2.65,0.48,-1974.3,1149.3
36.159,-0.0592,-0.5151,3.1426,-0.55,3.16,-2.14,0.74,-1682.6,1175.0
36.226,-0.062,-0.5261,3.143,-0.56,3.16,-1.82,1.05,-1732.4,1188.9
36.292,-0.0765,-0.5598,3.153,-0.56,3.17,-0.18,0.81,-1400.0,1121.5
36.359,-0.0891,-0.5612,3.1566,-0.57,3.17,-0.38,0.93,-1733.6,1162.8
36.425,-0.0691,-0.5668,3.1579,-0.57,3.18,-0.33,1.19,-1770.6,1185.8
36.492,-0.0648,-0.5705,3.1583,-0.58,3.18,-0.37,1.5,-1800.5,1199.7
36.558,-0.0558,-0.5617,3.1583,-0.58,3.19,-1.12,1.84,-2000.0,1209.5
36.625,-0.042,-0.5591,3.1582,-0.59,3.2,-1.49,2.17,-1931.8,1220.3
36.691,-0.0511,-0.5524,3.168,-0.59,3.2,-2.09,1.94,-2000.0,1150.6
36.758,-0.0299,-0.5361,3.1716,-0.59,3.21,-3.22,2.07,-2000.0,1193.5
36.824,-0.0483,-0.5531,3.1729,-0.6,3.21,-2.42,2.33,-1851.3,1219.2
36.891,-0.0443,-0.5742,3.1733,-0.6,3.22,-1.38,2.64,-1518.6,1232.8
36.957,-0.0577,-0.5564,3.1833,-0.6,3.23,-2.54,2.4,-1850.3,1161.7
37.024,-0.0405,-0.5362,3.187,-0.6,3.23,-3.83,2.52,-2000.0,1206.1
37.091,-0.0362,-0.5171,3.1883,-0.61,3.24,-5.04,2.78,-2000.0,1229.1
37.157,-0.0344,-0.5148,3.1887,-0.61,3.24,-5.28,3.09,-2000.0,1245.2
37.224,-0.0609,-0.537,3.1887,-0.61,3.25,-4.08,3.42,-1681.1,1258.2
37.29,-0.0437,-0.5193,3.1986,-0.61,3.25,-5.16,3.18,-2000.0,1186.8
37.357,-0.0666,-0.5358,3.2023,-0.61,3.26,-4.26,3.3,-1680.5,1233.3
37.423,-0.0283,-0.5274,3.2036,-0.61,3.27,-4.77,3.56,-2000.0,1252.7
37.491,-0.026,-0.5245,3.204,-0.61,3.27,-4.95,3.88,-2000.0,1267.2
37.557,-0.0241,-0.5028,3.214,-0.61,3.28,-6.19,3.64,-2000.0,1200.4
37.624,-0.0455,-0.5085,3.2177,-0.61,3.28,-5.84,3.76,-1975.7,1246.5
37.69,-0.0825,-0.5039,3.2191,-0.61,3.29,-6.06,4.01,-2000.0,1267.6
37.757,-0.0697,-0.5308,3.2294,-0.61,3.29,-4.46,3.75,-1719.4,1208.8
37.825,-0.0637,-0.5532,3.2333,-0.61,3.3,-3.1,3.87,-1482.3,1251.2
37.891,-0.0479,-0.5418,3.2346,-0.61,3.31,-3.66,4.13,-1815.0,1269.6
37.958,-0.0727,-0.5418,3.245,-0.6,3.31,-3.54,3.87,-1901.2,1210.2
38.024,-0.0718,-0.5158,3.2488,-0.6,3.32,-4.91,3.98,-2000.0,1251.7
38.092,-0.0914,-0.5165,3.2502,-0.6,3.32,-4.72,4.24,-1920.5,1276.7
38.158,-0.0695,-0.5342,3.2506,-0.6,3.33,-3.55,4.54,-1591.4,1291.6
38.225,-0.0684,-0.5346,3.2606,-0.59,3.34,-3.35,4.31,-1881.4,1227.5
38.291,-0.0397,-0.5272,3.2643,-0.59,3.34,-3.59,4.42,-2000.0,1268.2
38.358,-0.0317,-0.5045,3.2656,-0.59,3.35,-4.68,4.68,-2000.0,1289.7
38.425,-0.0129,-0.5042,3.276,-0.58,3.35,-4.47,4.43,-1929.2,1231.5
38.492,-0.0354,-0.4902,3.2798,-0.58,3.36,-5.03,4.54,-2000.0,1273.8
38.558,-0.0326,-0.4727,3.2911,-0.57,3.36,-5.79,4.23,-2000.0,1220.0
38.625,-0.0539,-0.5068,3.2953,-0.57,3.37,-3.57,4.32,-1886.1,1271.0
38.692,-0.0287,-0.5033,3.2968,-0.56,3.38,-3.49,4.57,-1942.0,1291.1
38.759,-0.0142,-0.5208,3.3071,-0.56,3.38,-2.19,4.31,-1609.2,1233.1
38.828,-0.031,-0.5083,3.3111,-0.55,3.39,-2.59,4.43,-1956.1,1274.5
38.895,-0.0435,-0.5185,3.3123,-0.55,3.39,-1.69,4.69,-1639.3,1298.2
38.961,-0.0476,-0.4966,3.3227,-0.54,3.4,-2.62,4.43,-1972.4,1235.8
39.031,-0.0682,-0.5333,3.3266,-0.54,3.41,-0.16,4.56,-1623.4,1283.8
39.103,-0.0365,-0.5183,3.338,-0.53,3.41,-0.64,4.26,-1983.5,1232.1
39.175,-0.0604,-0.5222,3.3421,-0.52,3.42,-0.04,4.38,-1699.6,1277.5
39.244,-0.0596,-0.5496,3.3436,-0.52,3.42,1.92,4.65,-1352.0,1300.7
39.316,-0.0436,-0.5326,3.354,-0.51,3.43,1.35,4.41,-1710.2,1243.3
39.386,-0.0521,-0.5087,3.3578,-0.5,3.44,0.38,4.54,-2000.0,1284.0
39.456,-0.0272,-0.5062,3.369,-0.49,3.44,0.66,4.25,-1772.2,1236.3
39.527,-0.019,-0.4886,3.3732,-0.49,3.45,0.06,4.36,-2000.0,1280.1
39.597,-0.0281,-0.4989,3.3746,-0.48,3.46,1.08,4.63,-1678.1,1304.8
39.671,-0.0448,-0.5135,3.3851,-0.47,3.46,2.37,4.4,-1399.1,1251.7
39.741,-0.048,-0.5258,3.3888,-0.46,3.47,3.5,4.54,-1384.0,1290.5
39.815,-0.0516,-0.5075,3.3902,-0.46,3.47,2.92,4.83,-1755.4,1310.6
39.886,-0.0466,-0.5061,3.4005,-0.45,3.48,3.28,4.59,-1654.0,1257.0
39.956,-0.0358,-0.5029,3.4042,-0.44,3.49,3.54,4.73,-1676.2,1297.7
40.027,-0.0529,-0.4869,3.4055,-0.43,3.49,3.07,5.01,-1900.6,1319.0
40.097,-0.0544,-0.483,3.4159,-0.43,3.5,3.28,4.77,-1694.7,1263.4
40.167,-0.0533,-0.4806,3.4197,-0.42,3.51,3.58,4.9,-1654.1,1305.1
40.237,-0.0516,-0.4736,3.421,-0.41,3.51,3.62,5.18,-1732.9,1327.0
40.307,-0.0429,-0.4522,3.4313,-0.4,3.52,2.83,4.94,-1987.5,1270.0
40.378,-0.0339,-0.4314,3.4351,-0.4,3.52,2.07,5.07,-1995.8,1312.8
40.451,-0.0556,-0.4237,3.4365,-0.39,3.53,2.07,5.36,-1786.9,1336.3
40.522,-0.0662,-0.4207,3.4468,-0.38,3.54,2.33,5.12,-1703.7,1280.6
40.595,-0.0424,-0.4092,3.4506,-0.37,3.54,2.1,5.27,-1848.5,1322.7
40.665,-0.0474,-0.3805,3.4618,-0.37,3.55,0.86,4.98,-2000.0,1270.6
40.736,-0.0409,-0.3707,3.466,-0.36,3.55,0.7,5.09,-1871.1,1318.1
40.806,-0.063,-0.3706,3.4773,-0.35,3.56,1.08,4.79,-1702.1,1268.1
40.876,-0.0626,-0.3966,3.4816,-0.35,3.57,2.96,4.9,-1349.8,1315.2
40.948,-0.0535,-0.4073,3.493,-0.34,3.57,3.95,4.6,-1395.4,1264.9
41.018,-0.059,-0.3885,3.4972,-0.33,3.58,3.23,4.71,-1745.9,1309.1
41.088,-0.0657,-0.3934,3.5086,-0.33,3.59,3.86,4.41,-1519.2,1260.3
41.159,-0.058,-0.3852,3.5128,-0.32,3.59,3.73,4.53,-1760.8,1306.2
41.23,-0.0561,-0.3579,3.5142,-0.31,3.6,2.49,4.8,-2000.0,1330.1
41.301,-0.0331,-0.3388,3.5245,-0.31,3.6,1.7,4.56,-1998.1,1272.2
41.371,-0.0156,-0.3218,3.5383,-0.3,3.61,1.03,4.13,-1990.4,1238.7
41.443,-0.0431,-0.3214,3.5434,-0.3,3.62,1.29,4.19,-1717.6,1296.3
41.513,-0.0366,-0.3026,3.5551,-0.29,3.62,0.48,3.87,-2000.0,1245.1
41.585,-0.0523,-0.2965,3.5594,-0.29,3.63,0.38,3.98,-1849.6,1296.2
41.655,-0.0473,-0.3213,3.5708,-0.29,3.64,2.03,3.68,-1497.5,1245.2
41.726,-0.0298,-0.2957,3.5849,-0.28,3.64,0.78,3.23,-1849.5,1211.6
41.797,-0.043,-0.3165,3.5902,-0.28,3.65,2.18,3.28,-1492.8,1273.1
41.87,-0.0587,-0.3203,3.602,-0.28,3.65,2.58,2.97,-1631.3,1223.6
41.943,-0.0507,-0.3296,3.6063,-0.27,3.66,3.28,3.09,-1507.3,1273.6
42.013,-0.0397,-0.3142,3.6176,-0.27,3.67,2.54,2.79,-1856.8,1218.2
42.082,-0.0597,-0.3123,3.6317,-0.27,3.67,2.55,2.33,-1742.2,1186.8
42.155,-0.0593,-0.3261,3.6369,-0.27,3.68,3.45,2.39,-1422.6,1248.7
42.224,-0.0721,-0.3335,3.6486,-0.26,3.68,3.96,2.07,-1530.4,1196.3
42.294,-0.0609,-0.339,3.6528,-0.26,3.69,4.34,2.18,-1555.1,1247.5
42.365,-0.0578,-0.3355,3.6643,-0.26,3.7,4.19,1.88,-1727.7,1193.1
42.436,-0.0615,-0.322,3.6684,-0.26,3.7,3.44,1.99,-1917.6,1242.6
42.508,-0.0662,-0.3427,3.6699,-0.26,3.71,4.64,2.27,-1557.8,1269.8
42.578,-0.0716,-0.3481,3.6801,-0.26,3.72,4.93,2.04,-1551.5,1206.2
42.649,-0.0687,-0.3279,3.6838,-0.26,3.72,3.74,2.18,-1907.2,1250.8
42.72,-0.064,-0.3498,3.695,-0.26,3.73,4.95,1.89,-1556.8,1197.1
42.792,-0.0552,-0.3419,3.6992,-0.26,3.73,4.42,2.01,-1806.2,1245.0
42.862,-0.0534,-0.3495,3.7104,-0.27,3.74,4.76,1.72,-1523.8,1190.3
42.933,-0.0502,-0.3501,3.7145,-0.27,3.75,4.69,1.84,-1659.3,1240.0
43.005,-0.0432,-0.3472,3.716,-0.27,3.75,4.39,2.11,-1732.8,1265.1
43.077,-0.0362,-0.3428,3.7263,-0.27,3.76,3.99,1.88,-1773.6,1203.3
43.146,-0.0528,-0.3473,3.73,-0.28,3.77,4.09,2.02,-1614.0,1249.0
43.214,-0.0617,-0.3492,3.7312,-0.28,3.77,4.02,2.29,-1669.0,1272.2
43.285,-0.0564,-0.3447,3.7415,-0.28,3.78,3.56,2.05,-1795.9,1207.6
43.355,-0.0569,-0.3265,3.7452,-0.29,3.78,2.3,2.19,-2000.0,1253.0
43.428,-0.0492,-0.3249,3.7566,-0.29,3.79,1.97,1.9,-1800.5,1199.5
43.498,-0.0308,-0.3186,3.7606,-0.3,3.8,1.35,2.02,-1900.6,1247.8
43.569,-0.0274,-0.3467,3.762,-0.3,3.8,2.69,2.3,-1547.0,1274.7
43.639,-0.0254,-0.3452,3.7723,-0.3,3.81,2.33,2.06,-1797.3,1209.0
43.709,-0.0181,-0.3304,3.7761,-0.31,3.81,1.18,2.19,-2000.0,1254.2
43.781,-0.035,-0.3322,3.7874,-0.32,3.82,0.96,1.91,-1793.1,1200.3
43.851,-0.0312,-0.3415,3.7914,-0.32,3.83,1.18,2.02,-1655.0,1249.3
43.921,-0.0371,-0.3464,3.7928,-0.33,3.83,1.12,2.29,-1739.9,1273.7
43.992,-0.0546,-0.3404,3.8032,-0.33,3.84,0.43,2.05,-1940.7,1208.9
44.063,-0.0608,-0.3567,3.807,-0.34,3.85,0.99,2.19,-1583.9,1257.1
44.135,-0.0526,-0.3688,3.8183,-0.35,3.85,1.3,1.91,-1619.2,1202.3
44.205,-0.0319,-0.3618,3.8223,-0.35,3.86,0.51,2.03,-1960.2,1249.0
44.275,-0.0249,-0.3227,3.8237,-0.36,3.86,-2.11,2.29,-2000.0,1272.1
44.346,-0.0234,-0.3419,3.834,-0.37,3.87,-1.42,2.06,-1950.8,1212.6
44.418,-0.0321,-0.3611,3.8379,-0.37,3.88,-0.74,2.2,-1589.3,1258.5
44.49,-0.0581,-0.3865,3.8392,-0.38,3.88,0.29,2.48,-1411.3,1282.1
44.561,-0.0636,-0.3737,3.8495,-0.39,3.89,-0.87,2.25,-1770.0,1217.0
44.633,-0.0705,-0.3771,3.8532,-0.4,3.89,-1.11,2.39,-1857.0,1263.2
44.703,-0.0774,-0.4234,3.8644,-0.4,3.9,1.12,2.1,-1507.0,1211.2
44.776,-0.0684,-0.4223,3.8686,-0.41,3.91,0.6,2.22,-1873.3,1255.4
44.847,-0.04,-0.4094,3.87,-0.42,3.91,-0.59,2.5,-2000.0,1279.2
44.917,-0.033,-0.3889,3.8803,-0.43,3.92,-2.2,2.26,-2000.0,1215.6
44.987,-0.0434,-0.4042,3.884,-0.43,3.93,-1.76,2.4,-1889.1,1264.2
45.057,-0.0433,-0.3974,3.8953,-0.44,3.93,-2.59,2.1,-2000.0,1206.7
45.127,-0.0692,-0.4177,3.8995,-0.45,3.94,-1.87,2.21,-1707.4,1257.7
45.199,-0.0535,-0.4273,3.9009,-0.46,3.94,-1.76,2.49,-1783.2,1280.6
45.269,-0.0546,-0.416,3.9112,-0.47,3.95,-2.85,2.25,-2000.0,1217.2
45.34,-0.0736,-0.4189,3.915,-0.47,3.96,-3.12,2.38,-1929.1,1263.3
45.411,-0.0613,-0.4381,3.9263,-0.48,3.96,-2.45,2.09,-1641.5,1211.3
45.482,-0.0513,-0.3982,3.9304,-0.49,3.97,-5.17,2.21,-1996.5,1254.0
45.553,-0.0522,-0.428,3.9318,-0.5,3.98,-3.88,2.49,-1644.2,1283.6
45.624,-0.0445,-0.408,3.9422,-0.5,3.98,-5.44,2.25,-1999.2,1218.0
45.694,-0.0651,-0.4336,3.946,-0.51,3.99,-4.38,2.38,-1646.6,1266.5
45.765,-0.0542,-0.4571,3.9572,-0.52,3.99,-3.44,2.09,-1598.6,1212.5
45.836,-0.0393,-0.4509,3.9614,-0.52,4.0,-4.18,2.21,-1954.5,1256.7
45.907,-0.0627,-0.4729,3.9627,-0.53,4.01,-3.3,2.48,-1618.5,1282.5
45.977,-0.0695,-0.5057,3.9731,-0.54,4.01,-1.79,2.25,-1343.3,1224.0
46.048,-0.0778,-0.5103,3.9769,-0.54,4.02,-1.88,2.38,-1698.3,1263.4
46.121,-0.0794,-0.516,3.9782,-0.55,4.02,-1.91,2.67,-1849.0,1285.2
46.192,-0.0738,-0.5211,3.9885,-0.56,4.03,-1.95,2.43,-1855.1,1226.9
46.262,-0.0688,-0.5144,3.9923,-0.56,4.04,-2.65,2.57,-2000.0,1267.8
46.332,-0.0487,-0.4726,3.9935,-0.57,4.04,-5.35,2.84,-2000.0,1287.4
46.403,-0.0294,-0.4777,4.0039,-0.57,4.05,-5.35,2.61,-2000.0,1232.8
46.473,-0.0428,-0.4923,4.0077,-0.58,4.06,-4.78,2.74,-1779.6,1275.9
46.543,-0.0686,-0.4783,4.0089,-0.58,4.06,-5.84,3.02,-2000.0,1295.1
46.615,-0.0645,-0.5028,4.0193,-0.58,4.07,-4.69,2.79,-1768.1,1241.1
46.685,-0.0452,-0.4933,4.0231,-0.59,4.07,-5.45,2.92,-2000.0,1278.9
46.755,-0.0689,-0.5113,4.0244,-0.59,4.08,-4.63,3.2,-1770.4,1302.6
46.825,-0.032,-0.4837,4.0346,-0.6,4.09,-6.4,2.96,-2000.0,1239.7
46.896,-0.0541,-0.4807,4.0385,-0.6,4.09,-6.75,3.09,-2000.0,1285.2
46.967,-0.0397,-0.4981,4.0398,-0.6,4.1,-5.91,3.37,-1760.4,1308.2
47.037,-0.0481,-0.4862,4.0501,-0.6,4.1,-6.72,3.13,-2000.0,1247.6
47.108,-0.0035,-0.4976,4.0539,-0.61,4.11,-6.19,3.27,-1864.9,1291.8
47.178,-0.0527,-0.4928,4.0652,-0.61,4.12,-6.56,2.97,-2000.0,1239.4
47.248,-0.0289,-0.4926,4.0693,-0.61,4.12,-6.65,3.08,-2000.0,1284.8
47.318,-0.041,-0.4849,4.0708,-0.61,4.13,-7.15,3.35,-2000.0,1307.1
47.389,-0.0212,-0.4767,4.0811,-0.61,4.14,-7.67,3.11,-2000.0,1250.2
47.461,-0.0755,-0.5309,4.085,-0.61,4.14,-4.58,3.25,-1832.1,1296.9
47.531,-0.0318,-0.5208,4.0962,-0.61,4.15,-5.16,2.96,-2000.0,1241.3
47.601,-0.055,-0.5129,4.1003,-0.61,4.15,-5.59,3.07,-2000.0,1285.5
47.671,-0.0418,-0.524,4.1117,-0.61,4.16,-4.92,2.77,-1819.3,1238.6
47.742,-0.0504,-0.5296,4.1159,-0.61,4.17,-4.54,2.88,-1896.4,1282.2
47.812,-0.0647,-0.5543,4.1273,-0.61,4.17,-3.05,2.58,-1545.6,1235.7
47.883,-0.0891,-0.5036,4.1315,-0.61,4.18,-5.86,2.69,-1899.3,1273.7
47.953,-0.0812,-0.524,4.133,-0.6,4.18,-4.57,2.96,-1639.9,1302.3
48.024,-0.0422,-0.511,4.1433,-0.6,4.19,-5.19,2.72,-1995.5,1244.0
48.095,-0.0449,-0.4996,4.1472,-0.6,4.2,-5.69,2.86,-2000.0,1285.4
48.164,-0.0712,-0.5406,4.1484,-0.6,4.2,-3.17,3.14,-1820.2,1310.6
48.23,-0.0806,-0.5206,4.1586,-0.59,4.21,-4.14,2.88,-2000.0,1245.5
48.297,-0.0672,-0.5464,4.1623,-0.59,4.21,-2.46,3.0,-1818.1,1291.9
48.364,-0.0238,-0.5515,4.1736,-0.59,4.22,-1.96,2.69,-1803.6,1238.6
48.43,-0.0131,-0.5541,4.1777,-0.58,4.23,-1.59,2.79,-1833.2,1282.4
48.498,-0.0176,-0.5484,4.1792,-0.58,4.23,-1.68,3.04,-1966.9,1304.1
48.564,-0.0381,-0.5462,4.1895,-0.57,4.24,-1.55,2.78,-1905.8,1246.6
48.63,-0.0135,-0.5276,4.1933,-0.57,4.24,-2.35,2.89,-2000.0,1287.0
48.697,-0.0417,-0.5271,4.2046,-0.56,4.25,-2.1,2.58,-1889.2,1237.0
48.763,-0.0474,-0.5105,4.2087,-0.56,4.26,-2.76,2.68,-2000.0,1281.0
48.83,-0.0721,-0.511,4.2101,-0.55,4.26,-2.43,2.93,-1879.5,1305.6
48.896,-0.0563,-0.5278,4.2204,-0.55,4.27,-1.16,2.67,-1548.8,1247.9
48.963,-0.0484,-0.5473,4.2243,-0.54,4.27,0.29,2.78,-1416.8,1289.8
49.029,-0.0158,-0.535,4.2355,-0.54,4.28,-0.08,2.47,-1749.0,1235.1
49.095,-0.0456,-0.5526,4.2396,-0.53,4.28,1.28,2.56,-1417.8,1283.0
49.162,-0.0473,-0.5299,4.2411,-0.52,4.29,0.33,2.81,-1749.6,1301.6
49.228,-0.0402,-0.5044,4.2514,-0.52,4.3,-0.76,2.55,-2000.0,1243.2
49.294,-0.0561,-0.5055,4.2553,-0.51,4.3,-0.33,2.66,-1787.1,1288.1
49.361,-0.0566,-0.5077,4.2566,-0.5,4.31,0.18,2.92,-1750.4,1309.7
49.427,-0.0444,-0.4983,4.2669,-0.5,4.31,0.03,2.66,-1950.9,1249.5
49.494,-0.0644,-0.5275,4.2707,-0.49,4.32,2.09,2.78,-1619.9,1294.9
49.56,-0.065,-0.5255,4.272,-0.48,4.32,2.38,3.03,-1748.0,1313.2
49.626,-0.0701,-0.5221,4.2823,-0.48,4.33,2.59,2.77,-1765.3,1254.3
49.693,-0.0722,-0.5208,4.2861,-0.47,4.34,2.92,2.89,-1711.2,1296.4
49.759,-0.0704,-0.5133,4.2874,-0.46,4.34,2.9,3.14,-1823.7,1317.6
49.826,-0.0573,-0.5048,4.2977,-0.46,4.35,2.83,2.89,-1838.7,1258.8
49.892,-0.0693,-0.5015,4.3015,-0.45,4.35,3.05,3.0,-1738.3,1301.3
49.959,-0.065,-0.4997,4.3128,-0.44,4.36,3.37,2.69,-1696.4,1249.3
50.025,-0.0441,-0.473,4.3169,-0.43,4.37,2.26,2.78,-2000.0,1292.9
50.091,-0.063,-0.4642,4.3184,-0.43,4.37,2.17,3.03,-1857.5,1317.6
50.158,-0.0466,-0.42,4.3287,-0.42,4.38,0.05,2.77,-2000.0,1255.1
50.224,-0.0338,-0.4145,4.3325,-0.41,4.38,0.15,2.89,-1863.1,1301.9
50.291,-0.0502,-0.4249,4.3438,-0.4,4.39,1.16,2.57,-1533.8,1248.7
50.357,-0.0323,-0.3973,4.3479,-0.4,4.39,-0.01,2.67,-1864.7,1293.6
50.424,-0.0504,-0.3823,4.3593,-0.39,4.4,-0.46,2.35,-2000.0,1240.6
50.491,-0.0377,-0.3845,4.3629,-0.38,4.41,0.07,2.47,-1735.6,1294.6
50.558,-0.0473,-0.3674,4.3747,-0.38,4.41,-0.52,2.14,-2000.0,1232.6
50.625,-0.0498,-0.3623,4.379,-0.37,4.42,-0.42,2.22,-1881.9,1283.8
50.691,-0.0526,-0.3608,4.3905,-0.36,4.42,-0.12,1.9,-1815.7,1228.4
50.757,-0.0628,-0.379,4.3947,-0.36,4.43,1.29,1.99,-1483.5,1279.9
50.824,-0.0449,-0.3913,4.4061,-0.35,4.44,2.37,1.67,-1469.0,1224.6
50.89,-0.0567,-0.393,4.4102,-0.34,4.44,2.82,1.76,-1668.7,1272.7
50.957,-0.0484,-0.3893,4.4216,-0.34,4.45,2.96,1.44,-1764.5,1216.8
51.023,-0.0461,-0.3862,4.4258,-0.33,4.45,3.12,1.54,-1749.2,1266.5
51.089,-0.046,-0.3866,4.4272,-0.33,4.46,3.47,1.79,-1676.2,1291.2
51.156,-0.0674,-0.3844,4.4376,-0.32,4.46,3.66,1.53,-1718.6,1227.0
51.223,-0.0517,-0.3764,4.4414,-0.32,4.47,3.52,1.64,-1826.4,1272.5
51.289,-0.0419,-0.3789,4.4526,-0.31,4.48,3.95,1.33,-1623.8,1215.8
51.356,-0.0383,-0.3915,4.4567,-0.3,4.48,4.96,1.43,-1374.4,1266.0
51.422,-0.0364,-0.3811,4.468,-0.3,4.49,4.63,1.11,-1706.6,1207.5
51.489,-0.0345,-0.3758,4.4722,-0.3,4.49,4.58,1.2,-1752.6,1258.2
51.556,-0.0413,-0.3792,4.4836,-0.29,4.5,5.02,0.89,-1574.3,1202.3
51.623,-0.0534,-0.3461,4.4878,-0.29,4.5,3.35,0.99,-1913.4,1250.7
51.69,-0.0492,-0.3591,4.4991,-0.28,4.51,4.31,0.67,-1582.4,1195.9
51.756,-0.0426,-0.3369,4.5033,-0.28,4.52,3.23,0.76,-1912.1,1244.8
51.824,-0.0513,-0.3354,4.5147,-0.28,4.52,3.33,0.45,-1733.3,1189.4
51.89,-0.056,-0.3457,4.5188,-0.27,4.53,4.08,0.54,-1478.4,1240.8
51.956,-0.0592,-0.3693,4.5301,-0.27,4.53,5.58,0.22,-1148.8,1183.1
52.022,-0.0688,-0.3655,4.5343,-0.27,4.54,5.49,0.32,-1481.1,1232.9
52.089,-0.0687,-0.3821,4.5456,-0.27,4.55,6.56,-0.0,-1234.4,1176.1
52.155,-0.0691,-0.3814,4.5498,-0.27,4.55,6.62,0.09,-1566.2,1226.2
52.221,-0.0619,-0.3681,4.5512,-0.26,4.56,5.94,0.34,-1871.6,1250.9
52.287,-0.0396,-0.3777,4.5615,-0.26,4.56,6.55,0.08,-1539.5,1185.2
52.354,-0.0354,-0.3627,4.5653,-0.26,4.57,5.74,0.19,-1870.7,1231.0
52.42,-0.0345,-0.3597,4.5765,-0.26,4.57,5.6,-0.12,-1701.2,1171.5
52.487,-0.0528,-0.3644,4.5806,-0.26,4.58,5.88,-0.02,-1546.5,1224.1
52.553,-0.0538,-0.3768,4.5821,-0.26,4.59,6.58,0.23,-1350.6,1250.0
52.619,-0.0457,-0.3645,4.5923,-0.26,4.59,5.86,-0.03,-1680.3,1179.4
52.686,-0.0382,-0.3733,4.5961,-0.26,4.6,6.32,0.09,-1447.3,1229.6
52.752,-0.0336,-0.3665,4.6074,-0.26,4.6,5.87,-0.22,-1768.7,1167.4
52.818,-0.036,-0.3612,4.6115,-0.27,4.61,5.49,-0.13,-1756.1,1219.9
52.885,-0.0439,-0.3527,4.6129,-0.27,4.62,4.92,0.12,-1831.2,1245.3
52.951,-0.0541,-0.3494,4.6232,-0.27,4.62,4.62,-0.14,-1751.2,1176.4
53.017,-0.0396,-0.352,4.627,-0.27,4.63,4.65,-0.02,-1640.6,1225.9
53.085,-0.0284,-0.3452,4.6383,-0.27,4.63,4.11,-0.33,-1828.2,1165.3
53.152,-0.0456,-0.3641,4.6424,-0.28,4.64,5.04,-0.23,-1492.0,1218.8
53.224,-0.0527,-0.3506,4.644,-0.28,4.64,4.07,0.04,-1851.4,1242.4
53.295,-0.0443,-0.3517,4.6543,-0.28,4.65,3.93,-0.2,-1703.0,1179.0
53.365,-0.0324,-0.3441,4.658,-0.29,4.66,3.27,-0.06,-1872.9,1225.4
53.435,-0.0282,-0.3199,4.6693,-0.29,4.66,1.65,-0.36,-2000.0,1165.5
53.505,-0.0211,-0.3108,4.6734,-0.3,4.67,0.88,-0.24,-1970.5,1217.8
53.576,-0.0403,-0.3108,4.6848,-0.3,4.68,0.61,-0.54,-1837.4,1160.8
53.646,-0.0169,-0.316,4.6889,-0.31,4.68,0.62,-0.42,-1755.7,1212.9
53.717,-0.029,-0.309,4.6903,-0.31,4.69,-0.08,-0.15,-1975.0,1237.9
53.789,-0.0533,-0.3248,4.7007,-0.32,4.69,0.51,-0.39,-1614.7,1174.4
53.861,-0.0637,-0.34,4.7045,-0.32,4.7,1.04,-0.24,-1582.6,1221.7
53.928,-0.0564,-0.3486,4.7156,-0.33,4.71,1.21,-0.54,-1682.0,1159.6
53.995,-0.0741,-0.3566,4.7196,-0.33,4.71,1.33,-0.44,-1692.5,1211.6
54.062,-0.071,-0.3664,4.731,-0.34,4.72,1.55,-0.75,-1654.0,1151.5
54.129,-0.0717,-0.3881,4.7351,-0.35,4.72,2.44,-0.66,-1373.5,1205.5
54.196,-0.0724,-0.3765,4.7366,-0.35,4.73,1.41,-0.41,-1706.1,1228.4
54.263,-0.0636,-0.3797,4.7469,-0.36,4.74,1.22,-0.66,-1788.5,1160.8
54.329,-0.0542,-0.371,4.7507,-0.36,4.74,0.35,-0.55,-2000.0,1208.3
54.395,-0.0429,-0.3747,4.7519,-0.37,4.75,0.18,-0.29,-1814.2,1233.8
54.463,-0.0375,-0.3777,4.7623,-0.38,4.75,-0.05,-0.54,-1836.1,1164.8
54.529,-0.0643,-0.4126,4.766,-0.39,4.76,1.55,-0.43,-1503.4,1215.6
54.596,-0.0494,-0.4102,4.7673,-0.39,4.76,1.02,-0.17,-1836.7,1236.4
54.662,-0.0446,-0.3908,4.7776,-0.4,4.77,-0.5,-0.42,-2000.0,1165.3
54.729,-0.0677,-0.4089,4.7814,-0.41,4.78,0.12,-0.31,-1834.1,1217.2
54.796,-0.0506,-0.398,4.7926,-0.41,4.78,-0.91,-0.62,-2000.0,1153.7
54.862,-0.0614,-0.3591,4.7968,-0.42,4.79,-3.56,-0.52,-2000.0,1204.2
54.929,-0.0521,-0.3773,4.7982,-0.43,4.79,-2.94,-0.27,-2000.0,1234.2
54.995,-0.0453,-0.3538,4.8086,-0.44,4.8,-4.69,-0.54,-2000.0,1160.5
55.062,-0.0114,-0.3812,4.8124,-0.44,4.81,-3.55,-0.42,-2000.0,1214.7
55.128,-0.0573,-0.3813,4.8236,-0.45,4.81,-3.96,-0.73,-2000.0,1150.6
55.194,-0.0217,-0.3816,4.8277,-0.46,4.82,-4.35,-0.64,-2000.0,1203.4
55.26,-0.0216,-0.4182,4.8391,-0.46,4.82,-2.67,-0.96,-1686.9,1146.7
55.328,-0.0248,-0.404,4.8433,-0.47,4.83,-3.9,-0.86,-2000.0,1195.3
55.394,-0.0462,-0.4283,4.8547,-0.48,4.83,-2.91,-1.18,-1693.3,1139.1
55.461,-0.0728,-0.4423,4.8589,-0.49,4.84,-2.51,-1.09,-1736.4,1191.4
55.527,-0.0404,-0.4737,4.8603,-0.49,4.85,-1.11,-0.84,-1403.8,1218.2
55.594,-0.0439,-0.4961,4.8707,-0.5,4.85,-0.22,-1.1,-1487.3,1150.5
55.66,-0.0308,-0.5122,4.8744,-0.51,4.86,0.32,-0.98,-1594.9,1197.5
55.726,-0.028,-0.5005,4.8757,-0.51,4.86,-0.73,-0.73,-1926.6,1217.5
55.792,-0.0282,-0.5092,4.886,-0.52,4.87,-0.6,-0.99,-1760.3,1152.4
55.86,-0.0179,-0.4965,4.8898,-0.53,4.87,-1.7,-0.87,-2000.0,1197.4
55.926,-0.0006,-0.4805,4.8911,-0.53,4.88,-2.96,-0.61,-2000.0,1220.2
55.992,-0.0203,-0.5213,4.8915,-0.54,4.89,-0.97,-0.3,-1886.1,1240.2
56.059,-0.0033,-0.5089,4.9014,-0.54,4.89,-2.02,-0.54,-2000.0,1166.0
56.125,-0.0305,-0.5378,4.905,-0.55,4.9,-0.68,-0.41,-1802.8,1215.1
56.191,-0.0191,-0.5197,4.9063,-0.56,4.9,-2.03,-0.15,-2000.0,1231.7
56.258,-0.0475,-0.5042,4.9166,-0.56,4.91,-3.22,-0.41,-2000.0,1166.0
56.325,-0.0317,-0.5172,4.9205,-0.57,4.92,-2.76,-0.3,-1870.7,1215.0
56.391,-0.054,-0.529,4.9218,-0.57,4.92,-2.36,-0.04,-1739.6,1237.5
56.458,-0.0299,-0.5465,4.9221,-0.57,4.93,-1.62,0.27,-1606.3,1251.9
56.525,-0.0545,-0.5657,4.9321,-0.58,4.93,-0.77,0.03,-1537.7,1186.4
56.591,-0.0366,-0.5616,4.9357,-0.58,4.94,-1.24,0.16,-1870.8,1226.3
56.658,-0.0485,-0.5913,4.937,-0.59,4.94,0.25,0.42,-1538.5,1250.9
56.724,-0.0489,-0.5879,4.9374,-0.59,4.95,-0.15,0.73,-1872.1,1260.2
56.791,-0.0286,-0.5673,4.9374,-0.59,4.96,-1.52,1.06,-2000.0,1269.2
56.858,-0.0493,-0.5644,4.9374,-0.6,4.96,-1.86,1.4,-1949.6,1280.7
56.924,-0.0285,-0.5352,4.9472,-0.6,4.97,-3.69,1.17,-2000.0,1212.4
56.99,-0.0446,-0.5434,4.9508,-0.6,4.97,-3.36,1.29,-1951.8,1258.1
57.057,-0.0282,-0.5058,4.952,-0.6,4.98,-5.64,1.55,-2000.0,1275.0
57.123,-0.0564,-0.5045,4.9525,-0.61,4.98,-5.82,1.86,-2000.0,1292.1
57.191,-0.0773,-0.5069,4.9525,-0.61,4.99,-5.77,2.19,-1964.0,1303.2
57.258,-0.066,-0.5174,4.9624,-0.61,5.0,-5.24,1.96,-1812.6,1239.1
57.325,-0.0426,-0.5275,4.9661,-0.61,5.0,-4.72,2.09,-1801.8,1280.0
57.391,-0.0052,-0.522,4.9673,-0.61,5.01,-5.07,2.35,-2000.0,1299.3
57.458,-0.0348,-0.5262,4.9678,-0.61,5.01,-4.85,2.66,-1902.2,1313.3
57.525,-0.0631,-0.5606,4.9778,-0.61,5.02,-2.88,2.42,-1567.6,1254.3
57.592,-0.0617,-0.5397,4.9815,-0.61,5.03,-4.06,2.54,-1904.4,1288.9
57.659,-0.0711,-0.5513,4.9828,-0.61,5.03,-3.36,2.8,-1720.3,1312.5
57.726,-0.0537,-0.557,4.9832,-0.61,5.04,-2.99,3.11,-1808.7,1324.8
57.794,-0.0725,-0.582,4.9833,-0.61,5.04,-1.48,3.45,-1468.5,1336.1
57.861,-0.0588,-0.576,4.9932,-0.61,5.05,-1.74,3.22,-1803.8,1273.2
57.928,-0.0462,-0.5412,4.9969,-0.6,5.06,-3.63,3.34,-2000.0,1309.6
57.994,-0.0616,-0.5449,4.9982,-0.6,5.06,-3.3,3.6,-1837.5,1333.6
58.064,-0.0424,-0.5133,4.9986,-0.6,5.07,-4.97,3.92,-2000.0,1345.1
58.131,-0.0451,-0.4909,5.0086,-0.6,5.07,-6.1,3.68,-2000.0,1286.0
58.197,-0.0349,-0.4886,5.0123,-0.59,5.08,-6.06,3.8,-2000.0,1328.1
58.263,-0.0337,-0.4741,5.0136,-0.59,5.08,-6.71,4.06,-2000.0,1348.4
58.33,-0.0615,-0.4964,5.024,-0.59,5.09,-5.23,3.8,-1880.1,1292.1
58.396,-0.0972,-0.4985,5.0278,-0.58,5.1,-4.89,3.91,-1905.3,1331.8
58.463,-0.0734,-0.5024,5.0292,-0.58,5.1,-4.44,4.16,-1861.0,1352.9
58.529,-0.0743,-0.545,5.0396,-0.58,5.11,-1.75,3.9,-1529.8,1298.5
58.596,-0.0445,-0.5465,5.0434,-0.57,5.11,-1.41,4.01,-1806.2,1334.7
58.662,-0.0531,-0.5211,5.0448,-0.57,5.12,-2.59,4.27,-2000.0,1354.1
58.729,-0.0378,-0.5082,5.0552,-0.56,5.13,-3.05,4.01,-2000.0,1298.3
58.795,-0.0303,-0.4758,5.059,-0.56,5.13,-4.6,4.12,-2000.0,1338.7
58.863,-0.0609,-0.498,5.0604,-0.55,5.14,-3.02,4.37,-2000.0,1363.6
58.935,-0.0384,-0.4661,5.0709,-0.54,5.14,-4.49,4.14,-2000.0,1307.3
59.006,-0.0831,-0.4864,5.0747,-0.54,5.15,-2.98,4.27,-1997.1,1350.1
59.076,-0.0587,-0.4903,5.086,-0.53,5.16,-2.39,3.97,-1789.1,1300.6
59.149,-0.094,-0.5033,5.0903,-0.53,5.16,-1.26,4.09,-1599.2,1344.4
59.219,-0.0498,-0.4883,5.1017,-0.52,5.17,-1.74,3.79,-1950.7,1295.6
59.289,-0.0558,-0.4724,5.1059,-0.51,5.17,-2.25,3.9,-2000.0,1339.2
59.36,-0.0714,-0.4611,5.1173,-0.5,5.18,-2.49,3.6,-2000.0,1292.3
59.432,-0.0815,-0.4637,5.1216,-0.5,5.19,-1.93,3.72,-1795.2,1337.7
59.503,-0.046,-0.4705,5.133,-0.49,5.19,-1.11,3.42,-1693.8,1290.3
59.572,-0.073,-0.475,5.1371,-0.48,5.2,-0.44,3.53,-1711.3,1333.2
59.643,-0.0678,-0.4979,5.1486,-0.48,5.2,1.31,3.23,-1356.6,1288.1
59.713,-0.0583,-0.4843,5.1527,-0.47,5.21,0.96,3.34,-1706.0,1328.0
59.784,-0.0467,-0.493,5.1641,-0.46,5.22,1.89,3.04,-1553.1,1283.0
59.857,-0.0313,-0.4913,5.1684,-0.45,5.22,2.25,3.16,-1725.3,1325.6
59.928,-0.0397,-0.5084,5.1798,-0.44,5.23,3.68,2.86,-1368.3,1280.7
59.999,-0.0481,-0.4952,5.1839,-0.44,5.24,3.37,2.98,-1721.9,1321.0
60.069,-0.0444,-0.506,5.1853,-0.43,5.24,4.42,3.25,-1400.3,1344.6
60.138,-0.0274,-0.5009,5.1956,-0.42,5.25,4.57,3.0,-1702.1,1288.3
60.208,-0.0246,-0.4988,5.1994,-0.41,5.25,4.88,3.13,-1634.4,1328.7
60.278,-0.0046,-0.5169,5.2007,-0.41,5.26,6.35,3.41,-1285.3,1351.2
60.349,-0.0309,-0.5198,5.2111,-0.4,5.27,6.96,3.17,-1455.1,1296.0
60.418,-0.0491,-0.5164,5.2148,-0.39,5.27,7.19,3.3,-1569.6,1334.4
60.488,-0.0626,-0.4993,5.2161,-0.38,5.28,6.63,3.58,-1826.6,1354.8
60.556,-0.0723,-0.4929,5.2263,-0.38,5.28,6.66,3.33,-1640.3,1299.5
60.623,-0.0649,-0.4805,5.2301,-0.37,5.29,6.34,3.45,-1760.4,1339.4
60.689,-0.0475,-0.471,5.2313,-0.36,5.3,6.18,3.71,-1714.0,1361.0
60.755,-0.0446,-0.4577,5.2416,-0.36,5.3,5.8,3.45,-1791.3,1302.1
60.821,-0.0565,-0.4484,5.2454,-0.35,5.31,5.62,3.57,-1726.9,1344.4
60.888,-0.0764,-0.4507,5.2467,-0.34,5.31,6.12,3.82,-1476.5,1366.8
60.954,-0.07,-0.4336,5.257,-0.34,5.32,5.49,3.56,-1807.1,1306.1
61.02,-0.0676,-0.4098,5.2609,-0.33,5.32,4.46,3.67,-2000.0,1348.4
61.087,-0.0639,-0.4017,5.2721,-0.33,5.33,4.32,3.36,-1742.1,1297.2
61.153,-0.0433,-0.3867,5.2763,-0.32,5.34,3.78,3.46,-1881.4,1342.7
61.219,-0.0227,-0.3641,5.2777,-0.32,5.34,2.79,3.7,-2000.0,1366.0
61.285,-0.0295,-0.3886,5.2881,-0.31,5.35,4.49,3.44,-1707.1,1307.9
61.351,-0.0216,-0.3595,5.2919,-0.31,5.35,3.1,3.55,-2000.0,1348.5
61.418,-0.0298,-0.3123,5.3031,-0.3,5.36,0.67,3.24,-2000.0,1294.0
61.484,-0.034,-0.3312,5.3073,-0.3,5.37,2.01,3.34,-2000.0,1344.8
61.55,-0.0327,-0.3184,5.3187,-0.29,5.37,1.51,3.01,-1925.5,1288.4
61.617,-0.0605,-0.3072,5.3328,-0.29,5.38,1.1,2.54,-1912.6,1257.8
61.683,-0.0752,-0.3327,5.338,-0.28,5.38,2.77,2.57,-1581.4,1318.5
61.75,-0.0755,-0.3322,5.3498,-0.28,5.39,2.94,2.23,-1674.0,1265.7
