time,roll,pitch,yaw,rp_rpm,ry_rpm,err_p,err_y,mp_rpm,my_rpm
0.04,-0.0529,0.0614,0.0002,-0.43,0.01,-28.26,0.4,-295.8,295.8
0.107,-0.0575,0.062,0.0002,-0.42,0.02,-27.89,1.09,-628.0,498.8
0.172,-0.0572,0.0578,0.0002,-0.42,0.03,-27.23,1.81,-957.8,594.7
0.239,-0.0545,0.0633,0.0002,-0.41,0.04,-27.13,2.56,-1289.5,664.8
0.305,-0.0541,0.0614,0.0002,-0.4,0.06,-26.61,3.33,-1318.4,712.2
0.371,-0.0602,0.0714,0.0002,-0.4,0.07,-26.78,4.13,-1556.6,759.3
0.437,-0.0553,0.0779,0.0002,-0.39,0.09,-26.75,4.96,-1519.1,803.9
0.503,-0.0546,0.0725,0.0002,-0.38,0.1,-26.04,5.81,-1310.5,848.1
0.569,-0.0605,0.0679,0.0002,-0.38,0.12,-25.39,6.69,-1334.4,890.0
0.635,-0.0605,0.0638,0.0002,-0.37,0.13,-24.77,7.59,-1352.5,932.8
0.704,-0.0567,0.0667,0.0002,-0.36,0.15,-24.54,8.56,-1493.1,976.7
0.77,-0.0541,0.0576,0.0002,-0.36,0.17,-23.65,9.51,-1274.7,1015.6
0.836,-0.0599,0.0663,0.0002,-0.35,0.18,-23.79,10.49,-1605.2,1057.7
0.902,-0.0597,0.0531,0.0002,-0.34,0.2,-22.68,11.49,-1275.5,1095.3
0.968,-0.0647,0.0623,0.0001,-0.34,0.22,-22.86,12.52,-1605.7,1136.1
1.034,-0.0657,0.0604,0.0002,-0.33,0.24,-22.41,13.57,-1465.1,1172.5
1.1,-0.066,0.0556,0.0002,-0.33,0.26,-21.81,14.64,-1418.3,1210.1
1.166,-0.0681,0.0673,0.0002,-0.32,0.27,-22.17,15.73,-1711.7,1248.3
1.232,-0.0735,0.0638,0.0002,-0.31,0.29,-21.66,16.85,-1477.6,1283.2
1.299,-0.0572,0.0656,0.0002,-0.31,0.31,-21.48,17.99,-1580.0,1319.6
1.365,-0.0561,0.0575,0.0002,-0.3,0.33,-20.73,19.14,-1411.8,1354.6
1.431,-0.0583,0.0799,0.0002,-0.3,0.35,-21.75,20.31,-1743.0,1391.4
1.497,-0.0475,0.0745,0.0002,-0.3,0.38,-21.19,21.5,-1506.8,1422.4
1.563,-0.0628,0.0635,0.0002,-0.29,0.4,-20.32,22.7,-1407.5,1456.3
1.629,-0.053,0.0787,0.0002,-0.29,0.42,-20.97,23.92,-1737.0,1490.7
1.696,-0.0519,0.0743,0.0002,-0.28,0.44,-20.51,25.16,-1560.1,1521.4
1.762,-0.0455,0.0559,0.0102,-0.28,0.46,-19.26,25.83,-1298.2,1481.3
1.828,-0.0586,0.0486,0.014,-0.28,0.48,-18.66,26.88,-1503.5,1546.7
1.895,-0.0632,0.061,0.0154,-0.27,0.51,-19.21,28.07,-1827.6,1590.5
1.961,-0.0698,0.049,0.0259,-0.27,0.53,-18.38,28.75,-1496.4,1556.5
2.027,-0.0711,0.0217,0.0298,-0.27,0.55,-16.68,29.81,-1166.7,1618.5
2.093,-0.0628,0.0127,0.0412,-0.27,0.57,-16.05,30.46,-1474.0,1595.6
2.16,-0.0686,0.0087,0.0455,-0.27,0.6,-15.72,31.53,-1561.5,1659.1
2.226,-0.0549,-0.0168,0.0571,-0.26,0.62,-14.19,32.18,-1231.3,1636.0
2.293,-0.0547,-0.0359,0.0714,-0.26,0.64,-13.03,32.69,-1251.4,1635.4
2.359,-0.0576,-0.0434,0.0867,-0.26,0.66,-12.55,33.13,-1464.7,1641.0
2.425,-0.0515,-0.06,0.1023,-0.26,0.69,-11.57,33.55,-1284.0,1650.3
2.491,-0.0619,-0.0648,0.1181,-0.26,0.71,-11.29,33.97,-1503.0,1660.2
2.557,-0.06,-0.0728,0.134,-0.26,0.73,-10.83,34.39,-1445.9,1670.7
2.624,-0.0681,-0.1031,0.1598,-0.26,0.76,-9.12,34.23,-1114.6,1618.2
2.69,-0.0632,-0.1192,0.1793,-0.26,0.78,-8.24,34.43,-1243.2,1655.7
2.756,-0.0643,-0.1488,0.1966,-0.26,0.8,-6.6,34.76,-912.0,1677.4
2.822,-0.0825,-0.175,0.2228,-0.27,0.83,-5.18,34.58,-927.6,1627.3
2.889,-0.0936,-0.1834,0.2426,-0.27,0.85,-4.79,34.76,-1261.2,1664.4
2.958,-0.0897,-0.1956,0.2699,-0.27,0.87,-4.2,34.55,-1246.8,1627.1
3.027,-0.0761,-0.2135,0.3,-0.27,0.9,-3.31,34.18,-1114.5,1609.0
3.097,-0.0769,-0.2219,0.331,-0.27,0.92,-2.98,33.75,-1300.8,1595.9
3.167,-0.0603,-0.2406,0.3625,-0.28,0.94,-2.08,33.3,-1075.5,1588.2
3.238,-0.0463,-0.2477,0.394,-0.28,0.97,-1.86,32.83,-1307.2,1577.7
3.309,-0.0517,-0.2536,0.4256,-0.28,0.99,-1.73,32.36,-1331.2,1569.7
3.379,-0.0452,-0.2582,0.4671,-0.29,1.01,-1.69,31.3,-1358.5,1495.9
3.449,-0.0547,-0.2675,0.5023,-0.29,1.04,-1.4,30.57,-1270.8,1513.5
3.519,-0.0658,-0.2771,0.5351,-0.3,1.06,-1.1,29.96,-1262.4,1513.1
3.59,-0.0568,-0.2761,0.5771,-0.3,1.08,-1.44,28.82,-1464.8,1441.0
3.661,-0.055,-0.275,0.6124,-0.31,1.1,-1.79,28.04,-1480.4,1459.1
3.731,-0.0653,-0.2775,0.6551,-0.31,1.12,-1.95,26.81,-1433.4,1388.6
3.802,-0.0506,-0.288,0.7008,-0.32,1.14,-1.67,25.4,-1293.6,1341.1
3.873,-0.0555,-0.2846,0.7473,-0.32,1.16,-2.19,23.91,-1547.8,1292.3
3.943,-0.058,-0.2949,0.7843,-0.33,1.18,-1.94,22.95,-1322.7,1329.9
4.015,-0.0514,-0.2929,0.8278,-0.34,1.2,-2.42,21.6,-1545.7,1254.8
4.085,-0.0643,-0.2957,0.8733,-0.34,1.22,-2.62,20.1,-1481.9,1194.0
4.155,-0.0618,-0.2909,0.9097,-0.35,1.24,-3.27,19.07,-1623.7,1221.2
4.225,-0.0615,-0.2734,0.9527,-0.35,1.26,-4.66,17.65,-1836.2,1129.9
4.296,-0.0631,-0.2733,0.9884,-0.36,1.28,-5.06,16.63,-1609.9,1158.0
4.367,-0.0587,-0.2662,1.0311,-0.37,1.3,-5.87,15.18,-1735.2,1057.4
4.437,-0.063,-0.2721,1.0763,-0.38,1.31,-5.94,13.55,-1556.5,977.7
4.508,-0.0813,-0.2684,1.1227,-0.38,1.33,-6.58,11.83,-1720.0,903.0
4.579,-0.0884,-0.2743,1.1695,-0.39,1.35,-6.67,10.06,-1592.8,826.4
4.649,-0.092,-0.2702,1.2062,-0.4,1.36,-7.33,8.83,-1759.0,860.2
4.72,-0.0876,-0.2575,1.2493,-0.41,1.38,-8.49,7.2,-1901.2,717.4
4.791,-0.0962,-0.2444,1.2847,-0.41,1.39,-9.68,5.99,-1936.9,738.1
4.862,-0.1082,-0.2427,1.3273,-0.42,1.4,-10.22,4.34,-1811.2,490.5
4.932,-0.1003,-0.2481,1.3723,-0.43,1.42,-10.36,2.51,-1727.0,197.6
5.002,-0.0941,-0.2345,1.4085,-0.44,1.43,-11.58,1.15,-2000.0,249.7
5.072,-0.0955,-0.2414,1.4413,-0.44,1.44,-11.62,-0.04,-1749.5,195.0
5.142,-0.1076,-0.2517,1.4828,-0.45,1.45,-11.47,-1.76,-1705.9,-156.6
5.213,-0.085,-0.2678,1.5176,-0.46,1.46,-10.99,-3.14,-1619.8,-226.6
5.283,-0.0609,-0.2393,1.5498,-0.47,1.47,-13.06,-4.39,-1970.4,-335.7
5.354,-0.0445,-0.2401,1.5814,-0.47,1.48,-13.45,-5.63,-1894.2,-450.3
5.425,-0.0578,-0.2595,1.6123,-0.48,1.49,-12.77,-6.86,-1636.0,-585.6
5.496,-0.0697,-0.281,1.6333,-0.49,1.5,-11.97,-7.55,-1597.7,-412.1
5.566,-0.0729,-0.3002,1.6601,-0.5,1.51,-11.28,-8.62,-1616.4,-664.8
5.636,-0.0617,-0.293,1.6894,-0.5,1.52,-12.1,-9.85,-1966.9,-762.5
5.706,-0.0456,-0.2935,1.7096,-0.51,1.52,-12.48,-10.6,-1905.4,-705.3
5.776,-0.0476,-0.3107,1.7365,-0.52,1.53,-11.88,-11.76,-1672.5,-828.6
5.847,-0.0476,-0.3302,1.756,-0.52,1.54,-11.15,-12.51,-1629.7,-788.3
5.917,-0.0509,-0.3386,1.7725,-0.53,1.54,-11.05,-13.12,-1785.6,-791.2
5.988,-0.0601,-0.3585,1.788,-0.54,1.55,-10.27,-13.7,-1610.8,-807.5
6.057,-0.0694,-0.3726,1.803,-0.54,1.55,-9.82,-14.29,-1685.8,-831.4
6.128,-0.0778,-0.3865,1.8181,-0.55,1.56,-9.36,-14.89,-1680.7,-857.4
6.198,-0.073,-0.3974,1.8331,-0.56,1.56,-9.06,-15.52,-1717.5,-884.1
6.268,-0.0756,-0.4013,1.8381,-0.56,1.57,-9.16,-15.6,-1817.7,-800.1
6.339,-0.0742,-0.4069,1.8495,-0.57,1.57,-9.14,-16.06,-1797.0,-879.1
6.41,-0.0746,-0.424,1.8532,-0.57,1.57,-8.45,-16.09,-1625.8,-813.6
6.481,-0.0919,-0.4473,1.8539,-0.58,1.57,-7.39,-15.99,-1503.7,-783.0
6.55,-0.0783,-0.4209,1.8536,-0.58,1.58,-9.16,-15.84,-1853.0,-776.5
6.62,-0.0623,-0.4429,1.8629,-0.58,1.58,-8.14,-16.26,-1543.6,-883.6
6.691,-0.0654,-0.4678,1.8661,-0.59,1.58,-6.93,-16.35,-1470.5,-831.2
6.761,-0.08,-0.5022,1.8668,-0.59,1.58,-5.17,-16.31,-1257.2,-806.1
6.831,-0.0702,-0.496,1.8666,-0.6,1.58,-5.71,-16.23,-1607.1,-800.0
6.901,-0.0866,-0.524,1.8661,-0.6,1.58,-4.28,-16.15,-1346.9,-793.9
6.972,-0.0722,-0.5273,1.8656,-0.6,1.59,-4.24,-16.07,-1701.2,-794.2
7.042,-0.0622,-0.5614,1.865,-0.6,1.59,-2.42,-16.01,-1349.1,-788.6
7.112,-0.056,-0.615,1.8644,-0.61,1.59,0.53,-15.95,-999.1,-779.2
7.183,-0.0525,-0.6076,1.864,-0.61,1.59,0.01,-15.9,-1350.6,-783.4
7.254,-0.0685,-0.6004,1.8635,-0.61,1.59,-0.48,-15.87,-1707.8,-787.8
7.324,-0.0704,-0.5915,1.863,-0.61,1.59,-1.05,-15.83,-1808.4,-791.1
7.394,-0.0633,-0.5864,1.8626,-0.61,1.59,-1.38,-15.81,-1758.2,-795.6
7.466,-0.0451,-0.5849,1.8623,-0.61,1.59,-1.49,-15.79,-1706.5,-799.6
7.536,-0.0473,-0.5883,1.8619,-0.61,1.59,-1.29,-15.76,-1627.3,-799.9
7.606,-0.0588,-0.5747,1.8615,-0.61,1.59,-2.05,-15.74,-1873.9,-805.5
7.676,-0.0676,-0.5732,1.8612,-0.61,1.59,-2.1,-15.72,-1709.1,-808.2
7.746,-0.0689,-0.5593,1.8609,-0.61,1.59,-2.84,-15.7,-1888.1,-812.7
7.817,-0.0788,-0.5565,1.8607,-0.61,1.59,-2.92,-15.67,-1737.8,-815.6
7.888,-0.0722,-0.5492,1.8604,-0.61,1.59,-3.24,-15.64,-1802.9,-817.6
7.958,-0.0536,-0.5347,1.8601,-0.6,1.59,-3.95,-15.6,-1907.8,-821.3
8.028,-0.0572,-0.5355,1.8599,-0.6,1.59,-3.77,-15.55,-1700.8,-820.8
8.095,-0.0377,-0.502,1.8596,-0.6,1.59,-5.55,-15.5,-2000.0,-827.4
8.166,-0.0296,-0.4937,1.8595,-0.6,1.59,-5.85,-15.43,-1864.0,-827.5
8.236,-0.0291,-0.4503,1.8593,-0.59,1.59,-8.15,-15.36,-2000.0,-834.6
8.306,-0.0071,-0.456,1.8592,-0.59,1.59,-7.62,-15.27,-1867.1,-827.8
8.377,0.0046,-0.4297,1.859,-0.59,1.59,-8.9,-15.16,-2000.0,-831.3
8.448,-0.0143,-0.4473,1.8589,-0.58,1.6,-7.65,-15.04,-1781.2,-821.2
8.519,-0.0043,-0.4306,1.8588,-0.58,1.6,-8.35,-14.9,-2000.0,-822.2
8.589,-0.008,-0.4686,1.8586,-0.57,1.6,-5.9,-14.75,-1671.9,-805.3
8.66,-0.0338,-0.4888,1.8585,-0.57,1.6,-4.46,-14.57,-1434.1,-798.9
8.728,-0.0401,-0.4571,1.8584,-0.56,1.61,-5.98,-14.38,-1772.6,-802.2
8.797,-0.053,-0.4566,1.8583,-0.56,1.61,-5.7,-14.17,-1772.0,-789.7
8.869,-0.0393,-0.4381,1.8582,-0.55,1.62,-6.42,-13.93,-2000.0,-784.2
8.94,-0.0471,-0.4221,1.8582,-0.54,1.62,-6.99,-13.66,-1994.8,-773.7
9.01,-0.0276,-0.4018,1.858,-0.54,1.62,-7.8,-13.38,-2000.0,-763.2
9.081,-0.0472,-0.4039,1.858,-0.53,1.63,-7.32,-13.06,-1781.4,-744.4
9.151,-0.0379,-0.3646,1.8579,-0.53,1.64,-9.2,-12.73,-2000.0,-739.2
9.222,-0.0664,-0.3642,1.8578,-0.52,1.64,-8.83,-12.36,-1853.1,-713.1
9.293,-0.0538,-0.3798,1.8578,-0.51,1.65,-7.54,-11.97,-1608.9,-687.4
9.363,-0.0483,-0.3913,1.8577,-0.5,1.66,-6.48,-11.55,-1648.5,-664.9
9.435,-0.0595,-0.4077,1.8577,-0.5,1.66,-5.12,-11.09,-1555.6,-636.4
9.506,-0.0688,-0.4311,1.8576,-0.49,1.67,-3.35,-10.61,-1392.3,-574.9
9.577,-0.0761,-0.4493,1.8575,-0.48,1.68,-1.89,-10.1,-1447.2,-516.1
9.647,-0.0847,-0.4554,1.8575,-0.47,1.69,-1.11,-9.57,-1612.8,-459.8
9.717,-0.0972,-0.4462,1.8574,-0.47,1.7,-1.21,-9.01,-1830.7,-404.6
9.787,-0.0912,-0.4457,1.8574,-0.46,1.71,-0.8,-8.41,-1704.2,-326.1
9.857,-0.085,-0.4486,1.8574,-0.45,1.72,-0.19,-7.78,-1641.9,-248.5
9.927,-0.0837,-0.4515,1.8573,-0.44,1.73,0.41,-7.14,-1627.6,-168.9
9.997,-0.0754,-0.4684,1.8573,-0.44,1.74,1.82,-6.45,-1369.7,-73.2
10.067,-0.0586,-0.475,1.8573,-0.43,1.76,2.64,-5.73,-1517.6,4.4
10.136,-0.0564,-0.4734,1.8573,-0.42,1.77,2.98,-4.99,-1634.3,88.0
10.207,-0.0629,-0.4731,1.8573,-0.41,1.78,3.4,-4.21,-1603.6,184.6
10.277,-0.0723,-0.4724,1.8572,-0.41,1.8,3.8,-3.4,-1597.5,284.9
10.346,-0.0759,-0.4623,1.8572,-0.4,1.81,3.65,-2.57,-1736.0,380.7
10.417,-0.0639,-0.458,1.8572,-0.39,1.83,3.84,-1.69,-1646.9,495.6
10.488,-0.0477,-0.4461,1.8572,-0.38,1.84,3.58,-0.79,-1758.9,603.2
10.558,-0.0406,-0.429,1.8571,-0.38,1.86,3.01,0.14,-1839.3,674.2
10.628,-0.0221,-0.4241,1.8571,-0.37,1.88,3.14,1.1,-1669.8,733.9
10.699,-0.0252,-0.4067,1.8571,-0.36,1.89,2.55,2.09,-1851.1,783.3
10.77,-0.0349,-0.3989,1.8571,-0.36,1.91,2.5,3.12,-1723.8,838.2
10.84,-0.0273,-0.3862,1.8571,-0.35,1.93,2.16,4.16,-1799.7,886.2
10.91,-0.022,-0.3791,1.8571,-0.34,1.95,2.13,5.23,-1724.3,936.3
10.981,-0.0337,-0.3687,1.8571,-0.34,1.97,1.9,6.34,-1775.1,982.8
11.051,-0.052,-0.3627,1.8571,-0.33,1.99,1.92,7.46,-1715.3,1029.4
11.121,-0.0724,-0.3644,1.857,-0.32,2.01,2.36,8.59,-1595.5,1074.6
11.191,-0.0702,-0.3648,1.857,-0.32,2.03,2.7,9.76,-1609.5,1116.9
11.261,-0.0576,-0.3487,1.857,-0.31,2.05,2.1,10.95,-1850.8,1156.7
11.331,-0.0424,-0.3331,1.857,-0.31,2.07,1.51,12.16,-1858.0,1199.5
11.402,-0.045,-0.3248,1.857,-0.3,2.09,1.32,13.4,-1764.2,1242.8
11.473,-0.0431,-0.3286,1.857,-0.3,2.11,1.82,14.67,-1584.0,1284.3
11.542,-0.0603,-0.3379,1.857,-0.29,2.14,2.6,15.93,-1478.1,1322.6
11.614,-0.0747,-0.3392,1.857,-0.29,2.16,2.92,17.24,-1597.4,1358.9
11.684,-0.0569,-0.3263,1.857,-0.28,2.18,2.41,18.56,-1806.7,1395.1
11.755,-0.0581,-0.3195,1.857,-0.28,2.2,2.23,19.88,-1728.3,1433.1
11.826,-0.0503,-0.3461,1.857,-0.28,2.23,3.94,21.24,-1372.1,1471.9
11.896,-0.0247,-0.3383,1.857,-0.27,2.25,3.67,22.58,-1712.1,1500.5
11.966,-0.0312,-0.3155,1.857,-0.27,2.27,2.52,23.94,-1930.6,1534.4
12.037,-0.0303,-0.3046,1.857,-0.27,2.3,2.03,25.32,-1786.7,1571.1
12.108,-0.0312,-0.3067,1.857,-0.27,2.32,2.27,26.72,-1600.2,1605.7
12.178,-0.0341,-0.2831,1.8669,-0.27,2.35,1.02,27.54,-1951.2,1574.5
12.248,-0.0318,-0.2545,1.8707,-0.26,2.37,-0.54,28.71,-2000.0,1635.2
12.319,-0.0373,-0.2616,1.8821,-0.26,2.4,-0.07,29.47,-1705.1,1620.8
12.39,-0.0599,-0.2776,1.8864,-0.26,2.42,0.88,30.63,-1418.0,1680.1
12.46,-0.0593,-0.288,1.8979,-0.26,2.45,1.5,31.37,-1490.7,1660.2
12.531,-0.0533,-0.2602,1.9122,-0.26,2.47,-0.09,31.97,-1845.3,1658.5
12.602,-0.0607,-0.2721,1.9276,-0.26,2.49,0.57,32.5,-1492.9,1671.0
12.672,-0.0828,-0.283,1.9433,-0.26,2.52,1.15,33.01,-1495.9,1679.5
12.742,-0.0816,-0.2867,1.9591,-0.26,2.54,1.31,33.5,-1602.3,1688.9
12.813,-0.0956,-0.3091,1.975,-0.27,2.57,2.51,34.0,-1265.3,1701.6
12.884,-0.0803,-0.306,1.9908,-0.27,2.59,2.24,34.49,-1617.3,1707.2
12.955,-0.0748,-0.2832,2.0166,-0.27,2.62,0.82,34.41,-1962.6,1660.9
13.022,-0.0535,-0.2832,2.036,-0.27,2.64,0.7,34.61,-1669.9,1695.3
13.088,-0.0415,-0.297,2.0531,-0.27,2.66,1.34,34.91,-1430.6,1713.7
13.154,-0.0551,-0.2908,2.0693,-0.28,2.68,0.83,35.25,-1759.4,1721.9
13.22,-0.0641,-0.2943,2.0952,-0.28,2.71,0.85,35.03,-1612.8,1673.6
13.286,-0.0632,-0.2909,2.1246,-0.28,2.73,0.47,34.6,-1727.1,1646.7
13.352,-0.0581,-0.2928,2.1554,-0.29,2.75,0.38,34.06,-1651.3,1631.8
13.418,-0.0374,-0.2999,2.1768,-0.29,2.77,0.57,34.06,-1567.1,1682.2
13.485,-0.0337,-0.2959,2.2144,-0.29,2.79,0.1,33.11,-1749.5,1578.2
13.551,-0.0266,-0.299,2.2483,-0.3,2.81,0.03,32.36,-1648.0,1585.6
13.617,-0.0251,-0.2988,2.2807,-0.3,2.83,-0.24,31.68,-1707.4,1580.2
13.683,-0.0069,-0.2936,2.3125,-0.31,2.85,-0.81,31.01,-1795.3,1569.9
13.749,0.0077,-0.2986,2.3441,-0.31,2.87,-0.81,30.34,-1648.8,1560.1
13.815,0.004,-0.2998,2.3856,-0.32,2.89,-1.05,29.08,-1715.0,1477.9
13.881,0.0018,-0.2957,2.4208,-0.32,2.91,-1.59,28.17,-1807.9,1493.5
13.947,0.0046,-0.2978,2.4635,-0.33,2.93,-1.79,26.8,-1726.5,1420.2
14.014,-0.0319,-0.2985,2.4992,-0.33,2.95,-2.09,25.82,-1761.4,1440.4
14.08,-0.0402,-0.3041,2.5419,-0.34,2.97,-2.11,24.4,-1694.3,1362.1
14.146,-0.0535,-0.3111,2.5776,-0.35,2.99,-2.06,23.37,-1678.4,1383.0
14.213,-0.0485,-0.3009,2.6205,-0.35,3.0,-3.01,21.91,-1943.7,1296.4
14.279,-0.0678,-0.3151,2.6659,-0.36,3.02,-2.57,20.27,-1613.0,1238.2
14.346,-0.0574,-0.2906,2.7026,-0.37,3.04,-4.35,19.11,-1945.9,1258.7
14.412,-0.0454,-0.2918,2.7456,-0.37,3.05,-4.67,17.56,-1842.6,1173.3
14.478,-0.049,-0.2462,2.7912,-0.38,3.07,-7.68,15.84,-2000.0,1091.9
14.544,-0.0583,-0.2621,2.8277,-0.39,3.08,-7.16,14.61,-1845.5,1133.6
14.61,-0.0341,-0.2722,2.8707,-0.39,3.1,-6.98,12.98,-1787.9,1023.9
14.676,-0.0355,-0.2944,2.9162,-0.4,3.11,-6.12,11.18,-1598.3,938.4
14.742,-0.0349,-0.303,2.9526,-0.41,3.12,-6.03,9.87,-1805.3,963.8
14.808,-0.0215,-0.3018,2.9956,-0.42,3.14,-6.51,8.16,-1953.5,828.6
14.875,-0.0283,-0.3092,3.0312,-0.42,3.15,-6.5,6.86,-1845.2,849.3
14.941,-0.004,-0.3163,3.0737,-0.43,3.16,-6.51,5.12,-1853.4,686.7
15.007,-0.0312,-0.3478,3.1089,-0.44,3.17,-5.11,3.77,-1524.8,708.8
15.073,-0.01,-0.3494,3.1416,-0.44,3.19,-5.44,2.55,-1857.6,668.3
15.139,-0.0325,-0.3328,3.183,-0.45,3.2,-6.81,0.79,-2000.0,338.2
15.205,-0.0372,-0.4032,3.2177,-0.46,3.21,-3.19,-0.61,-1841.2,319.2
15.272,-0.0137,-0.3792,3.2504,-0.47,3.22,-4.98,-1.91,-2000.0,180.6
15.338,-0.018,-0.4031,3.2817,-0.47,3.23,-4.01,-3.17,-1846.4,82.2
15.405,-0.0134,-0.4052,3.3127,-0.48,3.24,-4.3,-4.44,-1897.1,-69.7
15.471,-0.044,-0.4068,3.3436,-0.49,3.24,-4.61,-5.73,-1911.0,-219.2
15.538,-0.0237,-0.4189,3.3746,-0.49,3.25,-4.31,-7.04,-1760.6,-360.2
15.604,-0.0733,-0.451,3.4054,-0.5,3.26,-2.87,-8.37,-1428.9,-494.1
15.67,-0.0565,-0.4693,3.4262,-0.51,3.27,-2.2,-9.17,-1615.3,-335.7
15.736,-0.0553,-0.4631,3.4533,-0.51,3.27,-2.93,-10.34,-1946.0,-636.7
15.802,-0.0561,-0.4767,3.4728,-0.52,3.28,-2.52,-11.1,-1691.3,-529.0
15.868,-0.0518,-0.4593,3.4895,-0.53,3.28,-3.88,-11.73,-2000.0,-550.4
15.935,-0.0689,-0.4895,3.505,-0.53,3.29,-2.49,-12.31,-1692.5,-570.5
16.001,-0.0822,-0.5142,3.5301,-0.54,3.3,-1.42,-13.47,-1480.8,-765.2
16.067,-0.0755,-0.5233,3.539,-0.54,3.3,-1.23,-13.71,-1721.4,-561.1
16.134,-0.0686,-0.5435,3.5518,-0.55,3.3,-0.4,-14.2,-1527.4,-666.5
16.2,-0.0441,-0.527,3.5659,-0.56,3.31,-1.65,-14.79,-1859.7,-721.3
16.266,-0.0328,-0.5524,3.5805,-0.56,3.31,-0.5,-15.43,-1529.5,-752.0
16.333,-0.0199,-0.5589,3.5855,-0.57,3.31,-0.41,-15.54,-1725.1,-656.8
16.399,-0.0396,-0.5645,3.5869,-0.57,3.32,-0.36,-15.46,-1733.3,-595.5
16.465,-0.033,-0.582,3.5968,-0.58,3.32,0.39,-15.88,-1524.0,-729.7
16.531,-0.0474,-0.5888,3.6,-0.58,3.32,0.53,-15.94,-1687.8,-664.5
16.598,-0.0591,-0.6144,3.6008,-0.58,3.32,1.77,-15.87,-1357.0,-630.4
16.664,-0.0574,-0.6146,3.6006,-0.59,3.33,1.56,-15.76,-1688.1,-611.2
16.731,-0.0492,-0.6244,3.6002,-0.59,3.33,1.92,-15.65,-1593.7,-599.7
16.797,-0.0382,-0.6307,3.5995,-0.59,3.33,2.1,-15.55,-1637.6,-591.8
16.864,-0.039,-0.6273,3.599,-0.6,3.33,1.73,-15.46,-1783.4,-599.5
16.931,-0.0468,-0.6433,3.5983,-0.6,3.33,2.49,-15.37,-1455.6,-590.5
16.997,-0.0657,-0.6453,3.5977,-0.6,3.33,2.47,-15.3,-1677.1,-592.8
17.064,-0.0531,-0.6461,3.5973,-0.6,3.33,2.39,-15.25,-1689.9,-599.6
17.13,-0.0479,-0.6462,3.5967,-0.61,3.33,2.29,-15.19,-1695.9,-601.6
17.197,-0.0291,-0.6356,3.5962,-0.61,3.33,1.6,-15.15,-1857.4,-613.9
17.263,-0.0377,-0.6444,3.5958,-0.61,3.33,2.03,-15.12,-1553.4,-615.7
17.329,-0.0275,-0.6382,3.5954,-0.61,3.33,1.62,-15.09,-1784.6,-624.7
17.395,-0.0303,-0.6178,3.595,-0.61,3.33,0.42,-15.06,-1994.7,-636.9
17.461,-0.0618,-0.6244,3.5947,-0.61,3.33,0.78,-15.04,-1664.4,-638.4
17.527,-0.0575,-0.6102,3.5944,-0.61,3.33,-0.04,-15.03,-1913.6,-645.0
17.593,-0.0691,-0.6142,3.5941,-0.61,3.33,0.21,-15.01,-1642.8,-646.7
17.659,-0.0759,-0.6051,3.5938,-0.61,3.33,-0.28,-14.99,-1840.5,-651.4
17.725,-0.0711,-0.594,3.5935,-0.61,3.33,-0.87,-14.97,-1875.7,-656.6
17.791,-0.08,-0.5934,3.5932,-0.61,3.33,-0.84,-14.95,-1723.0,-658.3
17.857,-0.0773,-0.5836,3.593,-0.61,3.33,-1.31,-14.92,-1859.2,-662.4
17.925,-0.0725,-0.5799,3.5928,-0.6,3.33,-1.42,-14.89,-1770.7,-665.0
17.993,-0.083,-0.5867,3.5926,-0.6,3.33,-0.91,-14.85,-1601.5,-662.9
18.064,-0.0667,-0.5541,3.5925,-0.6,3.33,-2.63,-14.8,-1957.7,-673.5
18.134,-0.052,-0.5088,3.5923,-0.6,3.34,-5.06,-14.74,-2000.0,-681.3
18.204,-0.0374,-0.4934,3.5921,-0.59,3.34,-5.77,-14.67,-1996.3,-680.2
18.274,-0.0318,-0.4928,3.592,-0.59,3.34,-5.6,-14.59,-1805.6,-677.1
18.344,-0.022,-0.4464,3.5918,-0.59,3.34,-8.05,-14.49,-2000.0,-685.4
18.414,-0.0482,-0.447,3.5917,-0.58,3.34,-7.79,-14.38,-1837.2,-676.4
18.484,-0.052,-0.4551,3.5915,-0.58,3.34,-7.07,-14.25,-1723.8,-668.9
18.555,-0.0277,-0.4458,3.5914,-0.57,3.35,-7.34,-14.1,-1955.3,-665.8
18.626,-0.0337,-0.4229,3.5913,-0.57,3.35,-8.37,-13.93,-2000.0,-663.1
18.697,-0.0095,-0.4113,3.5912,-0.56,3.35,-8.74,-13.75,-2000.0,-654.3
18.767,-0.0318,-0.3958,3.5911,-0.56,3.35,-9.32,-13.54,-2000.0,-645.8
18.837,-0.0619,-0.4012,3.591,-0.55,3.36,-8.69,-13.31,-1807.5,-625.8
18.907,-0.0324,-0.3965,3.5909,-0.55,3.36,-8.62,-13.06,-1939.5,-604.2
18.979,-0.0568,-0.4051,3.5908,-0.54,3.37,-7.77,-12.78,-1755.1,-565.9
19.048,-0.0538,-0.4082,3.5907,-0.53,3.37,-7.24,-12.49,-1817.5,-533.5
19.118,-0.0671,-0.4181,3.5906,-0.53,3.38,-6.31,-12.17,-1708.8,-492.5
19.188,-0.0479,-0.4253,3.5906,-0.52,3.38,-5.52,-11.82,-1734.0,-451.7
19.259,-0.0362,-0.4067,3.5905,-0.51,3.39,-6.18,-11.44,-2000.0,-423.8
19.33,-0.0252,-0.3729,3.5904,-0.51,3.4,-7.72,-11.02,-2000.0,-387.6
19.401,-0.0519,-0.375,3.5904,-0.5,3.41,-7.18,-10.59,-1910.0,-315.7
19.472,-0.065,-0.4013,3.5903,-0.49,3.41,-5.27,-10.12,-1558.4,-243.6
19.542,-0.0785,-0.3985,3.5903,-0.49,3.42,-5.0,-9.63,-1872.3,-202.0
19.614,-0.07,-0.4081,3.5902,-0.48,3.43,-4.02,-9.1,-1690.5,-130.1
19.685,-0.0495,-0.4156,3.5902,-0.47,3.44,-3.16,-8.54,-1701.8,-62.2
19.757,-0.048,-0.391,3.5902,-0.46,3.45,-4.12,-7.95,-2000.0,-11.7
19.83,-0.0625,-0.3954,3.5901,-0.45,3.46,-3.41,-7.31,-1756.8,85.9
19.9,-0.0756,-0.4165,3.5901,-0.45,3.47,-1.76,-6.67,-1470.2,177.9
19.97,-0.0692,-0.421,3.5901,-0.44,3.49,-1.06,-5.99,-1707.7,249.6
20.041,-0.0606,-0.4144,3.59,-0.43,3.5,-1.0,-5.28,-1855.9,329.1
20.111,-0.0566,-0.4204,3.59,-0.42,3.51,-0.21,-4.54,-1668.4,431.0
20.181,-0.0651,-0.4307,3.59,-0.42,3.52,0.81,-3.78,-1583.3,530.0
20.253,-0.0581,-0.4219,3.5899,-0.41,3.54,0.76,-2.95,-1848.3,617.6
20.324,-0.0577,-0.4204,3.5899,-0.4,3.55,1.11,-2.12,-1748.0,679.1
20.395,-0.0519,-0.4112,3.5899,-0.39,3.57,1.01,-1.25,-1851.3,725.8
20.466,-0.0451,-0.4136,3.5899,-0.39,3.58,1.59,-0.34,-1684.5,777.6
20.542,-0.0265,-0.3998,3.5899,-0.38,3.6,1.24,0.65,-1896.0,823.7
20.611,-0.0322,-0.3889,3.5898,-0.37,3.62,1.03,1.59,-1876.6,870.1
20.683,-0.0572,-0.4019,3.5899,-0.36,3.63,2.19,2.58,-1520.1,920.4
20.754,-0.0476,-0.373,3.5898,-0.36,3.65,0.93,3.61,-1875.1,955.5
20.823,-0.051,-0.3743,3.5898,-0.35,3.67,1.39,4.64,-1708.2,1005.9
20.893,-0.064,-0.3989,3.5898,-0.34,3.69,3.18,5.69,-1359.1,1051.0
20.963,-0.0561,-0.409,3.5898,-0.34,3.71,4.12,6.78,-1514.9,1087.3
21.034,-0.0329,-0.3779,3.5898,-0.33,3.73,2.7,7.9,-1866.4,1120.6
21.104,-0.0382,-0.3736,3.5898,-0.32,3.75,2.8,9.04,-1755.9,1167.4
21.176,-0.058,-0.3914,3.5897,-0.32,3.77,4.16,10.24,-1397.6,1211.3
21.247,-0.0323,-0.402,3.5897,-0.31,3.79,5.09,11.43,-1483.6,1246.7
21.317,-0.0345,-0.3817,3.5898,-0.31,3.81,4.23,12.63,-1832.7,1279.5
21.387,-0.018,-0.3683,3.5897,-0.3,3.83,3.75,13.87,-1855.0,1320.6
21.457,-0.0154,-0.3762,3.5897,-0.3,3.85,4.49,15.12,-1538.0,1360.9
21.529,-0.021,-0.385,3.5897,-0.29,3.88,5.26,16.42,-1508.0,1396.9
21.602,-0.0316,-0.3849,3.5897,-0.29,3.9,5.5,17.75,-1633.3,1431.3
21.672,-0.0454,-0.3781,3.5897,-0.28,3.92,5.34,19.06,-1729.1,1465.7
21.745,-0.0424,-0.367,3.5897,-0.28,3.95,4.92,20.42,-1792.0,1501.5
21.815,-0.0341,-0.3713,3.5996,-0.28,3.97,5.36,21.18,-1563.9,1473.1
21.887,-0.0262,-0.3782,3.6034,-0.27,3.99,5.93,22.34,-1511.6,1534.3
21.957,-0.0144,-0.3876,3.6048,-0.27,4.02,6.63,23.62,-1448.3,1575.9
22.028,-0.0142,-0.3761,3.6054,-0.27,4.04,6.11,24.97,-1768.1,1608.8
22.099,-0.0077,-0.3877,3.6155,-0.27,4.07,6.9,25.78,-1413.3,1585.9
22.169,-0.008,-0.3445,3.6193,-0.27,4.09,4.52,26.96,-1766.9,1637.8
22.239,-0.0199,-0.3473,3.6307,-0.26,4.11,4.76,27.69,-1586.0,1627.5
22.31,-0.0467,-0.3242,3.6449,-0.26,4.14,3.51,28.27,-1937.0,1626.1
22.38,-0.0545,-0.3204,3.6503,-0.26,4.16,3.33,29.38,-1712.2,1696.8
22.452,-0.0616,-0.3014,3.6622,-0.26,4.19,2.26,30.12,-1927.7,1683.4
22.522,-0.0677,-0.2971,3.6766,-0.26,4.21,2.02,30.7,-1744.5,1687.5
22.592,-0.0622,-0.2999,3.6919,-0.26,4.24,2.16,31.22,-1642.0,1695.3
22.663,-0.06,-0.2949,3.7076,-0.26,4.26,1.84,31.73,-1757.2,1705.9
22.732,-0.0624,-0.2906,3.7234,-0.26,4.29,1.55,32.22,-1754.9,1716.3
22.803,-0.0706,-0.3247,3.7392,-0.26,4.31,3.43,32.72,-1401.3,1731.8
22.877,-0.0855,-0.3268,3.7651,-0.27,4.34,3.44,32.69,-1623.4,1684.7
22.948,-0.0714,-0.3358,3.7847,-0.27,4.36,3.85,32.97,-1507.0,1717.0
23.014,-0.0631,-0.3223,3.8115,-0.27,4.38,2.95,32.72,-1838.7,1667.9
23.08,-0.0667,-0.3019,3.8315,-0.27,4.41,1.64,32.87,-1973.7,1707.6
23.146,-0.0565,-0.2922,3.8586,-0.28,4.43,0.93,32.58,-1845.6,1670.9
23.213,-0.0526,-0.2722,3.8886,-0.28,4.45,-0.39,32.14,-2000.0,1650.5
23.28,-0.0481,-0.2596,3.9097,-0.28,4.47,-1.3,32.2,-1930.8,1701.2
23.346,-0.0232,-0.2491,3.9373,-0.29,4.49,-2.11,31.86,-1922.0,1663.7
23.413,-0.0279,-0.2678,3.9674,-0.29,4.51,-1.26,31.37,-1590.3,1647.1
23.479,-0.0056,-0.2618,3.9983,-0.29,4.54,-1.83,30.8,-1863.7,1626.6
23.545,-0.0177,-0.2536,4.0296,-0.3,4.56,-2.55,30.2,-1911.6,1614.0
23.611,-0.0055,-0.2562,4.071,-0.3,4.58,-2.66,29.01,-1768.7,1538.4
23.678,-0.0224,-0.2615,4.1062,-0.31,4.6,-2.63,28.15,-1735.3,1554.5
23.743,-0.0019,-0.2757,4.139,-0.31,4.62,-2.11,27.41,-1592.9,1552.5
23.81,-0.0153,-0.2755,4.1809,-0.32,4.64,-2.42,26.13,-1819.6,1471.2
23.876,-0.0351,-0.2828,4.2162,-0.32,4.66,-2.3,25.21,-1714.7,1489.3
23.942,-0.0295,-0.2976,4.249,-0.33,4.67,-1.78,24.4,-1593.5,1485.7
24.009,-0.037,-0.2991,4.2911,-0.33,4.69,-2.03,23.08,-1804.7,1403.1
24.076,-0.0507,-0.3014,4.3263,-0.34,4.71,-2.24,22.11,-1801.7,1416.2
24.142,-0.0413,-0.3148,4.3688,-0.35,4.73,-1.83,20.68,-1634.8,1335.6
24.209,-0.0426,-0.308,4.4044,-0.35,4.75,-2.58,19.64,-1941.6,1349.6
24.275,-0.05,-0.3228,4.4471,-0.36,4.76,-2.11,18.16,-1631.1,1265.8
24.341,-0.0374,-0.3334,4.4826,-0.37,4.78,-1.87,17.06,-1694.8,1280.9
24.407,-0.0544,-0.3411,4.5253,-0.37,4.8,-1.82,15.53,-1741.9,1186.1
24.473,-0.0645,-0.3715,4.5608,-0.38,4.81,-0.46,14.38,-1411.7,1207.4
24.539,-0.0748,-0.3909,4.6035,-0.39,4.83,0.25,12.8,-1520.7,1103.3
24.607,-0.0608,-0.4038,4.6392,-0.39,4.84,0.58,11.61,-1624.7,1118.6
24.673,-0.0629,-0.4071,4.6817,-0.4,4.86,0.37,9.98,-1770.7,1001.2
24.739,-0.0618,-0.4277,4.7169,-0.41,4.87,1.14,8.74,-1483.8,1019.3
24.804,-0.0553,-0.4336,4.7496,-0.41,4.88,1.07,7.62,-1720.5,995.4
24.871,-0.0441,-0.4499,4.7912,-0.42,4.9,1.59,5.98,-1550.3,860.5
24.937,-0.0614,-0.4487,4.8261,-0.43,4.91,1.1,4.67,-1823.6,857.7
25.003,-0.0499,-0.462,4.8585,-0.44,4.92,1.45,3.49,-1598.9,834.5
25.069,-0.0703,-0.415,4.89,-0.44,4.93,-1.65,2.33,-1927.5,768.6
25.135,-0.071,-0.4213,4.9212,-0.45,4.94,-1.71,1.16,-1776.3,731.1
25.201,-0.0773,-0.4445,4.9522,-0.46,4.95,-0.79,-0.03,-1493.0,676.8
25.268,-0.0838,-0.443,4.9833,-0.47,4.96,-1.29,-1.24,-1827.9,574.8
25.333,-0.0751,-0.4428,5.0042,-0.47,4.97,-1.71,-1.9,-1867.6,686.2
25.4,-0.0873,-0.4618,5.0314,-0.48,4.98,-1.03,-2.95,-1569.0,475.3
25.466,-0.1032,-0.4672,5.051,-0.49,4.99,-1.12,-3.59,-1775.6,583.7
25.532,-0.1154,-0.4842,5.0775,-0.49,5.0,-0.54,-4.65,-1585.1,290.2
25.6,-0.0867,-0.474,5.0972,-0.5,5.0,-1.52,-5.33,-1924.7,378.6
25.666,-0.09,-0.4786,5.1236,-0.51,5.01,-1.64,-6.44,-1792.1,71.5
25.732,-0.0922,-0.4765,5.1429,-0.51,5.02,-2.14,-7.17,-1894.6,161.1
25.798,-0.0707,-0.4732,5.1595,-0.52,5.02,-2.7,-7.76,-1920.0,149.6
25.864,-0.0802,-0.494,5.1752,-0.53,5.03,-1.86,-8.33,-1590.3,117.3
25.93,-0.0521,-0.4601,5.1904,-0.53,5.04,-4.15,-8.9,-1918.9,29.7
25.996,-0.0705,-0.467,5.1957,-0.54,5.04,-4.1,-8.91,-1806.5,281.6
26.062,-0.0734,-0.502,5.207,-0.54,5.04,-2.42,-9.3,-1477.3,93.1
26.129,-0.0887,-0.4804,5.2209,-0.55,5.05,-3.99,-9.85,-1816.3,-49.7
26.196,-0.0895,-0.5103,5.2255,-0.56,5.05,-2.59,-9.89,-1484.0,180.0
26.262,-0.0934,-0.5244,5.2266,-0.56,5.06,-2.08,-9.76,-1651.0,269.5
26.328,-0.1007,-0.521,5.2365,-0.57,5.06,-2.56,-10.15,-1907.5,-3.7
26.394,-0.0961,-0.5317,5.2399,-0.57,5.06,-2.22,-10.18,-1699.5,151.6
26.46,-0.0643,-0.5173,5.2407,-0.57,5.06,-3.3,-10.08,-2000.0,206.7
26.526,-0.0574,-0.525,5.2405,-0.58,5.07,-3.11,-9.94,-1760.8,236.5
26.592,-0.0657,-0.5191,5.2401,-0.58,5.07,-3.68,-9.8,-1956.3,245.9
26.659,-0.0535,-0.5039,5.2396,-0.59,5.07,-4.76,-9.68,-2000.0,247.3
26.725,-0.0373,-0.5142,5.239,-0.59,5.07,-4.37,-9.56,-1760.5,255.9
26.791,-0.0187,-0.5107,5.2385,-0.59,5.07,-4.77,-9.46,-1944.2,253.6
26.857,-0.0238,-0.4783,5.238,-0.6,5.07,-6.79,-9.37,-2000.0,244.2
26.923,-0.0454,-0.4852,5.2375,-0.6,5.08,-6.55,-9.29,-1947.3,247.8
26.99,-0.0264,-0.4711,5.2369,-0.6,5.08,-7.5,-9.23,-2000.0,243.4
27.056,-0.0583,-0.474,5.2366,-0.6,5.08,-7.46,-9.18,-1912.4,238.8
27.122,-0.0627,-0.4651,5.2361,-0.61,5.08,-8.07,-9.13,-2000.0,236.9
27.189,-0.0593,-0.4841,5.2358,-0.61,5.08,-7.07,-9.09,-1741.1,236.6
27.255,-0.0336,-0.4757,5.2354,-0.61,5.08,-7.62,-9.06,-2000.0,232.4
27.322,-0.0142,-0.4903,5.2351,-0.61,5.08,-6.85,-9.04,-1743.1,231.1
27.388,-0.0562,-0.4951,5.2348,-0.61,5.08,-6.61,-9.02,-1873.5,229.9
27.454,-0.048,-0.4933,5.2345,-0.61,5.08,-6.73,-9.0,-1962.7,227.8
27.52,-0.0741,-0.5054,5.2342,-0.61,5.08,-6.04,-8.98,-1757.7,228.5
27.586,-0.0511,-0.5081,5.234,-0.61,5.08,-5.87,-8.97,-1886.5,224.7
27.652,-0.0715,-0.5101,5.2337,-0.61,5.08,-5.73,-8.95,-1892.1,223.7
27.719,-0.0489,-0.5037,5.2335,-0.61,5.08,-6.05,-8.93,-2000.0,221.3
27.785,-0.0636,-0.4968,5.2333,-0.61,5.08,-6.37,-8.92,-2000.0,217.5
27.851,-0.0364,-0.5235,5.2331,-0.61,5.08,-4.76,-8.89,-1690.6,225.2
27.921,-0.0812,-0.5191,5.2331,-0.6,5.08,-4.91,-8.87,-1955.7,221.6
27.99,-0.0547,-0.5402,5.2328,-0.6,5.08,-3.58,-8.83,-1613.7,235.0
28.06,-0.0654,-0.5568,5.2327,-0.6,5.08,-2.48,-8.78,-1621.8,239.6
28.13,-0.0367,-0.5512,5.2326,-0.6,5.08,-2.65,-8.73,-1924.1,241.6
28.201,-0.0585,-0.5227,5.2324,-0.59,5.08,-4.1,-8.66,-2000.0,239.4
28.273,-0.0783,-0.5457,5.2322,-0.59,5.08,-2.58,-8.57,-1850.5,262.0
28.343,-0.0433,-0.5405,5.2321,-0.59,5.08,-2.66,-8.47,-1913.5,266.0
28.413,-0.0538,-0.5173,5.232,-0.58,5.09,-3.76,-8.37,-2000.0,268.4
28.485,-0.0629,-0.5298,5.2319,-0.58,5.09,-2.79,-8.24,-1784.6,295.1
28.555,-0.0811,-0.5275,5.2318,-0.57,5.09,-2.66,-8.09,-1874.0,308.9
28.626,-0.056,-0.5388,5.2317,-0.57,5.09,-1.73,-7.92,-1668.5,333.3
28.696,-0.043,-0.5223,5.2316,-0.56,5.1,-2.38,-7.74,-2000.0,346.2
28.766,-0.071,-0.525,5.2315,-0.56,5.1,-1.92,-7.53,-1788.2,376.0
28.837,-0.0781,-0.548,5.2314,-0.55,5.1,-0.27,-7.3,-1447.3,415.8
28.907,-0.058,-0.5419,5.2313,-0.55,5.11,-0.29,-7.05,-1796.7,434.5
28.979,-0.0517,-0.4919,5.2312,-0.54,5.11,-2.8,-6.77,-2000.0,446.8
29.049,-0.0603,-0.5139,5.2312,-0.53,5.12,-1.18,-6.48,-1814.2,515.2
29.12,-0.051,-0.4934,5.2311,-0.53,5.12,-1.99,-6.15,-2000.0,534.8
29.19,-0.0651,-0.5057,5.2311,-0.52,5.13,-0.9,-5.8,-1715.7,595.5
29.26,-0.0772,-0.5268,5.231,-0.51,5.14,0.7,-5.42,-1444.2,641.2
29.332,-0.0709,-0.5383,5.2309,-0.51,5.14,1.77,-5.01,-1569.9,663.4
29.403,-0.06,-0.4944,5.2309,-0.5,5.15,-0.34,-4.58,-1925.4,674.0
29.473,-0.0718,-0.521,5.2308,-0.49,5.16,1.6,-4.11,-1574.9,720.3
29.543,-0.0907,-0.5243,5.2308,-0.49,5.17,2.21,-3.62,-1671.9,740.3
29.613,-0.0791,-0.5089,5.2307,-0.48,5.18,1.75,-3.1,-1929.0,763.0
29.682,-0.071,-0.4825,5.2307,-0.47,5.19,0.66,-2.56,-2000.0,789.2
29.753,-0.0728,-0.4899,5.2307,-0.46,5.2,1.52,-1.98,-1729.9,827.1
29.824,-0.0511,-0.4865,5.2307,-0.46,5.21,1.77,-1.36,-1767.8,853.7
29.894,-0.0693,-0.4875,5.2306,-0.45,5.22,2.27,-0.72,-1695.4,885.3
29.964,-0.0638,-0.4665,5.2306,-0.44,5.23,1.5,-0.05,-1996.6,910.8
30.036,-0.0466,-0.4394,5.2306,-0.43,5.24,0.4,0.67,-2000.0,943.0
30.106,-0.027,-0.4448,5.2306,-0.42,5.26,1.15,1.4,-1728.2,981.5
30.176,-0.0296,-0.4175,5.2306,-0.42,5.27,0.02,2.17,-2000.0,1007.8
30.246,-0.0247,-0.4577,5.2305,-0.41,5.28,2.76,2.97,-1726.0,1052.8
30.316,-0.0169,-0.4151,5.2305,-0.4,5.3,0.76,3.79,-2000.0,1069.4
30.387,-0.0169,-0.4228,5.2305,-0.39,5.31,1.63,4.65,-1725.7,1111.0
30.456,-0.0344,-0.4167,5.2305,-0.39,5.33,1.71,5.53,-1801.9,1140.9
30.526,-0.0575,-0.4256,5.2304,-0.38,5.34,2.63,6.44,-1568.0,1176.5
30.596,-0.0509,-0.4113,5.2304,-0.37,5.36,2.23,7.39,-1897.7,1205.5
30.666,-0.057,-0.3897,5.2304,-0.37,5.38,1.39,8.36,-2000.0,1238.4
30.736,-0.064,-0.392,5.2303,-0.36,5.39,1.92,9.35,-1682.5,1275.6
30.806,-0.0638,-0.3509,5.2304,-0.35,5.41,-0.04,10.37,-2000.0,1304.2
30.875,-0.0556,-0.3391,5.2304,-0.35,5.43,-0.34,11.42,-1920.9,1342.7
30.947,-0.0689,-0.3355,5.2304,-0.34,5.45,-0.17,12.52,-1811.6,1377.9
31.017,-0.0669,-0.338,5.2403,-0.33,5.47,0.33,13.07,-1721.9,1340.6
31.086,-0.0774,-0.3117,5.2441,-0.33,5.49,-0.83,13.97,-2000.0,1400.6
31.158,-0.0761,-0.3155,5.2455,-0.32,5.51,-0.27,15.06,-1721.5,1449.2
31.228,-0.0534,-0.3163,5.246,-0.31,5.53,0.1,16.22,-1757.2,1485.7
31.298,-0.0434,-0.3064,5.2462,-0.31,5.55,-0.16,17.4,-1904.8,1518.4
31.368,-0.0458,-0.3004,5.2562,-0.3,5.57,-0.21,18.05,-1857.0,1487.5
31.439,-0.0717,-0.3116,5.26,-0.3,5.59,0.71,19.08,-1602.5,1548.8
31.509,-0.0736,-0.2939,5.2713,-0.29,5.62,-0.04,19.7,-1953.0,1524.9
31.579,-0.0922,-0.2949,5.2756,-0.29,5.64,0.26,20.72,-1762.2,1590.0
31.649,-0.0881,-0.3114,5.2871,-0.29,5.66,1.45,21.37,-1511.3,1573.0
31.72,-0.0623,-0.3082,5.2914,-0.28,5.68,1.48,22.44,-1796.0,1631.5
31.79,-0.0482,-0.2983,5.303,-0.28,5.71,1.11,23.11,-1890.9,1613.5
31.861,-0.0641,-0.2976,5.3173,-0.28,5.73,1.26,23.64,-1769.1,1617.1
31.932,-0.0429,-0.2918,5.3327,-0.27,5.75,1.09,24.13,-1841.9,1624.9
32.002,-0.0407,-0.2856,5.3484,-0.27,5.78,0.88,24.59,-1854.0,1635.6
32.072,-0.0584,-0.2977,5.3641,-0.27,5.8,1.7,25.06,-1582.7,1650.0
32.143,-0.0715,-0.3238,5.3799,-0.27,5.83,3.3,25.55,-1317.2,1663.2
32.213,-0.0555,-0.355,5.3957,-0.26,5.85,5.18,26.04,-1160.4,1673.9
32.283,-0.0442,-0.3437,5.4215,-0.26,5.87,4.6,25.96,-1509.8,1619.2
32.353,-0.0565,-0.3485,5.441,-0.26,5.9,4.92,26.23,-1617.3,1659.5
32.423,-0.0834,-0.3579,5.4582,-0.26,5.92,5.5,26.64,-1531.9,1681.1
32.493,-0.095,-0.3587,5.4845,-0.26,5.95,5.55,26.53,-1659.4,1636.3
32.562,-0.1008,-0.3504,5.5042,-0.26,5.97,5.07,26.8,-1796.1,1673.8
32.633,-0.1024,-0.3632,5.5314,-0.26,6.0,5.78,26.64,-1469.3,1640.9
32.703,-0.0872,-0.3557,5.5614,-0.26,6.02,5.3,26.32,-1778.1,1618.8
32.773,-0.0772,-0.347,5.5924,-0.26,6.05,4.73,25.95,-1805.7,1610.3
32.846,-0.0674,-0.3272,5.624,-0.27,6.07,3.51,25.57,-1964.2,1603.6
32.916,-0.0565,-0.3402,5.6555,-0.27,6.09,4.15,25.16,-1610.9,1600.5
32.985,-0.0761,-0.2993,5.6869,-0.27,6.12,1.68,24.71,-1956.9,1580.8
33.053,-0.0677,-0.318,5.7182,-0.27,6.14,2.62,24.24,-1617.7,1581.1
33.122,-0.0524,-0.3169,5.7497,-0.27,6.16,2.4,23.77,-1759.1,1569.5
33.192,-0.0697,-0.3185,5.7813,-0.28,6.19,2.32,23.3,-1726.3,1562.2
33.262,-0.0739,-0.3234,5.8228,-0.28,6.21,2.4,22.26,-1680.1,1489.4
33.333,-0.095,-0.3309,5.858,-0.29,6.23,2.62,21.56,-1642.1,1508.3
33.406,-0.0894,-0.3263,5.9011,-0.29,6.26,2.12,20.44,-1818.4,1444.8
33.476,-0.0828,-0.3318,5.9365,-0.29,6.28,2.19,19.7,-1685.6,1462.4
33.546,-0.0731,-0.3312,5.9792,-0.3,6.3,1.9,18.51,-1777.4,1391.1
33.616,-0.0608,-0.3234,6.0149,-0.3,6.32,1.17,17.72,-1891.6,1410.8
33.687,-0.0829,-0.3297,6.0578,-0.31,6.35,1.24,16.49,-1703.2,1342.0
33.758,-0.0909,-0.3325,6.1034,-0.31,6.37,1.09,15.1,-1760.7,1289.4
33.828,-0.0896,-0.3399,6.1399,-0.32,6.39,1.19,14.2,-1697.2,1316.7
33.898,-0.0773,-0.3336,6.1829,-0.32,6.41,0.5,12.89,-1898.3,1233.2
33.968,-0.074,-0.3348,6.2285,-0.33,6.43,0.22,11.42,-1810.4,1176.0
34.039,-0.0963,-0.3215,6.2652,-0.34,6.45,-0.9,10.44,-2000.0,1203.2
34.109,-0.0891,-0.3277,6.308,-0.34,6.47,-0.91,9.06,-1773.1,1114.7
34.179,-0.062,-0.307,6.3536,-0.35,6.48,-2.47,7.51,-2000.0,1036.9
34.25,-0.0587,-0.2901,6.3901,-0.36,6.5,-3.83,6.46,-2000.0,1071.1
34.32,-0.0457,-0.2999,6.4331,-0.36,6.52,-3.67,5.01,-1800.9,971.5
34.39,-0.0456,-0.2827,6.4685,-0.37,6.54,-5.07,3.96,-2000.0,983.8
34.46,-0.0786,-0.2841,6.5109,-0.38,6.55,-5.4,2.47,-1951.8,861.0
34.53,-0.0582,-0.2961,6.5463,-0.39,6.57,-5.13,1.37,-1817.1,882.7
34.6,-0.0628,-0.2837,6.5887,-0.39,6.59,-6.26,-0.17,-2000.0,729.9
34.67,-0.0833,-0.2955,6.6238,-0.4,6.6,-6.01,-1.33,-1847.2,751.9
34.74,-0.0784,-0.2947,6.6664,-0.41,6.62,-6.49,-2.94,-2000.0,513.6
34.81,-0.0687,-0.3182,6.7016,-0.42,6.63,-5.58,-4.16,-1687.5,562.3
34.88,-0.0423,-0.3252,6.734,-0.42,6.64,-5.61,-5.25,-1913.1,486.1
34.95,-0.0618,-0.3419,6.7656,-0.43,6.66,-5.1,-6.31,-1780.3,392.0
35.021,-0.0748,-0.3592,6.7966,-0.44,6.67,-4.55,-7.38,-1762.5,274.6
35.091,-0.103,-0.3817,6.8276,-0.45,6.68,-3.7,-8.47,-1674.4,155.6
35.161,-0.0986,-0.3901,6.8582,-0.45,6.69,-3.66,-9.59,-1861.8,11.5
35.232,-0.0631,-0.3993,6.8891,-0.46,6.7,-3.57,-10.74,-1851.4,-122.1
35.302,-0.0511,-0.3941,6.9199,-0.47,6.71,-4.3,-11.92,-2000.0,-272.2
35.371,-0.0651,-0.411,6.9506,-0.48,6.72,-3.76,-13.13,-1748.1,-408.0
35.44,-0.0776,-0.4283,6.9714,-0.48,6.73,-3.19,-13.8,-1729.0,-242.3
35.512,-0.0891,-0.427,6.9989,-0.49,6.74,-3.7,-14.87,-1979.0,-516.0
35.583,-0.0954,-0.4327,7.0182,-0.5,6.75,-3.79,-15.51,-1895.4,-412.7
35.653,-0.086,-0.4658,7.0447,-0.51,6.76,-2.3,-16.59,-1544.3,-659.0
35.723,-0.0578,-0.4558,7.0639,-0.51,6.76,-3.27,-17.29,-1893.7,-617.0
35.793,-0.0765,-0.4735,7.0805,-0.52,6.77,-2.65,-17.86,-1703.8,-609.9
35.863,-0.0819,-0.5107,7.096,-0.53,6.77,-0.9,-18.39,-1354.3,-628.1
35.933,-0.0903,-0.5197,7.1112,-0.53,6.78,-0.75,-18.94,-1704.8,-659.4
36.003,-0.0909,-0.547,7.1262,-0.54,6.79,0.45,-19.5,-1470.3,-680.7
36.074,-0.0952,-0.5641,7.1314,-0.55,6.79,1.07,-19.52,-1614.1,-511.8
36.143,-0.0828,-0.5543,7.1426,-0.55,6.8,0.18,-19.91,-1962.1,-671.6
36.213,-0.0681,-0.5686,7.1462,-0.56,6.8,0.67,-19.89,-1648.5,-543.3
36.283,-0.0747,-0.5866,7.1571,-0.56,6.8,1.39,-20.31,-1574.1,-686.3
36.353,-0.0771,-0.591,7.1605,-0.57,6.81,1.35,-20.32,-1762.2,-595.9
36.423,-0.0881,-0.6038,7.1614,-0.57,6.81,1.8,-20.21,-1628.2,-532.2
36.493,-0.0923,-0.6123,7.1613,-0.58,6.81,2.02,-20.05,-1681.6,-504.8
36.563,-0.0828,-0.6208,7.1607,-0.58,6.81,2.25,-19.89,-1668.5,-487.3
36.633,-0.0698,-0.6263,7.1601,-0.59,6.82,2.34,-19.75,-1702.5,-483.0
36.703,-0.0656,-0.6261,7.1594,-0.59,6.82,2.1,-19.62,-1781.3,-484.9
36.772,-0.0503,-0.6177,7.1588,-0.59,6.82,1.42,-19.5,-1898.1,-492.8
36.842,-0.0413,-0.6173,7.1582,-0.6,6.82,1.21,-19.41,-1790.6,-497.8
36.913,-0.0589,-0.6101,7.1577,-0.6,6.82,0.63,-19.32,-1885.2,-509.1
36.982,-0.0756,-0.6172,7.1572,-0.6,6.82,0.89,-19.25,-1682.5,-509.3
37.053,-0.0649,-0.5975,7.1567,-0.6,6.82,-0.37,-19.19,-2000.0,-530.1
37.122,-0.0806,-0.5977,7.1562,-0.61,6.82,-0.47,-19.14,-1796.5,-536.6
37.194,-0.0885,-0.5961,7.1559,-0.61,6.82,-0.66,-19.11,-1820.2,-549.3
37.265,-0.0663,-0.6038,7.1555,-0.61,6.82,-0.3,-19.07,-1681.2,-551.3
37.336,-0.0451,-0.5749,7.1552,-0.61,6.82,-2.01,-19.05,-2000.0,-577.0
37.406,-0.0517,-0.5616,7.1548,-0.61,6.82,-2.8,-19.02,-1995.9,-593.5
37.476,-0.0579,-0.5572,7.1544,-0.61,6.82,-3.07,-19.0,-1889.7,-604.3
37.546,-0.0473,-0.5386,7.1541,-0.61,6.82,-4.14,-18.99,-2000.0,-624.3
37.615,-0.0746,-0.564,7.1538,-0.61,6.82,-2.66,-18.97,-1731.6,-616.6
37.685,-0.0713,-0.5768,7.1536,-0.61,6.82,-1.88,-18.95,-1619.1,-617.1
37.756,-0.0535,-0.5241,7.1534,-0.61,6.82,-4.84,-18.93,-1977.1,-645.6
37.828,-0.0679,-0.5169,7.1532,-0.61,6.82,-5.17,-18.91,-1951.7,-648.7
37.899,-0.0493,-0.4927,7.1529,-0.61,6.82,-6.46,-18.88,-2000.0,-657.6
37.97,-0.0638,-0.4815,7.1528,-0.6,6.82,-6.98,-18.84,-2000.0,-662.3
38.036,-0.0524,-0.5035,7.1525,-0.6,6.82,-5.59,-18.79,-1699.7,-654.6
38.103,-0.0637,-0.498,7.1523,-0.6,6.83,-5.76,-18.74,-1945.0,-659.2
38.169,-0.0414,-0.4714,7.1521,-0.6,6.83,-7.12,-18.68,-2000.0,-667.2
38.235,-0.0668,-0.4864,7.152,-0.59,6.83,-6.08,-18.61,-1894.8,-659.8
38.302,-0.0666,-0.4793,7.1519,-0.59,6.83,-6.29,-18.52,-1976.7,-662.9
38.371,-0.066,-0.4933,7.1518,-0.59,6.83,-5.28,-18.43,-1671.2,-655.0
38.437,-0.0519,-0.4792,7.1517,-0.58,6.83,-5.86,-18.31,-2000.0,-657.8
38.504,-0.0249,-0.4807,7.1516,-0.58,6.83,-5.54,-18.19,-1849.5,-651.7
38.57,-0.0557,-0.4758,7.1515,-0.57,6.84,-5.56,-18.05,-1936.1,-648.5
38.636,-0.0591,-0.499,7.1514,-0.57,6.84,-3.97,-17.89,-1605.4,-632.7
38.703,-0.0836,-0.5024,7.1513,-0.56,6.84,-3.49,-17.71,-1781.2,-625.3
38.769,-0.0829,-0.5069,7.1512,-0.56,6.85,-2.94,-17.52,-1754.5,-606.3
38.836,-0.0975,-0.5138,7.1512,-0.55,6.85,-2.24,-17.3,-1703.0,-583.6
38.902,-0.0874,-0.5214,7.1511,-0.55,6.85,-1.49,-17.07,-1674.8,-557.8
38.969,-0.0737,-0.5087,7.1511,-0.54,6.86,-1.89,-16.81,-1964.6,-549.5
39.036,-0.0915,-0.5171,7.151,-0.54,6.86,-1.07,-16.53,-1652.3,-507.0
39.102,-0.0923,-0.507,7.1509,-0.53,6.87,-1.3,-16.23,-1916.4,-491.6
39.169,-0.0893,-0.5004,7.1509,-0.52,6.87,-1.32,-15.91,-1869.5,-459.4
39.235,-0.0751,-0.4974,7.1508,-0.52,6.88,-1.13,-15.56,-1816.2,-421.4
39.301,-0.0732,-0.4841,7.1508,-0.51,6.89,-1.52,-15.19,-1961.8,-394.0
39.367,-0.0563,-0.4855,7.1508,-0.5,6.89,-1.05,-14.79,-1749.9,-341.3
39.434,-0.0571,-0.4757,7.1507,-0.5,6.9,-1.23,-14.37,-1908.9,-306.0
39.5,-0.0844,-0.4969,7.1507,-0.49,6.91,0.38,-13.92,-1577.1,-227.5
39.566,-0.0571,-0.4703,7.1506,-0.48,6.92,-0.75,-13.45,-1906.9,-219.0
39.632,-0.0715,-0.4694,7.1506,-0.48,6.92,-0.39,-12.95,-1769.0,-142.3
39.699,-0.084,-0.4885,7.1506,-0.47,6.93,1.11,-12.43,-1437.3,-63.5
39.765,-0.0944,-0.4729,7.1505,-0.46,6.94,0.62,-11.88,-1767.5,-32.6
39.831,-0.0992,-0.4845,7.1505,-0.45,6.95,1.7,-11.29,-1528.2,61.1
39.898,-0.0693,-0.4596,7.1505,-0.45,6.96,0.69,-10.68,-1859.5,94.6
39.964,-0.0735,-0.4549,7.1505,-0.44,6.98,0.84,-10.05,-1794.2,187.7
40.03,-0.0827,-0.473,7.1504,-0.43,6.99,2.29,-9.38,-1461.6,288.9
40.097,-0.0715,-0.4455,7.1504,-0.43,7.0,1.13,-8.69,-1792.8,326.3
40.163,-0.0684,-0.4258,7.1504,-0.42,7.01,0.42,-7.98,-2000.0,419.6
40.229,-0.0665,-0.4136,7.1504,-0.41,7.02,0.13,-7.23,-1910.8,518.1
40.295,-0.0521,-0.3925,7.1503,-0.4,7.04,-0.67,-6.46,-2000.0,604.4
40.361,-0.0728,-0.3797,7.1503,-0.4,7.05,-1.0,-5.66,-1946.6,670.3
40.428,-0.054,-0.3689,7.1503,-0.39,7.07,-1.2,-4.83,-1922.8,718.6
40.494,-0.0693,-0.3726,7.1503,-0.38,7.08,-0.6,-3.98,-1714.1,768.8
40.561,-0.0735,-0.379,7.1503,-0.38,7.1,0.17,-3.1,-1656.8,813.4
40.627,-0.0719,-0.3935,7.1503,-0.37,7.11,1.39,-2.19,-1501.3,858.5
40.694,-0.06,-0.4098,7.1503,-0.36,7.13,2.7,-1.26,-1435.9,900.2
40.76,-0.0631,-0.4141,7.1503,-0.36,7.14,3.32,-0.3,-1621.6,936.7
40.826,-0.0641,-0.4224,7.1502,-0.35,7.16,4.16,0.67,-1534.7,977.6
40.893,-0.0692,-0.4314,7.1502,-0.34,7.18,5.04,1.69,-1504.5,1017.5
40.961,-0.0527,-0.4271,7.1502,-0.34,7.2,5.15,2.75,-1708.5,1053.3
41.027,-0.0486,-0.4196,7.1502,-0.33,7.22,5.06,3.8,-1755.6,1091.7
41.095,-0.0444,-0.4208,7.1502,-0.33,7.24,5.46,4.89,-1616.8,1132.9
41.161,-0.0657,-0.4047,7.1502,-0.32,7.25,4.85,5.98,-1878.7,1166.7
41.227,-0.059,-0.4005,7.1502,-0.31,7.27,4.91,7.1,-1709.0,1208.0
41.293,-0.0433,-0.3831,7.1502,-0.31,7.29,4.21,8.23,-1908.1,1242.5
41.36,-0.0424,-0.372,7.1502,-0.3,7.31,3.86,9.38,-1829.8,1281.4
41.426,-0.0424,-0.3722,7.1502,-0.3,7.33,4.13,10.55,-1659.0,1319.5
41.492,-0.0517,-0.3757,7.1502,-0.3,7.36,4.58,11.73,-1598.0,1354.7
41.558,-0.0366,-0.3567,7.1502,-0.29,7.38,3.74,12.94,-1928.8,1386.0
41.624,-0.0628,-0.3721,7.1601,-0.29,7.4,4.85,13.59,-1598.1,1352.8
41.69,-0.059,-0.3696,7.1639,-0.28,7.42,4.91,14.61,-1682.6,1414.3
41.756,-0.0525,-0.3655,7.1653,-0.28,7.44,4.87,15.77,-1706.8,1459.1
41.822,-0.0426,-0.3589,7.1757,-0.28,7.46,4.67,16.43,-1746.5,1426.5
41.889,-0.0537,-0.3589,7.1797,-0.27,7.48,4.84,17.48,-1643.1,1492.9
41.955,-0.0415,-0.3417,7.1812,-0.27,7.51,4.0,18.68,-1906.8,1535.2
42.022,-0.046,-0.3331,7.1916,-0.27,7.53,3.64,19.37,-1795.5,1507.1
42.088,-0.0523,-0.2952,7.2055,-0.27,7.55,1.58,19.87,-2000.0,1500.1
42.154,-0.0254,-0.296,7.2107,-0.27,7.58,1.72,20.88,-1796.1,1579.9
42.22,-0.025,-0.3001,7.2225,-0.26,7.6,2.04,21.51,-1647.2,1561.2
42.287,-0.0241,-0.3232,7.2369,-0.26,7.62,3.43,22.01,-1315.5,1562.6
42.353,-0.0241,-0.3307,7.2522,-0.26,7.64,3.91,22.45,-1549.0,1564.8
42.418,-0.0371,-0.2993,7.2679,-0.26,7.67,2.14,22.86,-1878.1,1569.0
42.485,-0.0467,-0.3112,7.2837,-0.26,7.69,2.83,23.29,-1546.4,1587.9
42.551,-0.0588,-0.2947,7.2995,-0.26,7.71,1.88,23.7,-1877.1,1594.0
42.617,-0.0653,-0.2967,7.3153,-0.26,7.74,1.97,24.12,-1684.6,1608.2
42.683,-0.05,-0.268,7.3311,-0.26,7.76,0.29,24.54,-2000.0,1615.7
42.749,-0.0553,-0.2642,7.3568,-0.26,7.78,0.01,24.38,-1815.2,1565.3
42.815,-0.0488,-0.2743,7.3763,-0.27,7.81,0.52,24.57,-1599.1,1606.4
42.882,-0.0397,-0.2875,7.4034,-0.27,7.83,1.19,24.34,-1537.5,1563.2
42.95,-0.0267,-0.2859,7.4235,-0.27,7.85,0.98,24.51,-1771.2,1603.3
43.018,-0.0387,-0.3026,7.4508,-0.27,7.87,1.81,24.28,-1475.2,1565.7
43.088,-0.054,-0.3034,7.4811,-0.27,7.9,1.71,23.92,-1724.4,1545.7
43.159,-0.0467,-0.3062,7.5121,-0.28,7.92,1.7,23.49,-1699.6,1532.2
43.229,-0.0503,-0.3044,7.5435,-0.28,7.95,1.41,23.03,-1772.4,1519.3
43.298,-0.0435,-0.2999,7.5749,-0.28,7.97,0.95,22.54,-1819.8,1508.3
43.368,-0.0621,-0.302,7.6063,-0.29,7.99,0.85,22.04,-1735.7,1497.3
43.439,-0.0609,-0.2806,7.6479,-0.29,8.01,-0.61,20.96,-2000.0,1417.6
43.509,-0.0507,-0.2784,7.6832,-0.3,8.04,-0.99,20.23,-1841.4,1438.6
43.579,-0.0493,-0.2725,7.7258,-0.3,8.06,-1.6,19.03,-1905.6,1361.9
43.65,-0.0761,-0.2702,7.7617,-0.31,8.08,-2.02,18.23,-1871.6,1387.8
43.721,-0.062,-0.3023,7.8045,-0.31,8.1,-0.48,17.0,-1519.6,1317.8
43.791,-0.0878,-0.3034,7.8402,-0.32,8.12,-0.73,16.16,-1812.4,1330.6
43.861,-0.0642,-0.3029,7.883,-0.32,8.14,-1.08,14.88,-1843.7,1249.5
43.932,-0.0488,-0.3152,7.9285,-0.33,8.16,-0.72,13.42,-1668.2,1191.7
44.003,-0.0549,-0.311,7.9652,-0.33,8.18,-1.31,12.46,-1904.6,1218.6
44.072,-0.0798,-0.3093,8.0081,-0.34,8.2,-1.77,11.09,-1888.6,1126.4
44.143,-0.0815,-0.3359,8.0539,-0.35,8.22,-0.63,9.56,-1532.4,1069.8
44.215,-0.0995,-0.3157,8.1006,-0.35,8.24,-2.18,7.96,-1892.6,996.0
44.284,-0.0867,-0.334,8.1371,-0.36,8.26,-1.52,6.87,-1619.5,1032.8
44.355,-0.0603,-0.3549,8.1802,-0.37,8.27,-0.72,5.4,-1568.6,926.4
44.425,-0.0631,-0.3532,8.2158,-0.37,8.29,-1.23,4.32,-1896.1,940.2
44.495,-0.0701,-0.3315,8.2584,-0.38,8.31,-2.89,2.82,-2000.0,803.5
44.566,-0.0643,-0.3684,8.3038,-0.39,8.32,-1.2,1.13,-1808.8,717.3
44.638,-0.0496,-0.3906,8.3403,-0.4,8.34,-0.36,-0.07,-1558.7,748.1
44.709,-0.0622,-0.4108,8.3831,-0.4,8.35,0.36,-1.66,-1569.8,536.0
44.778,-0.0482,-0.4119,8.4182,-0.41,8.37,-0.01,-2.87,-1844.1,544.9
44.85,-0.0319,-0.4067,8.451,-0.42,8.38,-0.76,-3.95,-1937.3,488.4
44.921,-0.0226,-0.4209,8.4925,-0.43,8.4,-0.39,-5.56,-1674.6,131.8
44.991,-0.0437,-0.4578,8.527,-0.44,8.41,1.29,-6.82,-1324.6,131.0
45.064,-0.0446,-0.4621,8.5598,-0.44,8.42,1.08,-7.98,-1689.7,48.4
45.134,-0.0636,-0.4735,8.5908,-0.45,8.43,1.28,-9.1,-1669.8,-64.0
45.203,-0.0507,-0.4649,8.6215,-0.46,8.44,0.36,-10.24,-1950.5,-219.7
45.274,-0.0511,-0.4771,8.6525,-0.47,8.45,0.62,-11.42,-1665.6,-334.5
45.345,-0.0646,-0.5012,8.6734,-0.47,8.46,1.57,-12.05,-1458.1,-159.5
45.415,-0.0702,-0.4985,8.7005,-0.48,8.47,0.98,-13.06,-1811.7,-437.5
45.487,-0.0672,-0.4959,8.7201,-0.49,8.48,0.4,-13.66,-1859.2,-335.9
45.556,-0.0875,-0.5024,8.7464,-0.5,8.49,0.36,-14.7,-1733.2,-622.8
45.627,-0.0563,-0.4929,8.7657,-0.5,8.5,-0.6,-15.36,-1958.3,-546.7
45.697,-0.0371,-0.4952,8.7823,-0.51,8.51,-0.87,-15.89,-1809.3,-546.4
45.769,-0.0464,-0.4986,8.7979,-0.52,8.51,-1.08,-16.39,-1796.6,-585.2
45.839,-0.0629,-0.5148,8.813,-0.52,8.52,-0.53,-16.89,-1600.1,-629.9
45.909,-0.0679,-0.5289,8.818,-0.53,8.52,-0.1,-16.84,-1617.3,-399.1
45.98,-0.0532,-0.5146,8.8292,-0.54,8.53,-1.29,-17.17,-1970.4,-605.5
46.049,-0.0611,-0.5308,8.8328,-0.54,8.53,-0.71,-17.1,-1621.0,-423.4
46.12,-0.0727,-0.542,8.8436,-0.55,8.54,-0.42,-17.45,-1657.1,-632.6
46.191,-0.0794,-0.5426,8.8472,-0.56,8.54,-0.71,-17.42,-1805.5,-478.9
46.263,-0.0786,-0.5354,8.8481,-0.56,8.55,-1.45,-17.25,-1915.5,-422.1
46.333,-0.0764,-0.536,8.8478,-0.57,8.55,-1.72,-17.04,-1820.2,-387.4
46.403,-0.0716,-0.5376,8.8471,-0.57,8.55,-1.91,-16.84,-1809.3,-371.5
46.475,-0.0516,-0.5473,8.8466,-0.58,8.56,-1.64,-16.65,-1693.3,-366.3
46.546,-0.0524,-0.5642,8.8459,-0.58,8.56,-0.93,-16.48,-1566.8,-349.9
46.616,-0.032,-0.5449,8.8452,-0.58,8.56,-2.27,-16.32,-1915.3,-355.1
46.686,-0.0296,-0.5298,8.8446,-0.59,8.56,-3.37,-16.19,-2000.0,-367.5
46.758,-0.0267,-0.5134,8.8441,-0.59,8.56,-4.52,-16.08,-2000.0,-377.1
46.828,-0.0527,-0.5102,8.8435,-0.6,8.56,-4.89,-15.98,-1916.5,-379.0
46.898,-0.0666,-0.5343,8.843,-0.6,8.57,-3.68,-15.89,-1563.8,-373.9
46.969,-0.0474,-0.5307,8.8426,-0.6,8.57,-4.04,-15.82,-1902.4,-380.9
47.04,-0.0677,-0.5806,8.8421,-0.6,8.57,-1.32,-15.76,-1549.9,-360.9
47.109,-0.0527,-0.5717,8.8417,-0.61,8.57,-1.95,-15.71,-1897.4,-369.3
47.181,-0.0512,-0.5335,8.8414,-0.61,8.57,-4.23,-15.68,-2000.0,-397.2
47.252,-0.0698,-0.5185,8.841,-0.61,8.57,-5.17,-15.65,-2000.0,-410.7
47.321,-0.0477,-0.525,8.8406,-0.61,8.57,-4.86,-15.62,-1774.9,-412.5
47.392,-0.051,-0.5058,8.8403,-0.61,8.57,-5.99,-15.6,-2000.0,-429.5
47.461,-0.0227,-0.5297,8.84,-0.61,8.57,-4.65,-15.58,-1762.0,-426.4
47.532,-0.0602,-0.5126,8.8398,-0.61,8.57,-5.63,-15.57,-2000.0,-441.2
47.602,-0.0351,-0.505,8.8396,-0.61,8.57,-6.05,-15.55,-1975.0,-450.8
47.673,-0.0552,-0.4882,8.8394,-0.61,8.57,-6.97,-15.54,-2000.0,-464.3
47.744,-0.0492,-0.5151,8.8391,-0.61,8.57,-5.37,-15.52,-1743.7,-456.0
47.814,-0.0314,-0.4934,8.8389,-0.61,8.57,-6.54,-15.5,-2000.0,-471.2
47.886,-0.0187,-0.4946,8.8388,-0.61,8.57,-6.37,-15.47,-1871.5,-475.0
47.957,-0.0475,-0.5027,8.8386,-0.6,8.57,-5.79,-15.44,-1768.5,-471.9
48.026,-0.0434,-0.5245,8.8384,-0.6,8.57,-4.41,-15.39,-1531.6,-460.9
48.095,-0.0458,-0.5388,8.8382,-0.6,8.57,-3.44,-15.34,-1622.5,-455.4
48.165,-0.0588,-0.5479,8.8381,-0.6,8.57,-2.75,-15.28,-1683.9,-451.6
48.238,-0.0554,-0.5576,8.838,-0.59,8.57,-2.0,-15.2,-1662.8,-445.6
48.308,-0.0486,-0.5389,8.8379,-0.59,8.57,-2.86,-15.11,-2000.0,-452.1
48.378,-0.0554,-0.5569,8.8377,-0.58,8.58,-1.61,-15.01,-1664.0,-430.0
48.448,-0.0641,-0.5805,8.8376,-0.58,8.58,-0.02,-14.89,-1377.6,-409.6
48.519,-0.062,-0.5726,8.8376,-0.58,8.58,-0.21,-14.76,-1734.3,-411.7
48.589,-0.0843,-0.5599,8.8374,-0.57,8.58,-0.67,-14.6,-1916.1,-404.0
48.662,-0.0762,-0.5568,8.8374,-0.57,8.59,-0.55,-14.42,-1784.9,-387.1
48.733,-0.0814,-0.5718,8.8373,-0.56,8.59,0.62,-14.22,-1494.0,-354.8
48.804,-0.0632,-0.5447,8.8372,-0.56,8.59,-0.62,-14.01,-1847.1,-361.3
48.874,-0.0432,-0.5434,8.8371,-0.55,8.6,-0.36,-13.77,-1749.1,-326.4
48.945,-0.0595,-0.5606,8.8371,-0.54,8.6,0.96,-13.51,-1440.1,-285.5
49.016,-0.0652,-0.5508,8.8371,-0.54,8.61,0.76,-13.22,-1792.6,-272.6
49.085,-0.0604,-0.5378,8.837,-0.53,8.61,0.38,-12.91,-1881.7,-244.4
49.155,-0.0668,-0.5377,8.8369,-0.52,8.62,0.74,-12.58,-1697.6,-201.0
49.226,-0.0774,-0.5284,8.8369,-0.52,8.62,0.6,-12.21,-1823.6,-169.0
49.296,-0.0914,-0.5255,8.8368,-0.51,8.63,0.83,-11.82,-1730.9,-122.1
49.366,-0.0812,-0.5167,8.8368,-0.5,8.64,0.73,-11.4,-1810.1,-80.4
49.437,-0.0571,-0.5028,8.8367,-0.5,8.65,0.35,-10.95,-1881.7,-34.9
49.507,-0.0391,-0.4831,8.8367,-0.49,8.65,-0.37,-10.48,-1969.2,12.7
49.577,-0.0572,-0.4823,8.8367,-0.48,8.66,0.01,-9.97,-1714.3,85.0
49.649,-0.0691,-0.5044,8.8367,-0.47,8.67,1.71,-9.43,-1357.1,168.1
49.719,-0.0777,-0.4962,8.8366,-0.47,8.68,1.67,-8.87,-1706.0,211.1
49.789,-0.0829,-0.5064,8.8366,-0.46,8.69,2.69,-8.27,-1480.9,297.1
49.859,-0.0682,-0.4979,8.8366,-0.45,8.7,2.64,-7.65,-1758.7,355.5
49.93,-0.0617,-0.4834,8.8366,-0.44,8.71,2.26,-6.98,-1842.8,430.4
50.001,-0.0436,-0.4492,8.8366,-0.44,8.73,0.74,-6.29,-2000.0,499.9
50.071,-0.0601,-0.4625,8.8366,-0.43,8.74,1.94,-5.58,-1758.4,626.1
50.14,-0.0359,-0.4373,8.8365,-0.42,8.75,0.94,-4.83,-2000.0,659.5
50.211,-0.0307,-0.4182,8.8365,-0.41,8.77,0.29,-4.04,-1938.3,707.8
50.282,-0.0445,-0.4267,8.8365,-0.41,8.78,1.21,-3.23,-1587.1,760.8
50.352,-0.0555,-0.4249,8.8365,-0.4,8.79,1.54,-2.39,-1687.9,800.1
50.423,-0.0359,-0.4162,8.8365,-0.39,8.81,1.48,-1.5,-1782.7,841.4
50.494,-0.0492,-0.3889,8.8365,-0.38,8.83,0.34,-0.59,-2000.0,879.7
50.565,-0.0187,-0.3817,8.8364,-0.38,8.84,0.34,0.35,-1790.0,927.8
50.635,-0.0165,-0.3791,8.8364,-0.37,8.86,0.6,1.31,-1724.2,969.7
50.708,-0.0497,-0.3726,8.8364,-0.36,8.88,0.65,2.34,-1774.6,1011.4
50.779,-0.0672,-0.3684,8.8364,-0.35,8.9,0.81,3.37,-1744.2,1052.5
50.849,-0.0805,-0.3608,8.8364,-0.35,8.91,0.76,4.41,-1794.0,1091.3
50.919,-0.0703,-0.374,8.8364,-0.34,8.93,1.89,5.48,-1463.5,1133.9
50.989,-0.0486,-0.3472,8.8364,-0.33,8.95,0.71,6.57,-1812.4,1165.6
51.058,-0.0557,-0.3471,8.8364,-0.33,8.97,1.06,7.68,-1688.6,1208.7
51.128,-0.0618,-0.3552,8.8364,-0.32,8.99,1.86,8.82,-1550.8,1247.4
51.198,-0.0415,-0.3392,8.8364,-0.32,9.01,1.27,9.99,-1899.7,1281.1
51.268,-0.0205,-0.3421,8.8364,-0.31,9.03,1.75,11.18,-1635.4,1321.2
51.338,-0.0224,-0.336,8.8364,-0.31,9.05,1.71,12.4,-1762.4,1356.5
51.409,-0.0419,-0.3338,8.8364,-0.3,9.07,1.87,13.64,-1708.3,1393.4
51.48,-0.0514,-0.3388,8.8463,-0.3,9.1,2.43,14.34,-1592.4,1359.7
51.551,-0.0418,-0.3306,8.8501,-0.29,9.12,2.21,15.41,-1783.9,1423.4
51.621,-0.0326,-0.3301,8.8515,-0.29,9.14,2.43,16.62,-1674.4,1470.4
51.691,-0.0278,-0.3317,8.852,-0.28,9.16,2.74,17.89,-1638.9,1508.5
51.761,-0.0193,-0.3512,8.8622,-0.28,9.19,4.06,18.62,-1311.2,1480.0
51.832,-0.0379,-0.3522,8.866,-0.28,9.21,4.31,19.76,-1611.2,1538.4
51.901,-0.0461,-0.3504,8.8774,-0.27,9.23,4.38,20.45,-1649.6,1517.4
51.971,-0.0546,-0.343,8.8816,-0.27,9.26,4.11,21.56,-1736.1,1580.8
52.042,-0.0586,-0.3403,8.8932,-0.27,9.28,4.08,22.28,-1668.2,1565.3
52.112,-0.0738,-0.3475,8.8975,-0.27,9.31,4.62,23.41,-1505.9,1628.0
52.183,-0.0771,-0.3536,8.909,-0.27,9.33,5.06,24.15,-1511.5,1610.6
52.254,-0.0553,-0.3384,8.9232,-0.26,9.35,4.27,24.73,-1832.0,1609.5
52.323,-0.0449,-0.3324,8.9385,-0.26,9.38,3.99,25.25,-1713.0,1619.7
52.393,-0.0403,-0.3169,8.9542,-0.26,9.4,3.13,25.75,-1859.7,1630.3
52.464,-0.0357,-0.319,8.97,-0.26,9.43,3.27,26.25,-1613.5,1645.5
52.533,-0.022,-0.312,8.9858,-0.26,9.45,2.88,26.74,-1750.8,1656.2
52.605,-0.0174,-0.3147,9.0016,-0.26,9.48,3.01,27.25,-1612.0,1671.3
52.675,-0.0228,-0.326,9.0274,-0.26,9.5,3.62,27.18,-1460.5,1623.5
52.745,-0.0144,-0.3174,9.0469,-0.26,9.53,3.07,27.45,-1769.8,1657.4
52.815,-0.0216,-0.331,9.074,-0.27,9.55,3.77,27.28,-1420.4,1622.3
52.889,-0.0171,-0.3284,9.0944,-0.27,9.58,3.52,27.6,-1674.4,1666.4
52.96,-0.0154,-0.3341,9.1215,-0.27,9.6,3.73,27.43,-1548.6,1627.8
53.027,-0.0109,-0.3354,9.1511,-0.27,9.62,3.67,27.03,-1616.3,1598.8
53.092,-0.0134,-0.3193,9.1819,-0.27,9.65,2.61,26.54,-1892.7,1579.3
53.159,-0.0213,-0.3129,9.2132,-0.28,9.67,2.08,26.02,-1768.2,1570.9
53.225,-0.0257,-0.3162,9.2347,-0.28,9.69,2.1,26.05,-1625.6,1626.1
53.291,-0.0249,-0.2741,9.2625,-0.28,9.71,-0.51,25.72,-1957.5,1581.4
53.358,-0.0078,-0.2931,9.2925,-0.29,9.73,0.38,25.24,-1626.3,1571.1
53.424,-0.0292,-0.3,9.3334,-0.29,9.75,0.55,24.12,-1612.5,1483.9
53.49,-0.0464,-0.3157,9.3684,-0.29,9.78,1.22,23.32,-1455.4,1500.3
53.556,-0.0397,-0.3015,9.4011,-0.3,9.8,0.15,22.63,-1784.6,1490.4
53.622,-0.0472,-0.3089,9.433,-0.3,9.82,0.31,21.98,-1623.2,1485.9
53.688,-0.0489,-0.3128,9.4646,-0.31,9.84,0.26,21.33,-1679.0,1471.4
53.754,-0.054,-0.2855,9.5059,-0.31,9.86,-1.59,20.1,-2000.0,1376.9
53.82,-0.0706,-0.276,9.541,-0.32,9.88,-2.43,19.2,-1934.0,1397.8
53.886,-0.0512,-0.3005,9.5737,-0.32,9.9,-1.34,18.42,-1603.6,1399.6
53.953,-0.051,-0.2765,9.6154,-0.33,9.91,-3.04,17.11,-1934.8,1297.4
54.019,-0.0508,-0.3061,9.6507,-0.34,9.93,-1.68,16.15,-1601.9,1326.1
54.085,-0.0419,-0.2987,9.6932,-0.34,9.95,-2.45,14.75,-1925.7,1225.8
54.152,-0.0256,-0.2988,9.7287,-0.35,9.97,-2.8,13.72,-1835.9,1247.2
54.218,-0.0439,-0.3338,9.7714,-0.35,9.99,-1.15,12.27,-1504.7,1160.3
54.284,-0.0153,-0.3311,9.8069,-0.36,10.0,-1.68,11.19,-1835.4,1167.2
54.35,-0.0159,-0.3205,9.8396,-0.37,10.02,-2.67,10.25,-1987.9,1154.9
54.416,-0.0317,-0.3369,9.8813,-0.37,10.03,-2.11,8.78,-1657.0,1043.5
54.483,-0.0167,-0.3382,9.9164,-0.38,10.05,-2.43,7.66,-1833.9,1052.8
54.549,-0.0105,-0.3556,9.9588,-0.39,10.07,-1.83,6.09,-1582.8,935.2
54.615,-0.011,-0.3493,9.9941,-0.39,10.08,-2.59,4.9,-1912.9,942.2
54.681,-0.0267,-0.3279,10.0267,-0.4,10.09,-4.22,3.84,-2000.0,918.7
54.747,-0.0222,-0.3151,10.0583,-0.41,10.11,-5.37,2.81,-2000.0,886.4
54.814,-0.0232,-0.305,10.0994,-0.42,10.12,-6.36,1.2,-2000.0,709.0
54.88,-0.0041,-0.3254,10.1342,-0.42,10.13,-5.6,-0.07,-1743.0,724.6
54.947,-0.0404,-0.3456,10.1668,-0.43,10.15,-4.86,-1.22,-1639.2,694.2
55.013,-0.0344,-0.3709,10.1983,-0.44,10.16,-3.84,-2.35,-1539.3,645.2
55.08,-0.0593,-0.4167,10.2293,-0.45,10.17,-1.63,-3.49,-1207.7,552.9
55.146,-0.0387,-0.423,10.2602,-0.45,10.18,-1.68,-4.65,-1538.2,391.3
55.212,-0.0298,-0.417,10.2812,-0.46,10.19,-2.43,-5.26,-1868.3,561.4
55.278,-0.0303,-0.445,10.3084,-0.47,10.2,-1.24,-6.26,-1538.6,306.7
55.344,-0.0406,-0.4635,10.3379,-0.47,10.21,-0.59,-7.42,-1568.7,115.2
55.411,-0.0634,-0.4732,10.3584,-0.48,10.22,-0.44,-8.08,-1698.6,259.5
55.477,-0.0669,-0.4954,10.3853,-0.49,10.23,0.44,-9.15,-1471.9,-15.1
55.542,-0.0755,-0.5065,10.4048,-0.49,10.23,0.68,-9.81,-1645.7,86.6
55.609,-0.0638,-0.5244,10.4216,-0.5,10.24,1.32,-10.34,-1517.2,101.4
55.675,-0.0619,-0.5345,10.4372,-0.51,10.25,1.51,-10.84,-1635.0,65.8
55.741,-0.0848,-0.5473,10.4525,-0.51,10.25,1.87,-11.33,-1578.6,17.5
55.807,-0.0913,-0.5633,10.4676,-0.52,10.26,2.42,-11.85,-1507.7,-35.4
